,a_nav_status_t,nav_status_D,nav_status_E,nav_status_N,nav_status_alt,nav_status_origin_lat,nav_status_origin_lon,nav_status_pitch,nav_status_roll,nav_status_yaw
0,2021-09-20 09:43:48.247557,0.5558518764804231,-55.36628687766705,-109.01322489969291,32.555538177490234,39.154599999999995,2.9449,0.14159917831420898,-0.07299945503473282,-1.5570361614227295
1,2021-09-20 09:43:48.310859,0.5557109418202183,-55.36846334672153,-109.01497291965542,32.549007415771484,39.154599999999995,2.9449,0.1400267630815506,-0.06969400495290756,-1.5547021627426147
2,2021-09-20 09:43:48.388960,0.5554559826069213,-55.372956525599164,-109.01853478020615,32.549007415771484,39.154599999999995,2.9449,0.13690347969532013,-0.06615770608186722,-1.551171898841858
3,2021-09-20 09:43:48.442554,0.5543326952520317,-55.375160531522276,-109.02051177675597,32.549007415771484,39.154599999999995,2.9449,0.12713776528835297,-0.05992186814546585,-1.541265606880188
4,2021-09-20 09:43:48.535423,0.566773751507964,-55.36988583054509,-108.99012369151531,32.5616569519043,39.154599999999995,2.9449,0.1211443766951561,-0.05740642547607422,-1.534999966621399
5,2021-09-20 09:43:48.586569,0.5672684265546257,-55.369611946669515,-108.9884834735353,32.55867385864258,39.154599999999995,2.9449,0.10871867835521698,-0.05427715927362442,-1.5213741064071655
6,2021-09-20 09:43:48.636757,0.5679656709329968,-55.369399283770754,-108.98687941784338,32.55867385864258,39.154599999999995,2.9449,0.10289958119392395,-0.05375044792890549,-1.5147795677185059
7,2021-09-20 09:43:48.710855,0.5683989895944905,-55.36911044583502,-108.98537427232239,32.5548210144043,39.154599999999995,2.9449,0.0978667289018631,-0.053998708724975586,-1.5089823007583618
8,2021-09-20 09:43:48.777958,0.5690406243025106,-55.36110534794614,-108.99660875523328,32.550479888916016,39.154599999999995,2.9449,0.0933561772108078,-0.0548369400203228,-1.5041130781173706
9,2021-09-20 09:43:48.828423,0.5694490881049242,-55.35912927778328,-108.99666975507323,32.550479888916016,39.154599999999995,2.9449,0.08484146744012833,-0.05858992785215378,-1.4968982934951782
10,2021-09-20 09:43:48.924856,0.5696580411983917,-55.35516306480716,-108.9967975361215,32.55213928222656,39.154599999999995,2.9449,0.08061870187520981,-0.06141161918640137,-1.4945787191390991
11,2021-09-20 09:43:48.977894,0.5695258861306521,-55.35305901799748,-108.99686641972819,32.55419921875,39.154599999999995,2.9449,0.07203631848096848,-0.06870377063751221,-1.492138147354126
12,2021-09-20 09:43:49.071988,0.5666464172432538,-55.34439162957523,-109.02575951763598,32.50168991088867,39.154599999999995,2.9449,0.06757685542106628,-0.0733385756611824,-1.4916468858718872
13,2021-09-20 09:43:49.122362,0.5667839822109505,-55.34154532981969,-109.0291216893653,32.50168991088867,39.154599999999995,2.9449,0.05915508046746254,-0.08370286971330643,-1.4913417100906372
14,2021-09-20 09:43:49.178080,0.566801819858321,-55.33870667353225,-109.03242786466272,32.50931167602539,39.154599999999995,2.9449,0.05523879826068878,-0.08890033513307571,-1.4914062023162842
15,2021-09-20 09:43:49.265755,0.5647096250809346,-55.3326616661855,-109.03869128797754,32.50931167602539,39.154599999999995,2.9449,0.051825426518917084,-0.09347613900899887,-1.4913893938064575
16,2021-09-20 09:43:49.319250,0.5535712775026692,-55.3348914683504,-109.05931353757079,32.4507942199707,39.154599999999995,2.9449,0.04688496142625809,-0.10013645142316818,-1.4912970066070557
17,2021-09-20 09:43:49.413801,0.5486930454993189,-55.331970181398034,-109.06947105683274,32.4507942199707,39.154599999999995,2.9449,0.04572693258523941,-0.10203037410974503,-1.4911469221115112
18,2021-09-20 09:43:49.466290,0.5459615517626399,-55.330352834385856,-109.07511611927615,32.46405792236328,39.154599999999995,2.9449,0.04680468887090683,-0.1030377745628357,-1.4902933835983276
19,2021-09-20 09:43:49.559355,0.5410472629307405,-55.327495246273706,-109.08513192092806,32.46405792236328,39.154599999999995,2.9449,0.04905111715197563,-0.10233454406261444,-1.489429235458374
20,2021-09-20 09:43:49.610238,0.5250906766005152,-55.33521236960483,-109.0737511388255,32.476890563964844,39.154599999999995,2.9449,0.056877948343753815,-0.09967514127492905,-1.4870812892913818
21,2021-09-20 09:43:49.660305,0.5207495028310614,-55.336381290704026,-109.07712454522004,32.40933609008789,39.154599999999995,2.9449,0.061741895973682404,-0.0979798212647438,-1.4857474565505981
22,2021-09-20 09:43:49.710521,0.5168060702827781,-55.3375729567937,-109.08037197724444,32.421287536621094,39.154599999999995,2.9449,0.06624732911586761,-0.0962933897972107,-1.4843686819076538
23,2021-09-20 09:43:49.802700,0.510765705135127,-55.340357357050756,-109.08666723928076,32.421287536621094,39.154599999999995,2.9449,0.06976180523633957,-0.0946141704916954,-1.482903242111206
24,2021-09-20 09:43:49.853117,0.5083142603172432,-55.34206374069737,-109.09002306117296,32.43390655517578,39.154599999999995,2.9449,0.07266231626272202,-0.09165854007005692,-1.4787946939468384
25,2021-09-20 09:43:49.903871,0.5061653181175708,-55.34578538702015,-109.08094772308094,32.43390655517578,39.154599999999995,2.9449,0.07154946029186249,-0.09020263701677322,-1.4757702350616455
26,2021-09-20 09:43:49.961425,0.503953681197663,-55.347968549848254,-109.08279322916444,32.43865966796875,39.154599999999995,2.9449,0.06882942467927933,-0.08850094676017761,-1.4721640348434448
27,2021-09-20 09:43:50.047006,0.5010115319509436,-55.352646965679,-109.0863161428533,32.43865966796875,39.154599999999995,2.9449,0.06465320289134979,-0.08645748347043991,-1.4681289196014404
28,2021-09-20 09:43:50.100114,0.4993226051734764,-55.35528115713607,-109.08826405702177,32.43865966796875,39.154599999999995,2.9449,0.052784331142902374,-0.08034612983465195,-1.458788275718689
29,2021-09-20 09:43:50.192607,0.5143012240166922,-55.35883830779529,-109.09354512058847,32.43901443481445,39.154599999999995,2.9449,0.04673179239034653,-0.07650519907474518,-1.454271912574768
30,2021-09-20 09:43:50.244351,0.5139375611104757,-55.36025871088952,-109.0956111730382,32.44185256958008,39.154599999999995,2.9449,0.04071303829550743,-0.07215488702058792,-1.4498050212860107
31,2021-09-20 09:43:50.338974,0.5130521860641638,-55.36303435413065,-109.09965438012377,32.44185256958008,39.154599999999995,2.9449,0.031578708440065384,-0.06296423077583313,-1.4426430463790894
32,2021-09-20 09:43:50.391539,0.512074969582833,-55.364408931574765,-109.10184140930741,32.445255279541016,39.154599999999995,2.9449,0.02858607843518257,-0.05355072394013405,-1.4385478496551514
33,2021-09-20 09:43:50.486334,0.5197353937689406,-55.370295935035585,-109.11019978647985,32.40687561035156,39.154599999999995,2.9449,0.0296830702573061,-0.04935614764690399,-1.4373222589492798
34,2021-09-20 09:43:50.537589,0.5198071819610597,-55.37201594538145,-109.11283407482328,32.40687561035156,39.154599999999995,2.9449,0.03702222928404808,-0.04300874099135399,-1.4354636669158936
35,2021-09-20 09:43:50.631840,0.5190984472183862,-55.37497657426868,-109.11769504069564,32.40229034423828,39.154599999999995,2.9449,0.04297257959842682,-0.041155628859996796,-1.4346665143966675
36,2021-09-20 09:43:50.683479,0.5188824281935422,-55.37667068528957,-109.12035333951468,32.40229034423828,39.154599999999995,2.9449,0.0576874278485775,-0.04048595950007439,-1.4328694343566895
37,2021-09-20 09:43:50.778871,0.5220650627525469,-55.386000817241836,-109.11218069424795,32.328670501708984,39.154599999999995,2.9449,0.06557626277208328,-0.041387543082237244,-1.4320118427276611
38,2021-09-20 09:43:50.831916,0.5235172684204282,-55.38937293254459,-109.11338442819137,32.328670501708984,39.154599999999995,2.9449,0.08068673312664032,-0.04443419352173805,-1.4301726818084717
39,2021-09-20 09:43:50.925872,0.5255909309694201,-55.395231337476446,-109.11551093526406,32.33381271362305,39.154599999999995,2.9449,0.09098493307828903,-0.04771740734577179,-1.4275314807891846
40,2021-09-20 09:43:50.977194,0.5282896549318025,-55.39871303470463,-109.11655575869581,32.320892333984375,39.154599999999995,2.9449,0.09363479167222977,-0.04893454164266586,-1.4257477521896362
41,2021-09-20 09:43:51.070697,0.5429004030733026,-55.403841092646914,-109.10706452892207,32.258636474609375,39.154599999999995,2.9449,0.09418484568595886,-0.04954079911112785,-1.4233925342559814
42,2021-09-20 09:43:51.121682,0.5455147650900973,-55.40669750598257,-109.10700719467073,32.243900299072266,39.154599999999995,2.9449,0.08904317021369934,-0.04772926867008209,-1.4171851873397827
43,2021-09-20 09:43:51.171702,0.5474929482074786,-55.40932120664987,-109.10696346216861,32.243900299072266,39.154599999999995,2.9449,0.0837702751159668,-0.045319702476263046,-1.4131816625595093
44,2021-09-20 09:43:51.222630,0.5492915223753988,-55.41191764620392,-109.10692359911837,32.243900299072266,39.154599999999995,2.9449,0.07707834243774414,-0.04222280904650688,-1.4084855318069458
45,2021-09-20 09:43:51.314238,0.5478441833963066,-55.40448808766324,-109.11867184996942,32.23194885253906,39.154599999999995,2.9449,0.07036169618368149,-0.03933963552117348,-1.4038265943527222
46,2021-09-20 09:43:51.367701,0.5486317425041703,-55.40440168619654,-109.12023981383378,32.23194885253906,39.154599999999995,2.9449,0.05571766942739487,-0.03551065921783447,-1.3944454193115234
47,2021-09-20 09:43:51.461304,0.5489402904180501,-55.40393423740515,-109.12303432940921,32.234092712402344,39.154599999999995,2.9449,0.04909992218017578,-0.03533497825264931,-1.3906445503234863
48,2021-09-20 09:43:51.539113,0.5332155906900449,-55.39647291303149,-109.1556983290446,32.23664474487305,39.154599999999995,2.9449,0.038236282765865326,-0.038687314838171005,-1.3857611417770386
49,2021-09-20 09:43:51.606396,0.5292394497354618,-55.393631447423076,-109.16304045769537,32.2480354309082,39.154599999999995,2.9449,0.03439471125602722,-0.04202820360660553,-1.3850642442703247
50,2021-09-20 09:43:51.656730,0.5269558600541546,-55.3917051230607,-109.1685163507921,32.26043701171875,39.154599999999995,2.9449,0.03055613860487938,-0.051078151911497116,-1.386915922164917
51,2021-09-20 09:43:51.753271,0.5225279403635896,-55.387975716108485,-109.17903210099425,32.26043701171875,39.154599999999995,2.9449,0.030772577971220016,-0.05622899532318115,-1.3894129991531372
52,2021-09-20 09:43:51.806402,0.5202947500161944,-55.38595877811641,-109.18481521222895,32.28852081298828,39.154599999999995,2.9449,0.03562217950820923,-0.06630240380764008,-1.3968816995620728
53,2021-09-20 09:43:51.899508,0.5162936862674398,-55.38369302913121,-109.20388986886793,32.23062515258789,39.154599999999995,2.9449,0.039800677448511124,-0.07041105628013611,-1.401267409324646
54,2021-09-20 09:43:51.951311,0.5146338430630225,-55.38189888538136,-109.21047255804922,32.23062515258789,39.154599999999995,2.9449,0.0509786494076252,-0.07730503380298615,-1.4106465578079224
55,2021-09-20 09:43:52.002745,0.5131581212781187,-55.38011868612647,-109.21700064283769,32.23366165161133,39.154599999999995,2.9449,0.05720793828368187,-0.08003970980644226,-1.4147754907608032
56,2021-09-20 09:43:52.094735,0.5109731047203843,-55.376961084906135,-109.2286568856675,32.23366165161133,39.154599999999995,2.9449,0.06302506476640701,-0.08237197995185852,-1.417862892150879
57,2021-09-20 09:43:52.146292,0.5170034136204378,-55.38586666649965,-109.20787424611672,32.1776237487793,39.154599999999995,2.9449,0.07324700802564621,-0.08634815365076065,-1.4200520515441895
58,2021-09-20 09:43:52.240369,0.5183579961443263,-55.38791256079038,-109.21367004288702,32.1776237487793,39.154599999999995,2.9449,0.0770086869597435,-0.08789525181055069,-1.4186253547668457
59,2021-09-20 09:43:52.294824,0.519130952308893,-55.38910150432793,-109.21702257958798,32.169498443603516,39.154599999999995,2.9449,0.08173925429582596,-0.08934461325407028,-1.4101930856704712
60,2021-09-20 09:43:52.377701,0.5187098030560815,-55.38984808067608,-109.21997133161723,32.16124725341797,39.154599999999995,2.9449,0.0826982706785202,-0.08868901431560516,-1.4036312103271484
61,2021-09-20 09:43:52.436453,0.5103165963769759,-55.399768109057156,-109.21401551734576,32.16124725341797,39.154599999999995,2.9449,0.08298599720001221,-0.08711788803339005,-1.395849585533142
62,2021-09-20 09:43:52.487655,0.5088606725657192,-55.40272037829772,-109.21566094964066,32.17306137084961,39.154599999999995,2.9449,0.08288924396038055,-0.08444531261920929,-1.3866939544677734
63,2021-09-20 09:43:52.581654,0.5073073362191503,-55.40849950163691,-109.21854749955615,32.17747497558594,39.154599999999995,2.9449,0.08255031704902649,-0.07764977216720581,-1.3677314519882202
64,2021-09-20 09:43:52.634899,0.5064771335521092,-55.41180415011879,-109.22012937813125,32.17747497558594,39.154599999999995,2.9449,0.08426482230424881,-0.06976725906133652,-1.3504072427749634
65,2021-09-20 09:43:52.727452,0.5044935262875263,-55.40883829768417,-109.23001124618939,32.24578857421875,39.154599999999995,2.9449,0.08653213083744049,-0.0663352683186531,-1.34358549118042
66,2021-09-20 09:43:52.777857,0.5044829941001752,-55.41045486329624,-109.23231063285053,32.25062561035156,39.154599999999995,2.9449,0.08966612070798874,-0.0636158213019371,-1.3385663032531738
67,2021-09-20 09:43:52.830250,0.5045073876606772,-55.41223315897764,-109.23481085280214,32.25062561035156,39.154599999999995,2.9449,0.09889968484640121,-0.061600055545568466,-1.3341524600982666
68,2021-09-20 09:43:52.910437,0.5049494387006175,-55.41387932854767,-109.2369435439583,32.256256103515625,39.154599999999995,2.9449,0.10407073050737381,-0.06227932125329971,-1.3352206945419312
69,2021-09-20 09:43:52.971556,0.5182176881375913,-55.410685916342835,-109.2509492725583,32.256256103515625,39.154599999999995,2.9449,0.10936753451824188,-0.06400486081838608,-1.3385573625564575
70,2021-09-20 09:43:53.021994,0.5198928366720376,-55.41020614905089,-109.25470003493119,32.27958679199219,39.154599999999995,2.9449,0.11734337359666824,-0.069586843252182,-1.349782943725586
71,2021-09-20 09:43:53.117886,0.5244156731845261,-55.4096185463225,-109.26174118842926,32.270809173583984,39.154599999999995,2.9449,0.11945008486509323,-0.07284291833639145,-1.3564302921295166
72,2021-09-20 09:43:53.169072,0.5273953177212157,-55.40943030252211,-109.26545876821356,32.270809173583984,39.154599999999995,2.9449,0.11887615919113159,-0.0785333514213562,-1.3677668571472168
73,2021-09-20 09:43:53.219087,0.5388658507918405,-55.40317547303504,-109.25951662688367,32.2587890625,39.154599999999995,2.9449,0.11675532907247543,-0.08028942346572876,-1.371375560760498
74,2021-09-20 09:43:53.313195,0.5462418289956941,-55.399213626595326,-109.2643746788722,32.28900909423828,39.154599999999995,2.9449,0.11380042880773544,-0.08105457574129105,-1.3732024431228638
75,2021-09-20 09:43:53.367477,0.5501041690503217,-55.39679777601486,-109.26719539469703,32.28900909423828,39.154599999999995,2.9449,0.10646429657936096,-0.07949075847864151,-1.3717678785324097
76,2021-09-20 09:43:53.460000,0.5560525494642754,-55.392480927500216,-109.27206694619747,32.2775764465332,39.154599999999995,2.9449,0.1025523990392685,-0.07718955725431442,-1.3688390254974365
77,2021-09-20 09:43:53.512416,0.5523646001817953,-55.38171533052691,-109.27397081391074,32.36080551147461,39.154599999999995,2.9449,0.09468512237071991,-0.07054197043180466,-1.3608663082122803
78,2021-09-20 09:43:53.605507,0.556033348708064,-55.37415849490825,-109.27904434185477,32.36080551147461,39.154599999999995,2.9449,0.09067530930042267,-0.06716125458478928,-1.3567942380905151
79,2021-09-20 09:43:53.657099,0.5577973464896248,-55.36990307816828,-109.28190442862187,32.36281204223633,39.154599999999995,2.9449,0.08147250860929489,-0.06206928938627243,-1.34952974319458
80,2021-09-20 09:43:53.707807,0.5588595562811913,-55.365528042499704,-109.28477107931157,32.36281204223633,39.154599999999995,2.9449,0.07639923691749573,-0.060868632048368454,-1.3466298580169678
81,2021-09-20 09:43:53.777672,0.5595563734061124,-55.36126887808182,-109.2875389560973,32.364986419677734,39.154599999999995,2.9449,0.0713968500494957,-0.060750577598810196,-1.344340443611145
82,2021-09-20 09:43:53.850954,0.5600157761864105,-55.34691415743539,-109.30861061856874,32.37429428100586,39.154599999999995,2.9449,0.06670038402080536,-0.06159611791372299,-1.3425408601760864
83,2021-09-20 09:43:53.903381,0.5609746566542181,-55.34099674171304,-109.3135061126247,32.37429428100586,39.154599999999995,2.9449,0.059572506695985794,-0.06533259153366089,-1.3391234874725342
84,2021-09-20 09:43:53.998955,0.5620236741651778,-55.33003139828725,-109.32248981412646,32.37750244140625,39.154599999999995,2.9449,0.05824124068021774,-0.06746020168066025,-1.3372677564620972
85,2021-09-20 09:43:54.059056,0.5593795218396993,-55.33328208498293,-109.33050363210492,32.38106155395508,39.154599999999995,2.9449,0.06132327765226364,-0.07119385153055191,-1.333091378211975
86,2021-09-20 09:43:54.142896,0.5591727991453578,-55.328257209182524,-109.33836092364692,32.35892105102539,39.154599999999995,2.9449,0.06635483354330063,-0.07234296947717667,-1.3310612440109253
87,2021-09-20 09:43:54.197234,0.5596198338176978,-55.325184676322955,-109.34342940581251,32.356815338134766,39.154599999999995,2.9449,0.08317237347364426,-0.07236690074205399,-1.3271373510360718
88,2021-09-20 09:43:54.289101,0.5607111839726877,-55.32011085331643,-109.35199510172302,32.356815338134766,39.154599999999995,2.9449,0.09347300976514816,-0.07146064192056656,-1.325435757637024
89,2021-09-20 09:43:54.339169,0.5664855122516755,-55.331603731735804,-109.33882816901337,32.35430908203125,39.154599999999995,2.9449,0.10482975095510483,-0.06967049837112427,-1.3236637115478516
90,2021-09-20 09:43:54.389735,0.5670566391528242,-55.332777485366265,-109.34078004885208,32.29590606689453,39.154599999999995,2.9449,0.1254650354385376,-0.06431927531957626,-1.3204901218414307
91,2021-09-20 09:43:54.444184,0.5677001643908832,-55.333951642128724,-109.34265291402701,32.28186798095703,39.154599999999995,2.9449,0.1340261846780777,-0.06123833730816841,-1.3191097974777222
92,2021-09-20 09:43:54.532552,0.5691592171468971,-55.33632364071477,-109.3462577676233,32.28186798095703,39.154599999999995,2.9449,0.14095436036586761,-0.05812522768974304,-1.3179136514663696
93,2021-09-20 09:43:54.582958,0.5700083127535864,-55.33762924832633,-109.3481842645155,32.26288986206055,39.154599999999995,2.9449,0.14552925527095795,-0.055303797125816345,-1.3169653415679932
94,2021-09-20 09:43:54.679041,0.5791661139960029,-55.344677424802455,-109.32189195325539,32.26783752441406,39.154599999999995,2.9449,0.14729344844818115,-0.05176149308681488,-1.3152424097061157
95,2021-09-20 09:43:54.729481,0.5816270305855215,-55.34745330242217,-109.32029683062602,32.2841796875,39.154599999999995,2.9449,0.1408250778913498,-0.052768249064683914,-1.3131078481674194
96,2021-09-20 09:43:54.779751,0.5839523945179528,-55.35016842142914,-109.31871185679059,32.27045440673828,39.154599999999995,2.9449,0.1359001249074936,-0.05564083158969879,-1.3118224143981934
97,2021-09-20 09:43:54.873790,0.5878903890914752,-55.35507160852849,-109.31575321393784,32.27045440673828,39.154599999999995,2.9449,0.13090653717517853,-0.059716638177633286,-1.3102469444274902
98,2021-09-20 09:43:54.925671,0.5757088031398703,-55.35729820340911,-109.32104783576868,32.34000778198242,39.154599999999995,2.9449,0.12300431728363037,-0.07057652622461319,-1.3058388233184814
99,2021-09-20 09:43:55.020257,0.573813885067722,-55.362105515959946,-109.31954346632834,32.34000778198242,39.154599999999995,2.9449,0.12118077278137207,-0.07647115737199783,-1.3032654523849487
100,2021-09-20 09:43:55.073177,0.5728170829566555,-55.364810367244864,-109.31868719923769,32.34844970703125,39.154599999999995,2.9449,0.12221137434244156,-0.08789817243814468,-1.2979522943496704
101,2021-09-20 09:43:55.165545,0.5718461465187769,-55.36977380600091,-109.31711866621893,32.34844970703125,39.154599999999995,2.9449,0.12491875886917114,-0.0929301455616951,-1.295627474784851
102,2021-09-20 09:43:55.217866,0.5583965208070635,-55.37217681778073,-109.3484377830918,32.357200622558594,39.154599999999995,2.9449,0.13303421437740326,-0.10157328099012375,-1.292091727256775
103,2021-09-20 09:43:55.310965,0.5570055191441158,-55.37466191446257,-109.3511615129619,32.399208068847656,39.154599999999995,2.9449,0.13803263008594513,-0.1052820086479187,-1.2909586429595947
104,2021-09-20 09:43:55.362198,0.5547869573594818,-55.37983246000468,-109.356615632078,32.399208068847656,39.154599999999995,2.9449,0.14336340129375458,-0.10865071415901184,-1.2902295589447021
105,2021-09-20 09:43:55.444375,0.5539317071902244,-55.38259440886854,-109.3594322253596,32.40925979614258,39.154599999999995,2.9449,0.1537511646747589,-0.11404931545257568,-1.2902015447616577
106,2021-09-20 09:43:55.507182,0.5570397857806276,-55.38919348308088,-109.37707990160783,32.40925979614258,39.154599999999995,2.9449,0.15854762494564056,-0.11578969657421112,-1.2907017469406128
107,2021-09-20 09:43:55.559058,0.557779277467575,-55.392185279031324,-109.38145020050905,32.41171646118164,39.154599999999995,2.9449,0.1667960286140442,-0.11751624941825867,-1.2927597761154175
108,2021-09-20 09:43:55.609781,0.5586961011107608,-55.395169880249945,-109.3857101724451,32.41123962402344,39.154599999999995,2.9449,0.17012415826320648,-0.11743081361055374,-1.2939194440841675
109,2021-09-20 09:43:55.703310,0.5602746752909936,-55.40061293522554,-109.39357689561263,32.41123962402344,39.154599999999995,2.9449,0.172543004155159,-0.11669421941041946,-1.2948247194290161
110,2021-09-20 09:43:55.753886,0.5717412798126528,-55.40462013308895,-109.38821489511548,32.4107551574707,39.154599999999995,2.9449,0.17533627152442932,-0.1131591945886612,-1.295248031616211
111,2021-09-20 09:43:55.805045,0.5733987672712081,-55.40737933232513,-109.39138147036024,32.525047302246094,39.154599999999995,2.9449,0.1755369007587433,-0.11015655845403671,-1.2942984104156494
112,2021-09-20 09:43:55.898109,0.5759792194491362,-55.41227663575393,-109.39717446544299,32.51852035522461,39.154599999999995,2.9449,0.17499348521232605,-0.1064641922712326,-1.2925429344177246
113,2021-09-20 09:43:55.950765,0.577081942854903,-55.41494301997499,-109.40047778223767,32.51852035522461,39.154599999999995,2.9449,0.17166881263256073,-0.09657975286245346,-1.2860126495361328
114,2021-09-20 09:43:56.002292,0.5780649167297617,-55.41753423410512,-109.40371491041465,32.50967025756836,39.154599999999995,2.9449,0.16909103095531464,-0.09057074040174484,-1.281290888786316
115,2021-09-20 09:43:56.092416,0.5909907532777579,-55.404075430720106,-109.39163268970782,32.65774154663086,39.154599999999995,2.9449,0.1665012538433075,-0.08498305827379227,-1.2765032052993774
116,2021-09-20 09:43:56.144694,0.5936823391764134,-55.40331968468567,-109.39342219970403,32.65774154663086,39.154599999999995,2.9449,0.16066211462020874,-0.07417911291122437,-1.2661097049713135
117,2021-09-20 09:43:56.239496,0.5978749994261313,-55.40173246176898,-109.39677923388038,32.64894485473633,39.154599999999995,2.9449,0.15779785811901093,-0.0696481242775917,-1.261599063873291
118,2021-09-20 09:43:56.289781,0.6002497259928973,-55.400954297625695,-109.39856798978515,32.64894485473633,39.154599999999995,2.9449,0.15519356727600098,-0.06586791574954987,-1.2581321001052856
119,2021-09-20 09:43:56.341908,0.6065192637195961,-55.390483760274115,-109.40640727392636,32.75108337402344,39.154599999999995,2.9449,0.15119220316410065,-0.06004226207733154,-1.2551623582839966
120,2021-09-20 09:43:56.434410,0.6115354301577198,-55.38461259959331,-109.41174844093042,32.75108337402344,39.154599999999995,2.9449,0.1502479910850525,-0.05806341394782066,-1.2559534311294556
121,2021-09-20 09:43:56.488522,0.6147430622371894,-55.38126941961478,-109.41484993313095,32.74440002441406,39.154599999999995,2.9449,0.15045063197612762,-0.05632960796356201,-1.2614997625350952
122,2021-09-20 09:43:56.578095,0.6172096666969719,-55.3782833310845,-109.41754092392107,32.73811340332031,39.154599999999995,2.9449,0.15142104029655457,-0.05708218738436699,-1.265375018119812
123,2021-09-20 09:43:56.630188,0.6095740304491126,-55.375167940899566,-109.43002941587444,32.73811340332031,39.154599999999995,2.9449,0.15283812582492828,-0.058733295649290085,-1.2693352699279785
124,2021-09-20 09:43:56.681489,0.6102099974080999,-55.37266422167598,-109.43359106405481,32.76346206665039,39.154599999999995,2.9449,0.1565423458814621,-0.06419242918491364,-1.2756067514419556
125,2021-09-20 09:43:56.774664,0.6110900434365532,-55.367995801994475,-109.44006465976987,32.777740478515625,39.154599999999995,2.9449,0.15853947401046753,-0.06734798103570938,-1.2772610187530518
126,2021-09-20 09:43:56.826303,0.6116005426382723,-55.36541684750418,-109.44364254289825,32.7780647277832,39.154599999999995,2.9449,0.16159245371818542,-0.07255084067583084,-1.2770589590072632
127,2021-09-20 09:43:56.876377,0.595818431139067,-55.36424417438435,-109.44855613561958,32.7780647277832,39.154599999999995,2.9449,0.16219648718833923,-0.07455503940582275,-1.2756321430206299
128,2021-09-20 09:43:56.971244,0.5934565792431723,-55.361902314427056,-109.45489814534704,32.731651306152344,39.154599999999995,2.9449,0.16198350489139557,-0.07625206559896469,-1.2734352350234985
129,2021-09-20 09:43:57.023758,0.5922113339442537,-55.36064340710337,-109.45841130665727,32.74061584472656,39.154599999999995,2.9449,0.1594904065132141,-0.07875256985425949,-1.2673252820968628
130,2021-09-20 09:43:57.111242,0.5907107950750696,-55.35936533556809,-109.4617245992254,32.75160598754883,39.154599999999995,2.9449,0.15754425525665283,-0.07986094802618027,-1.2639440298080444
131,2021-09-20 09:43:57.165675,0.5882444830767675,-55.36671888892325,-109.47580673868448,32.75160598754883,39.154599999999995,2.9449,0.15531036257743835,-0.08088597655296326,-1.2605137825012207
132,2021-09-20 09:43:57.219705,0.5864537144317862,-55.36734869396401,-109.48019190085226,32.7379150390625,39.154599999999995,2.9449,0.15108928084373474,-0.08299234509468079,-1.253814935684204
133,2021-09-20 09:43:57.311572,0.5843820629239953,-55.36880951170387,-109.48754920957303,32.74476623535156,39.154599999999995,2.9449,0.14967377483844757,-0.08390108495950699,-1.2508111000061035
134,2021-09-20 09:43:57.365062,0.5832044529994292,-55.36968658631639,-109.49182940666904,32.74476623535156,39.154599999999995,2.9449,0.1486414521932602,-0.08574093133211136,-1.2451921701431274
135,2021-09-20 09:43:57.418772,0.5921941286495834,-55.37384849140488,-109.49699644006544,32.754127502441406,39.154599999999995,2.9449,0.14894501864910126,-0.08662708103656769,-1.24287748336792
136,2021-09-20 09:43:57.506184,0.5912018082020504,-55.375105194195335,-109.50440530519707,32.750579833984375,39.154599999999995,2.9449,0.149506613612175,-0.08749710023403168,-1.2405798435211182
137,2021-09-20 09:43:57.557464,0.5907246232988138,-55.37589197930739,-109.50873939450665,32.750579833984375,39.154599999999995,2.9449,0.15042750537395477,-0.0886043906211853,-1.236649751663208
138,2021-09-20 09:43:57.652370,0.590154571205941,-55.37748638930719,-109.5167241925238,32.74788284301758,39.154599999999995,2.9449,0.15039822459220886,-0.08855577558279037,-1.234540343284607
139,2021-09-20 09:43:57.702377,0.5951962776716049,-55.37916775622637,-109.51152946253043,32.74788284301758,39.154599999999995,2.9449,0.1498899757862091,-0.08812480419874191,-1.2323017120361328
140,2021-09-20 09:43:57.799284,0.5960195740112348,-55.38133628204922,-109.51726030414609,32.733543395996094,39.154599999999995,2.9449,0.14755989611148834,-0.08624499291181564,-1.2269669771194458
141,2021-09-20 09:43:57.850420,0.5975841389369739,-55.38289086788513,-109.5201649715349,32.72974395751953,39.154599999999995,2.9449,0.1445898562669754,-0.08388739824295044,-1.220932126045227
142,2021-09-20 09:43:57.945499,0.6004578206281964,-55.38578262312483,-109.52556253681207,32.72974395751953,39.154599999999995,2.9449,0.14347516000270844,-0.08264279365539551,-1.2181111574172974
143,2021-09-20 09:43:57.999158,0.5983658366180394,-55.38778480532992,-109.52078319003805,32.726016998291016,39.154599999999995,2.9449,0.14316312968730927,-0.0804760679602623,-1.2141776084899902
144,2021-09-20 09:43:58.091777,0.5975421988017445,-55.3906477643038,-109.52425968877533,32.74058151245117,39.154599999999995,2.9449,0.14427870512008667,-0.07977765798568726,-1.2137752771377563
145,2021-09-20 09:43:58.144029,0.5971647720208395,-55.392295351163675,-109.52621326973552,32.74150466918945,39.154599999999995,2.9449,0.14909283816814423,-0.07963203638792038,-1.2166130542755127
146,2021-09-20 09:43:58.239517,0.5969249877349624,-55.39545792549866,-109.52974575296253,32.74150466918945,39.154599999999995,2.9449,0.15250815451145172,-0.08011015504598618,-1.2195135354995728
147,2021-09-20 09:43:58.336187,0.5926614743234403,-55.404136033127024,-109.5321470320137,32.737422943115234,39.154599999999995,2.9449,0.16039274632930756,-0.08205629885196686,-1.227271556854248
148,2021-09-20 09:43:58.386963,0.5923324765430089,-55.40707608940384,-109.53370110620445,32.73603057861328,39.154599999999995,2.9449,0.16796967387199402,-0.08478179574012756,-1.2347629070281982
149,2021-09-20 09:43:58.483288,0.5912198372240683,-55.412464434264976,-109.53673120773847,32.73603057861328,39.154599999999995,2.9449,0.17105256021022797,-0.08613564819097519,-1.237387776374817
150,2021-09-20 09:43:58.539124,0.5912745611197602,-55.41583569744875,-109.53192561814723,32.73440933227539,39.154599999999995,2.9449,0.1754072606563568,-0.08780176937580109,-1.2383960485458374
151,2021-09-20 09:43:58.628374,0.5905593076913299,-55.42144174983097,-109.53309857978103,32.70778274536133,39.154599999999995,2.9449,0.17664173245429993,-0.08797195553779602,-1.2365598678588867
152,2021-09-20 09:43:58.680935,0.5901522729482459,-55.424752046723825,-109.53377446662446,32.706382751464844,39.154599999999995,2.9449,0.176845982670784,-0.08706074953079224,-1.2285735607147217
153,2021-09-20 09:43:58.774988,0.5895950337895384,-55.43074228249293,-109.53492153140395,32.721187591552734,39.154599999999995,2.9449,0.17601633071899414,-0.0859600156545639,-1.2229975461959839
154,2021-09-20 09:43:58.825122,0.5901786913434599,-55.42724920776862,-109.53735840882521,32.71977615356445,39.154599999999995,2.9449,0.17304733395576477,-0.08276066184043884,-1.2100815773010254
155,2021-09-20 09:43:58.875479,0.5905998503162034,-55.42889363260837,-109.53843075402341,32.75797653198242,39.154599999999995,2.9449,0.17124687135219574,-0.08062135428190231,-1.203345537185669
156,2021-09-20 09:43:58.970342,0.591420772643047,-55.432024761738795,-109.54041841108173,32.75797653198242,39.154599999999995,2.9449,0.1696026474237442,-0.07840392738580704,-1.1973280906677246
157,2021-09-20 09:43:59.022184,0.5918066359494576,-55.43372091434873,-109.54149935746017,32.76145935058594,39.154599999999995,2.9449,0.16709350049495697,-0.07361210882663727,-1.1881535053253174
158,2021-09-20 09:43:59.099535,0.5869298657767144,-55.42924741124771,-109.55021718181527,32.76145935058594,39.154599999999995,2.9449,0.16635075211524963,-0.07140038162469864,-1.1856931447982788
159,2021-09-20 09:43:59.164539,0.5873992263561808,-55.42951118278555,-109.55301715710152,32.820587158203125,39.154599999999995,2.9449,0.16597861051559448,-0.06959666311740875,-1.1847118139266968
160,2021-09-20 09:43:59.214929,0.587029769555333,-55.42945468342722,-109.55527081015951,32.820587158203125,39.154599999999995,2.9449,0.16619838774204254,-0.06805918365716934,-1.1876134872436523
161,2021-09-20 09:43:59.265184,0.5867025106371544,-55.4294072480326,-109.55751256954795,32.82799530029297,39.154599999999995,2.9449,0.16668492555618286,-0.06851836293935776,-1.1910682916641235
162,2021-09-20 09:43:59.315558,0.5864230846669427,-55.429366951712716,-109.55975386328286,32.82799530029297,39.154599999999995,2.9449,0.16732542216777802,-0.06976570188999176,-1.1953994035720825
163,2021-09-20 09:43:59.377378,0.5862279609571174,-55.42934070936496,-109.56189064842101,32.835365295410156,39.154599999999995,2.9449,0.1680966168642044,-0.07164742052555084,-1.2000541687011719
164,2021-09-20 09:43:59.457829,0.5760739177281943,-55.4185942094089,-109.57010898801525,32.868045806884766,39.154599999999995,2.9449,0.16883981227874756,-0.07411011308431625,-1.2047102451324463
165,2021-09-20 09:43:59.508824,0.5751941851274958,-55.416998137169685,-109.57293150068992,32.868045806884766,39.154599999999995,2.9449,0.1699686050415039,-0.07980436831712723,-1.212801456451416
166,2021-09-20 09:43:59.561755,0.5744900674528004,-55.41549953990753,-109.57563034871066,32.889404296875,39.154599999999995,2.9449,0.1700427383184433,-0.08261477947235107,-1.2154630422592163
167,2021-09-20 09:43:59.651640,0.573554842443446,-55.41274998705842,-109.58074315407285,32.889404296875,39.154599999999995,2.9449,0.16974474489688873,-0.08521346002817154,-1.216793417930603
168,2021-09-20 09:43:59.704516,0.5703421028452483,-55.404131216777856,-109.58022367878178,32.889404296875,39.154599999999995,2.9449,0.16709230840206146,-0.08953205496072769,-1.2153618335723877
169,2021-09-20 09:43:59.777566,0.5697291780094096,-55.40163632603213,-109.58259885559828,32.902957916259766,39.154599999999995,2.9449,0.16490015387535095,-0.09123022854328156,-1.2126657962799072
170,2021-09-20 09:43:59.847876,0.5678565646755184,-55.396481572394656,-109.58743143319317,32.902957916259766,39.154599999999995,2.9449,0.1622917801141739,-0.09254319220781326,-1.208868384361267
171,2021-09-20 09:43:59.900732,0.5668120959811282,-55.39364665869372,-109.59013090845187,32.902957916259766,39.154599999999995,2.9449,0.15677005052566528,-0.09370658546686172,-1.1987347602844238
172,2021-09-20 09:43:59.993009,0.5765752975503462,-55.391245431490994,-109.5968922765751,32.91220474243164,39.154599999999995,2.9449,0.15442600846290588,-0.09362322092056274,-1.1933482885360718
173,2021-09-20 09:44:00.044297,0.5768727210809338,-55.38853935614958,-109.59981652327389,32.91379928588867,39.154599999999995,2.9449,0.1524694561958313,-0.093198761343956,-1.1876808404922485
174,2021-09-20 09:44:00.094338,0.5771384636287097,-55.385740489498836,-109.60286370962929,32.91379928588867,39.154599999999995,2.9449,0.14996595680713654,-0.09192874282598495,-1.1771881580352783
175,2021-09-20 09:44:00.177255,0.5773698679784859,-55.383065784370324,-109.60580127841777,32.91574478149414,39.154599999999995,2.9449,0.14940179884433746,-0.09157654643058777,-1.1730799674987793
176,2021-09-20 09:44:00.236975,0.5953456870969694,-55.38912395834144,-109.61516686862437,32.91574478149414,39.154599999999995,2.9449,0.14922447502613068,-0.09142502397298813,-1.1703784465789795
177,2021-09-20 09:44:00.288853,0.5975674090854446,-55.38772649547883,-109.61869892080641,32.921329498291016,39.154599999999995,2.9449,0.1492110639810562,-0.09155438095331192,-1.1684197187423706
178,2021-09-20 09:44:00.377345,0.5995369891752823,-55.386326583172796,-109.62211610326833,32.90684509277344,39.154599999999995,2.9449,0.1492932140827179,-0.09169857203960419,-1.1690000295639038
179,2021-09-20 09:44:00.432514,0.6035084677650322,-55.38378927394718,-109.62850610625361,32.90684509277344,39.154599999999995,2.9449,0.14905990660190582,-0.09175833314657211,-1.1703379154205322
180,2021-09-20 09:44:00.484907,0.6055541408072871,-55.382312758417896,-109.63209275851153,32.90684509277344,39.154599999999995,2.9449,0.14773407578468323,-0.09185232222080231,-1.1739027500152588
181,2021-09-20 09:44:00.579748,0.6275404720303499,-55.39271233607175,-109.63998840248688,32.87203598022461,39.154599999999995,2.9449,0.1466194987297058,-0.09204241633415222,-1.175750970840454
182,2021-09-20 09:44:00.644756,0.6310881553509244,-55.39276497998793,-109.64347783284478,32.8503303527832,39.154599999999995,2.9449,0.14399981498718262,-0.09291379898786545,-1.178511381149292
183,2021-09-20 09:44:00.725368,0.636912413205715,-55.392510925316465,-109.65032051531549,32.8503303527832,39.154599999999995,2.9449,0.14268112182617188,-0.09338796883821487,-1.1792210340499878
184,2021-09-20 09:44:00.775952,0.6396042447363596,-55.39226304056078,-109.653972447323,32.8503303527832,39.154599999999995,2.9449,0.14103995263576508,-0.09433966875076294,-1.1796895265579224
185,2021-09-20 09:44:00.872374,0.6433444498238631,-55.3998505564212,-109.66495029889133,32.83388900756836,39.154599999999995,2.9449,0.14085951447486877,-0.09485416859388351,-1.1797257661819458
186,2021-09-20 09:44:00.922649,0.6450697044843439,-55.40062657687391,-109.66890406801029,32.82130813598633,39.154599999999995,2.9449,0.14208048582077026,-0.09556955099105835,-1.1801711320877075
187,2021-09-20 09:44:01.017462,0.6476859488085572,-55.401925092433416,-109.67642201891597,32.82130813598633,39.154599999999995,2.9449,0.14369194209575653,-0.095714271068573,-1.1809430122375488
188,2021-09-20 09:44:01.068352,0.6331658791559749,-55.404461270878336,-109.68923217753462,32.80793762207031,39.154599999999995,2.9449,0.14840465784072876,-0.09491534531116486,-1.1837142705917358
189,2021-09-20 09:44:01.120802,0.6327320615779076,-55.406232532243195,-109.69422618704631,32.798255920410156,39.154599999999995,2.9449,0.15145063400268555,-0.0938556045293808,-1.1855753660202026
190,2021-09-20 09:44:01.178070,0.6321585563565771,-55.40774416943638,-109.69870725992642,32.79875946044922,39.154599999999995,2.9449,0.1543807089328766,-0.09215693175792694,-1.1873717308044434
191,2021-09-20 09:44:01.261657,0.6301089082247093,-55.41048232391787,-109.70784188003626,32.79875946044922,39.154599999999995,2.9449,0.15703390538692474,-0.08987834304571152,-1.1890517473220825
192,2021-09-20 09:44:01.314899,0.6290763424470227,-55.41209257731334,-109.71299429614648,32.79961013793945,39.154599999999995,2.9449,0.1600523144006729,-0.08313311636447906,-1.1904312372207642
193,2021-09-20 09:44:01.408612,0.6071037830249568,-55.403194720089374,-109.71591882296896,32.778587341308594,39.154599999999995,2.9449,0.15999221801757812,-0.07867040485143661,-1.1895725727081299
194,2021-09-20 09:44:01.505290,0.6022912562128785,-55.40418790507225,-109.7237423948744,32.78855895996094,39.154599999999995,2.9449,0.15598291158676147,-0.0682293176651001,-1.183864712715149
195,2021-09-20 09:44:01.555431,0.5998309596290926,-55.40475468717989,-109.72776545006003,32.78855895996094,39.154599999999995,2.9449,0.15210950374603271,-0.06267881393432617,-1.178634762763977
196,2021-09-20 09:44:01.608215,0.5972381486759222,-55.40539064831831,-109.73197670396449,32.80231857299805,39.154599999999995,2.9449,0.1417921632528305,-0.05237036943435669,-1.1639858484268188
197,2021-09-20 09:44:01.701549,0.5837096917560973,-55.39193713211648,-109.72235595517094,32.78404998779297,39.154599999999995,2.9449,0.1365334689617157,-0.04825831949710846,-1.1556178331375122
198,2021-09-20 09:44:01.752565,0.5804996617584125,-55.39090228647835,-109.72466030197928,32.78404998779297,39.154599999999995,2.9449,0.12747375667095184,-0.04154812544584274,-1.138068675994873
199,2021-09-20 09:44:01.802607,0.5770350330325094,-55.38981289030627,-109.72695379725779,32.808528900146484,39.154599999999995,2.9449,0.12485150992870331,-0.039227645844221115,-1.1300197839736938
200,2021-09-20 09:44:01.894987,0.5710247604185513,-55.38798908655104,-109.73113077704906,32.808528900146484,39.154599999999995,2.9449,0.12403217703104019,-0.03778267651796341,-1.1234303712844849
201,2021-09-20 09:44:01.945065,0.5740032518376232,-55.391185203105906,-109.73503876581849,32.77901077270508,39.154599999999995,2.9449,0.125030517578125,-0.03711901605129242,-1.1183818578720093
202,2021-09-20 09:44:01.997077,0.5708322428262712,-55.39053433113996,-109.737646468566,32.77901077270508,39.154599999999995,2.9449,0.13235390186309814,-0.03880323842167854,-1.1141372919082642
203,2021-09-20 09:44:02.090094,0.5656617275623532,-55.38950873139777,-109.74227310246204,32.786128997802734,39.154599999999995,2.9449,0.13762931525707245,-0.04085119068622589,-1.1151376962661743
204,2021-09-20 09:44:02.140575,0.5632214140906812,-55.389043320302,-109.74475476911606,32.786128997802734,39.154599999999995,2.9449,0.1497633159160614,-0.04773438721895218,-1.1223469972610474
205,2021-09-20 09:44:02.191151,0.5799250119018002,-55.398937662775566,-109.74940437413362,32.79294967651367,39.154599999999995,2.9449,0.15546154975891113,-0.05236445367336273,-1.1282200813293457
206,2021-09-20 09:44:02.286326,0.5809538087275802,-55.4008961165946,-109.75440849901833,32.67866134643555,39.154599999999995,2.9449,0.1599811613559723,-0.057131826877593994,-1.1347712278366089
207,2021-09-20 09:44:02.337072,0.5815797466310513,-55.401936211272904,-109.75707320812846,32.664794921875,39.154599999999995,2.9449,0.16442124545574188,-0.0674561932682991,-1.1485285758972168
208,2021-09-20 09:44:02.431529,0.586169439386323,-55.40493485726533,-109.76157287356627,32.676513671875,39.154599999999995,2.9449,0.16367636620998383,-0.07281707227230072,-1.1548410654067993
209,2021-09-20 09:44:02.484645,0.5959251130989615,-55.409016624730796,-109.75118237326858,32.66399002075195,39.154599999999995,2.9449,0.15625932812690735,-0.08324199914932251,-1.163689374923706
210,2021-09-20 09:44:02.577062,0.5985165076417794,-55.41105489740112,-109.75191867586213,32.620086669921875,39.154599999999995,2.9449,0.15006445348262787,-0.0882430225610733,-1.1656699180603027
211,2021-09-20 09:44:02.627380,0.6014793382477388,-55.41424888822114,-109.75362712673275,32.620086669921875,39.154599999999995,2.9449,0.14298337697982788,-0.09273113310337067,-1.1658724546432495
212,2021-09-20 09:44:02.677407,0.6027626676826956,-55.41582394042613,-109.75457212982235,32.620086669921875,39.154599999999995,2.9449,0.128166064620018,-0.10000278055667877,-1.1610653400421143
213,2021-09-20 09:44:02.739489,0.5883834169736857,-55.407958061386516,-109.752304385981,32.61196517944336,39.154599999999995,2.9449,0.12174879759550095,-0.1026831790804863,-1.1567505598068237
214,2021-09-20 09:44:02.821794,0.586061865724978,-55.40818830742696,-109.75339951943599,32.680877685546875,39.154599999999995,2.9449,0.11627531051635742,-0.10481908917427063,-1.15152108669281
215,2021-09-20 09:44:02.873302,0.5846688251236515,-55.4083635115571,-109.75407357215046,32.69257354736328,39.154599999999995,2.9449,0.11062855273485184,-0.10722699016332626,-1.1401774883270264
216,2021-09-20 09:44:02.967406,0.5816298923237158,-55.40854339941593,-109.75536324549948,32.69257354736328,39.154599999999995,2.9449,0.11083923280239105,-0.10770522058010101,-1.135069727897644
217,2021-09-20 09:44:03.019190,0.5599137670530189,-55.403841221848694,-109.76239498756046,32.70833206176758,39.154599999999995,2.9449,0.11295774579048157,-0.10771138221025467,-1.130844235420227
218,2021-09-20 09:44:03.070591,0.5557696487918172,-55.40368410378956,-109.76385366374805,32.71974563598633,39.154599999999995,2.9449,0.12181705236434937,-0.10642988979816437,-1.1262309551239014
219,2021-09-20 09:44:03.163352,0.5488263941933207,-55.403513361785365,-109.76643376432034,32.71974563598633,39.154599999999995,2.9449,0.12745246291160583,-0.10536078363656998,-1.1260733604431152
220,2021-09-20 09:44:03.213525,0.5452846306353754,-55.403449015398714,-109.76781165551174,32.743629455566406,39.154599999999995,2.9449,0.13286364078521729,-0.10447030514478683,-1.1271188259124756
221,2021-09-20 09:44:03.298786,0.5393759587404635,-55.4038418273498,-109.76718883065922,32.743629455566406,39.154599999999995,2.9449,0.1417161524295807,-0.10361096262931824,-1.1307061910629272
222,2021-09-20 09:44:03.358745,0.5367955990237403,-55.40457434571062,-109.76807299922098,32.7142448425293,39.154599999999995,2.9449,0.14452794194221497,-0.10372846573591232,-1.1323450803756714
223,2021-09-20 09:44:03.412452,0.5337976715493805,-55.40499883988311,-109.7689600745246,32.7142448425293,39.154599999999995,2.9449,0.1454705446958542,-0.1041843444108963,-1.1332526206970215
224,2021-09-20 09:44:03.505905,0.5295765261436028,-55.40606155229206,-109.77036888916541,32.723575592041016,39.154599999999995,2.9449,0.14377258718013763,-0.10414931923151016,-1.1321617364883423
225,2021-09-20 09:44:03.556884,0.5278554723041751,-55.406827318847206,-109.77105652901884,32.723575592041016,39.154599999999995,2.9449,0.1365685909986496,-0.10262145102024078,-1.1266268491744995
226,2021-09-20 09:44:03.651562,0.5390361951646158,-55.413954772571294,-109.77696015743254,32.73408508300781,39.154599999999995,2.9449,0.13217419385910034,-0.10122030973434448,-1.1229164600372314
227,2021-09-20 09:44:03.704126,0.5386943108964402,-55.41511633279596,-109.77827436650612,32.73408508300781,39.154599999999995,2.9449,0.12368191033601761,-0.09687323123216629,-1.1148011684417725
228,2021-09-20 09:44:03.796958,0.5376903267120894,-55.41705302912979,-109.78062601727902,32.73931121826172,39.154599999999995,2.9449,0.12072066962718964,-0.0941438153386116,-1.1116180419921875
229,2021-09-20 09:44:03.851237,0.5370501260870216,-55.41816409832398,-109.78200004255288,32.74462890625,39.154599999999995,2.9449,0.1188853457570076,-0.09128771722316742,-1.1094207763671875
230,2021-09-20 09:44:03.943311,0.5367271857779126,-55.42622266920572,-109.80339223644526,32.786407470703125,39.154599999999995,2.9449,0.11901124566793442,-0.08540358394384384,-1.1089104413986206
231,2021-09-20 09:44:03.996288,0.5355931517223221,-55.427605400913244,-109.80697989021893,32.79119110107422,39.154599999999995,2.9449,0.12418780475854874,-0.08065066486597061,-1.113173484802246
232,2021-09-20 09:44:04.046532,0.5346396721728249,-55.4289417733018,-109.8103675072236,32.79119110107422,39.154599999999995,2.9449,0.1280825436115265,-0.07893051207065582,-1.1161154508590698
233,2021-09-20 09:44:04.111351,0.5339139045349518,-55.43021496442015,-109.81349040695312,32.79659652709961,39.154599999999995,2.9449,0.13231967389583588,-0.07759861648082733,-1.1190506219863892
234,2021-09-20 09:44:04.186469,0.5342936470502156,-55.43183936955728,-109.82269610073132,32.77689743041992,39.154599999999995,2.9449,0.13667581975460052,-0.07632212340831757,-1.1214975118637085
235,2021-09-20 09:44:04.237071,0.5349290372225666,-55.433217074110566,-109.82637189910929,32.77689743041992,39.154599999999995,2.9449,0.14477209746837616,-0.07350368052721024,-1.1237741708755493
236,2021-09-20 09:44:04.310865,0.5357505040591064,-55.4346004470718,-109.82987869190636,32.790653228759766,39.154599999999995,2.9449,0.148276224732399,-0.07156775146722794,-1.1235105991363525
237,2021-09-20 09:44:04.382069,0.5378703794855162,-55.437467685934855,-109.83675140145546,32.790653228759766,39.154599999999995,2.9449,0.1512594074010849,-0.06907050311565399,-1.122543215751648
238,2021-09-20 09:44:04.433623,0.5444004317445644,-55.43332315681387,-109.838457762249,32.790653228759766,39.154599999999995,2.9449,0.15415307879447937,-0.06281612813472748,-1.1195484399795532
239,2021-09-20 09:44:04.484693,0.5462914864143111,-55.433394830380585,-109.84220938647113,32.738529205322266,39.154599999999995,2.9449,0.1537606567144394,-0.059301603585481644,-1.1184799671173096
240,2021-09-20 09:44:04.577363,0.5485348534993056,-55.43361839452418,-109.84568388412622,32.73445129394531,39.154599999999995,2.9449,0.15204548835754395,-0.05598749965429306,-1.1180263757705688
241,2021-09-20 09:44:04.629662,0.5529083092383965,-55.43402935960955,-109.8526721142712,32.73445129394531,39.154599999999995,2.9449,0.14467328786849976,-0.050140753388404846,-1.119291067123413
242,2021-09-20 09:44:04.699061,0.5653303338330266,-55.42668685091109,-109.86432194286185,32.73445129394531,39.154599999999995,2.9449,0.1391555815935135,-0.048186931759119034,-1.1210139989852905
243,2021-09-20 09:44:04.772906,0.569944761996973,-55.42280219873282,-109.87219570176279,32.74955749511719,39.154599999999995,2.9449,0.1328498125076294,-0.046990323811769485,-1.1228376626968384
244,2021-09-20 09:44:04.824877,0.5727058839795578,-55.41989088663517,-109.8778082142862,32.74955749511719,39.154599999999995,2.9449,0.11857462674379349,-0.04630066826939583,-1.1257675886154175
245,2021-09-20 09:44:04.875212,0.5750894329286331,-55.41696484080028,-109.88328713043535,32.746856689453125,39.154599999999995,2.9449,0.11161217093467712,-0.0464228056371212,-1.1258320808410645
246,2021-09-20 09:44:04.968643,0.577732030914709,-55.410973975099225,-109.89372187376135,32.746856689453125,39.154599999999995,2.9449,0.10554105788469315,-0.04661250859498978,-1.1244325637817383
247,2021-09-20 09:44:05.019387,0.5835079636821994,-55.3993511219875,-109.89675623193345,32.74396514892578,39.154599999999995,2.9449,0.09615205973386765,-0.04666054621338844,-1.1162182092666626
248,2021-09-20 09:44:05.069580,0.5852831137731928,-55.394340698656066,-109.90251746994241,32.75863265991211,39.154599999999995,2.9449,0.09332016110420227,-0.046538449823856354,-1.1096171140670776
249,2021-09-20 09:44:05.121481,0.5869260371753302,-55.38913979823261,-109.90853364012868,32.756248474121094,39.154599999999995,2.9449,0.09166765213012695,-0.04609061777591705,-1.101434588432312
250,2021-09-20 09:44:05.211921,0.5886964077051815,-55.37988870603525,-109.91926456527965,32.756248474121094,39.154599999999995,2.9449,0.09124848246574402,-0.045619625598192215,-1.0940008163452148
251,2021-09-20 09:44:05.262796,0.5911890536821985,-55.37712693702683,-109.91675951407855,32.759918212890625,39.154599999999995,2.9449,0.09265411645174026,-0.044916924089193344,-1.0797686576843262
252,2021-09-20 09:44:05.317653,0.592504977627084,-55.37265681664064,-109.92182279736403,32.69683837890625,39.154599999999995,2.9449,0.09398993849754333,-0.045353107154369354,-1.0745925903320312
253,2021-09-20 09:44:05.377105,0.5930010392403214,-55.36902923163897,-109.92586386512775,32.69007873535156,39.154599999999995,2.9449,0.09528506547212601,-0.04668378457427025,-1.0716675519943237
254,2021-09-20 09:44:05.455743,0.5941720265356801,-55.36102237633394,-109.93486039189048,32.69007873535156,39.154599999999995,2.9449,0.09666126221418381,-0.0492544062435627,-1.0708550214767456
255,2021-09-20 09:44:05.505920,0.5951016674851181,-55.35691455113602,-109.93953233423834,32.69007873535156,39.154599999999995,2.9449,0.09909024834632874,-0.05738629400730133,-1.0755500793457031
256,2021-09-20 09:44:05.601182,0.5978004076567026,-55.36880316044113,-109.9466984588286,32.56311798095703,39.154599999999995,2.9449,0.10054144263267517,-0.06298486888408661,-1.0806360244750977
257,2021-09-20 09:44:05.651191,0.5983518902091285,-55.368127884930004,-109.9504201972724,32.55588912963867,39.154599999999995,2.9449,0.10218928009271622,-0.0688457041978836,-1.086181402206421
258,2021-09-20 09:44:05.703259,0.5985099913795217,-55.36727679090808,-109.95434154729605,32.55588912963867,39.154599999999995,2.9449,0.10702759027481079,-0.08122123777866364,-1.098044991493225
259,2021-09-20 09:44:05.777283,0.5983571653889304,-55.36640520140901,-109.95791022279074,32.546173095703125,39.154599999999995,2.9449,0.11029944568872452,-0.08724460005760193,-1.1032224893569946
260,2021-09-20 09:44:05.845087,0.5841310799937889,-55.37842609330826,-109.96522497421442,32.48664093017578,39.154599999999995,2.9449,0.11354468017816544,-0.09285528212785721,-1.1074373722076416
261,2021-09-20 09:44:05.897712,0.582140190011475,-55.38108910750097,-109.96836452965493,32.48664093017578,39.154599999999995,2.9449,0.11975611001253128,-0.10346563160419464,-1.113145351409912
262,2021-09-20 09:44:05.977236,0.5803247623079899,-55.38346026421035,-109.97119767376473,32.488243103027344,39.154599999999995,2.9449,0.12170442193746567,-0.10751480609178543,-1.1142818927764893
263,2021-09-20 09:44:06.040139,0.5768555522728092,-55.38829435879741,-109.97689723427017,32.488243103027344,39.154599999999995,2.9449,0.12266234308481216,-0.11074452102184296,-1.1142942905426025
264,2021-09-20 09:44:06.090242,0.575111731745497,-55.39087118043594,-109.97988323796265,32.488243103027344,39.154599999999995,2.9449,0.1223800927400589,-0.11272191256284714,-1.1135475635528564
265,2021-09-20 09:44:06.142509,0.5583306639973946,-55.39535630762864,-109.98491203603432,32.49012756347656,39.154599999999995,2.9449,0.11812464147806168,-0.11311762034893036,-1.1102639436721802
266,2021-09-20 09:44:06.235296,0.5522090133604903,-55.40188517919081,-109.99029170167489,32.49012756347656,39.154599999999995,2.9449,0.11470568925142288,-0.11177653074264526,-1.1081608533859253
267,2021-09-20 09:44:06.289313,0.5487630917381169,-55.405742881576636,-109.99337947158848,32.50791549682617,39.154599999999995,2.9449,0.10755407810211182,-0.10670583695173264,-1.1038377285003662
268,2021-09-20 09:44:06.377000,0.5459303757227394,-55.409121741108386,-109.99600140324848,32.5252799987793,39.154599999999995,2.9449,0.10467366129159927,-0.10328461974859238,-1.101793885231018
269,2021-09-20 09:44:06.429884,0.5493432808173748,-55.40872096693285,-109.99949237680269,32.5252799987793,39.154599999999995,2.9449,0.10274012386798859,-0.0993795171380043,-1.0998023748397827
270,2021-09-20 09:44:06.481192,0.5476459496464581,-55.41083347684881,-110.00251375742147,32.55165481567383,39.154599999999995,2.9449,0.10352541506290436,-0.09054151177406311,-1.095970630645752
271,2021-09-20 09:44:06.576333,0.5448256552795018,-55.41485557435186,-110.00803789446616,32.55928039550781,39.154599999999995,2.9449,0.10655920952558517,-0.08595860749483109,-1.0938639640808105
272,2021-09-20 09:44:06.627959,0.5435058284477363,-55.417096277506396,-110.01099302559591,32.55928039550781,39.154599999999995,2.9449,0.11811450123786926,-0.07667563855648041,-1.0890341997146606
273,2021-09-20 09:44:06.722222,0.558594729206174,-55.41463715242317,-109.99639348541243,32.59214401245117,39.154599999999995,2.9449,0.12578795850276947,-0.07247111946344376,-1.0864412784576416
274,2021-09-20 09:44:06.775662,0.5596452389216896,-55.41595452512669,-109.99728902383687,32.59214401245117,39.154599999999995,2.9449,0.14228080213069916,-0.06522823125123978,-1.081260323524475
275,2021-09-20 09:44:06.869945,0.5618379060351081,-55.41841279313792,-109.9988072445757,32.57969665527344,39.154599999999995,2.9449,0.1497790664434433,-0.062476180493831635,-1.0788922309875488
276,2021-09-20 09:44:06.922206,0.5631503415000263,-55.41981665443862,-109.9996293470143,32.56468200683594,39.154599999999995,2.9449,0.16066934168338776,-0.05866410955786705,-1.0754585266113281
277,2021-09-20 09:44:07.015541,0.5683395437290207,-55.416034252691105,-109.9976687885568,32.542972564697266,39.154599999999995,2.9449,0.16329257190227509,-0.05773039534687996,-1.074510931968689
278,2021-09-20 09:44:07.068470,0.5712557160878607,-55.41674220779941,-109.99815464459286,32.534767150878906,39.154599999999995,2.9449,0.16170047223567963,-0.05641728267073631,-1.0735043287277222
279,2021-09-20 09:44:07.118775,0.5740274744743875,-55.41741418806947,-109.99861686107609,32.534767150878906,39.154599999999995,2.9449,0.15749171376228333,-0.055730514228343964,-1.0733909606933594
280,2021-09-20 09:44:07.211192,0.578955141498049,-55.418572987316914,-109.99950477138893,32.55104064941406,39.154599999999995,2.9449,0.15175355970859528,-0.05499992519617081,-1.073455810546875
281,2021-09-20 09:44:07.262495,0.5761408422205002,-55.41207865609668,-110.015159203281,32.57522964477539,39.154599999999995,2.9449,0.1359565407037735,-0.052804868668317795,-1.073923110961914
282,2021-09-20 09:44:07.312786,0.5775331820751539,-55.41067523247191,-110.0179776368273,32.57522964477539,39.154599999999995,2.9449,0.1269245445728302,-0.051668379455804825,-1.0743865966796875
283,2021-09-20 09:44:07.377854,0.5786126241110178,-55.40931431110218,-110.02061163486235,32.584815979003906,39.154599999999995,2.9449,0.11794845014810562,-0.050767526030540466,-1.075005292892456
284,2021-09-20 09:44:07.454535,0.5801276748523483,-55.40629755862903,-110.0261305287009,32.584815979003906,39.154599999999995,2.9449,0.10891552269458771,-0.050423964858055115,-1.0758302211761475
285,2021-09-20 09:44:07.507098,0.5749460820435445,-55.40300038899608,-110.03977871174737,32.584815979003906,39.154599999999995,2.9449,0.09479955583810806,-0.05170905590057373,-1.07816743850708
286,2021-09-20 09:44:07.600629,0.5730930072456379,-55.39825462253699,-110.04831535625104,32.63906478881836,39.154599999999995,2.9449,0.09041165560483932,-0.053416021168231964,-1.07944655418396
287,2021-09-20 09:44:07.654612,0.5720696833639443,-55.39552943705157,-110.05322856537107,32.65256881713867,39.154599999999995,2.9449,0.08839240670204163,-0.0587158128619194,-1.0817060470581055
288,2021-09-20 09:44:07.705664,0.5710050795063244,-55.39292307035795,-110.05788576963931,32.65256881713867,39.154599999999995,2.9449,0.09112070500850677,-0.062301233410835266,-1.0824462175369263
289,2021-09-20 09:44:07.777899,0.5699562803333802,-55.39056822434595,-110.06205639221979,32.66592788696289,39.154599999999995,2.9449,0.0957271158695221,-0.06598370522260666,-1.0828121900558472
290,2021-09-20 09:44:07.844101,0.5608901847945038,-55.394342758579775,-110.06079884721099,32.66592788696289,39.154599999999995,2.9449,0.1024913340806961,-0.07049640268087387,-1.0827385187149048
291,2021-09-20 09:44:07.894796,0.5589085364153715,-55.393821869252506,-110.06381753296378,32.59562683105469,39.154599999999995,2.9449,0.1109941154718399,-0.07548869401216507,-1.0822746753692627
292,2021-09-20 09:44:07.945809,0.5571617231455579,-55.393360549783566,-110.06683467721139,32.59762191772461,39.154599999999995,2.9449,0.13024605810642242,-0.0854385495185852,-1.0803810358047485
293,2021-09-20 09:44:07.996078,0.5556840874918776,-55.392966809250936,-110.06978846837727,32.59762191772461,39.154599999999995,2.9449,0.1401037722826004,-0.08991605043411255,-1.0789061784744263
294,2021-09-20 09:44:08.058872,0.5607544633959364,-55.40120935044998,-110.06657272211547,32.59965515136719,39.154599999999995,2.9449,0.1486586034297943,-0.09342201799154282,-1.0773773193359375
295,2021-09-20 09:44:08.137563,0.5621970243731803,-55.40462346055527,-110.0686494409009,32.509944915771484,39.154599999999995,2.9449,0.15609662234783173,-0.09621580690145493,-1.0756027698516846
296,2021-09-20 09:44:08.188147,0.5629870179483943,-55.40678190191794,-110.07000100168568,32.500343322753906,39.154599999999995,2.9449,0.16497285664081573,-0.09986283630132675,-1.0714107751846313
297,2021-09-20 09:44:08.282718,0.5640580801406807,-55.41069993363707,-110.07257916934363,32.500343322753906,39.154599999999995,2.9449,0.16600415110588074,-0.10067034512758255,-1.069037914276123
298,2021-09-20 09:44:08.334934,0.5641832967035215,-55.412722852655904,-110.07406807576625,32.514801025390625,39.154599999999995,2.9449,0.1618049442768097,-0.10022776573896408,-1.0642127990722656
299,2021-09-20 09:44:08.429116,0.5795630583466295,-55.42150148934818,-110.07972226464182,32.51494598388672,39.154599999999995,2.9449,0.15703463554382324,-0.09910594671964645,-1.0620694160461426
300,2021-09-20 09:44:08.479199,0.5808924261258659,-55.42360431327365,-110.08159874491132,32.50924301147461,39.154599999999995,2.9449,0.14479242265224457,-0.0962236151099205,-1.0591163635253906
301,2021-09-20 09:44:08.575628,0.5827878708370772,-55.42742769759259,-110.08533247181656,32.50924301147461,39.154599999999995,2.9449,0.1378580629825592,-0.09482429176568985,-1.0584321022033691
302,2021-09-20 09:44:08.626063,0.5810032249586095,-55.42221805862476,-110.0979063191848,32.50147247314453,39.154599999999995,2.9449,0.12464680522680283,-0.09277956187725067,-1.0587513446807861
303,2021-09-20 09:44:08.722025,0.5820844098043467,-55.42190232977623,-110.10545661766535,32.62965774536133,39.154599999999995,2.9449,0.11874693632125854,-0.09185329079627991,-1.0595110654830933
304,2021-09-20 09:44:08.775732,0.5825211137765036,-55.421666001163324,-110.1097141989322,32.62965774536133,39.154599999999995,2.9449,0.10931041091680527,-0.08948308974504471,-1.060967206954956
305,2021-09-20 09:44:08.868669,0.5828233758633579,-55.421128256602834,-110.11715271374915,32.636478424072266,39.154599999999995,2.9449,0.10594503581523895,-0.08769819885492325,-1.0613293647766113
306,2021-09-20 09:44:08.919608,0.5835321982616621,-55.40664868992353,-110.11897076789256,32.70029830932617,39.154599999999995,2.9449,0.10235100984573364,-0.0834842175245285,-1.060354471206665
307,2021-09-20 09:44:08.969960,0.5842481930505405,-55.40356110799448,-110.12331927750506,32.70029830932617,39.154599999999995,2.9449,0.10206790268421173,-0.08114263415336609,-1.0587409734725952
308,2021-09-20 09:44:09.044301,0.5848388426580705,-55.400497834487986,-110.12762341207339,32.70171356201172,39.154599999999995,2.9449,0.10283800214529037,-0.0788164958357811,-1.0565792322158813
