,a_nav_status_t,nav_status_D,nav_status_E,nav_status_N,nav_status_alt,nav_status_origin_lat,nav_status_origin_lon,nav_status_pitch,nav_status_roll,nav_status_yaw
0,2021-07-22 12:20:14.066327,0.07578676784380355,-2.871179816925709,22.093993632002192,7.836236953735352,39.54333,2.37794,0.13986283540725708,-0.0581481009721756,-0.22709275782108307
1,2021-07-22 12:20:14.106879,0.07359946802584603,-2.869873378551816,22.095722050978974,7.842918872833252,39.54333,2.37794,0.14534549415111542,-0.05891309678554535,-0.22783932089805603
2,2021-07-22 12:20:14.148675,0.07451198007349691,-2.868476944937628,22.097528920878933,7.842918872833252,39.54333,2.37794,0.15129074454307556,-0.05994900315999985,-0.22801215946674347
3,2021-07-22 12:20:14.191301,0.07689017294783887,-2.86480902630198,22.1085035507342,7.747896671295166,39.54333,2.37794,0.1528986692428589,-0.060008980333805084,-0.22830010950565338
4,2021-07-22 12:20:14.228446,0.07938025172087779,-2.8632386582421643,22.111194672198355,7.747896671295166,39.54333,2.37794,0.15921244025230408,-0.06128537654876709,-0.22745707631111145
5,2021-07-22 12:20:14.268919,0.08151782626337217,-2.8614658242425013,22.11417742916663,7.747896671295166,39.54333,2.37794,0.1653873771429062,-0.06277904659509659,-0.2258380502462387
6,2021-07-22 12:20:14.312744,0.08358250443716904,-2.8594676966425236,22.117458921347332,7.732926368713379,39.54333,2.37794,0.171292245388031,-0.06461968272924423,-0.2231724113225937
7,2021-07-22 12:20:14.350407,0.08560279842759552,-2.864940213523464,22.12313478768837,7.768645286560059,39.54333,2.37794,0.17620323598384857,-0.06666599959135056,-0.2196052223443985
8,2021-07-22 12:20:14.391188,0.08655280712342295,-2.8637930466294095,22.126714580797874,7.768645286560059,39.54333,2.37794,0.18028417229652405,-0.06876359134912491,-0.2150988131761551
9,2021-07-22 12:20:14.431655,0.088054183362504,-2.837778299701438,22.10366434978842,7.749916076660156,39.54333,2.37794,0.1825760155916214,-0.0693361684679985,-0.21377280354499817
10,2021-07-22 12:20:14.472293,0.09985707439628838,-2.83650020360234,22.107321353322043,7.768636703491211,39.54333,2.37794,0.18514427542686462,-0.07150179892778397,-0.20804721117019653
11,2021-07-22 12:20:14.504662,0.11010955502127243,-2.8505303162484132,22.100652291146424,7.768636703491211,39.54333,2.37794,0.18608827888965607,-0.07358532398939133,-0.20214538276195526
12,2021-07-22 12:20:14.585870,0.11275489711893114,-2.8517047157114077,22.10576243072228,7.768636703491211,39.54333,2.37794,0.18519502878189087,-0.07826172560453415,-0.1891474425792694
13,2021-07-22 12:20:14.627870,0.11045198371249236,-2.8522712182158925,22.108433987709525,7.768636703491211,39.54333,2.37794,0.18299336731433868,-0.08086386322975159,-0.18287290632724762
14,2021-07-22 12:20:14.667501,0.0968484000764764,-2.866103859417209,22.098829915350617,7.743438243865967,39.54333,2.37794,0.18406623601913452,-0.08182656019926071,-0.1798890084028244
15,2021-07-22 12:20:14.707693,0.08336024828548087,-2.868374001020455,22.09983996372754,7.766036033630371,39.54333,2.37794,0.18048237264156342,-0.08459965884685516,-0.17424173653125763
16,2021-07-22 12:20:14.748465,0.07861620634203459,-2.870711703019357,22.10084238044781,7.766036033630371,39.54333,2.37794,0.17618536949157715,-0.08758746832609177,-0.1695735901594162
17,2021-07-22 12:20:14.789050,0.07604401060589286,-2.8730692817143417,22.101817719096676,7.754297733306885,39.54333,2.37794,0.1714545488357544,-0.09071995317935944,-0.16609978675842285
18,2021-07-22 12:20:14.830008,0.0741492632219448,-2.8754805337220684,22.102779226466897,7.791070938110352,39.54333,2.37794,0.16662192344665527,-0.09398756176233292,-0.16390728950500488
19,2021-07-22 12:20:14.870470,0.07146634417134451,-2.884084020305308,22.090882775853768,7.791070938110352,39.54333,2.37794,0.16594797372817993,-0.09552622586488724,-0.16131749749183655
20,2021-07-22 12:20:14.911085,0.06976510739450263,-2.887356760594856,22.0902335304335,7.791070938110352,39.54333,2.37794,0.1610807329416275,-0.09903951734304428,-0.1609194427728653
21,2021-07-22 12:20:14.951508,0.06848259795855673,-2.8906701808023705,22.089543267820535,7.791650772094727,39.54333,2.37794,0.15675686299800873,-0.10262160003185272,-0.16198445856571198
22,2021-07-22 12:20:14.992419,0.06770463517763697,-2.8940776841010094,22.08879894960621,7.791650772094727,39.54333,2.37794,0.1532219648361206,-0.10629211366176605,-0.1643276959657669
23,2021-07-22 12:20:15.032887,0.0657627428010525,-2.897604945429613,22.082384672310106,7.819507598876953,39.54333,2.37794,0.15063758194446564,-0.11003328859806061,-0.1678037792444229
24,2021-07-22 12:20:15.067425,0.06560377262423961,-2.9006610316646055,22.08105931564248,7.831087112426758,39.54333,2.37794,0.14934076368808746,-0.11308038979768753,-0.17205192148685455
25,2021-07-22 12:20:15.146590,0.06704007404945446,-2.9078683720879455,22.077930740287446,7.831087112426758,39.54333,2.37794,0.14851833879947662,-0.11806944012641907,-0.1771787405014038
26,2021-07-22 12:20:15.187196,0.06751093926700451,-2.90153938683619,22.074565702193652,7.842722415924072,39.54333,2.37794,0.14984354376792908,-0.12045243382453918,-0.18238289654254913
27,2021-07-22 12:20:15.230143,0.06913760820225978,-2.9042991537678056,22.072405144183893,7.842722415924072,39.54333,2.37794,0.1524401605129242,-0.12198738753795624,-0.18749304115772247
28,2021-07-22 12:20:15.268469,0.07103962698161154,-2.9067776424178473,22.070395926964828,7.842722415924072,39.54333,2.37794,0.15605275332927704,-0.12237363308668137,-0.1919833868741989
29,2021-07-22 12:20:15.311780,0.07266331788860207,-2.909599641310062,22.06804986542281,7.860849380493164,39.54333,2.37794,0.16059863567352295,-0.12200166285037994,-0.19593271613121033
30,2021-07-22 12:20:15.350087,0.07517913438658017,-2.9024017166585474,22.07617698903903,7.860849380493164,39.54333,2.37794,0.1614333838224411,-0.12345971912145615,-0.19723501801490784
31,2021-07-22 12:20:15.390631,0.07797283554091197,-2.9038748160056267,22.075116565200528,7.8700714111328125,39.54333,2.37794,0.1668895184993744,-0.12179280072450638,-0.2001894861459732
32,2021-07-22 12:20:15.431037,0.08019623783453919,-2.8766197876607844,22.05112227075153,7.8700714111328125,39.54333,2.37794,0.1726202517747879,-0.11929132789373398,-0.2020859718322754
33,2021-07-22 12:20:15.471599,0.08242802615766123,-2.878059895358791,22.04996918890513,7.8700714111328125,39.54333,2.37794,0.17846840620040894,-0.11598540097475052,-0.20290350914001465
34,2021-07-22 12:20:15.507694,0.0832687421499534,-2.879318005534356,22.048902605562375,7.884523391723633,39.54333,2.37794,0.18403704464435577,-0.11200322955846786,-0.20258772373199463
35,2021-07-22 12:20:15.544914,0.08607725757901125,-2.8713932754141642,22.061367070214313,7.891373157501221,39.54333,2.37794,0.1859351098537445,-0.11196846514940262,-0.20313668251037598
36,2021-07-22 12:20:15.626343,0.08973978431017526,-2.8718839263268876,22.06230236722846,7.891373157501221,39.54333,2.37794,0.1972891241312027,-0.10185031592845917,-0.19930295646190643
37,2021-07-22 12:20:15.667078,0.09118575787010678,-2.872067702508367,22.062768537999375,7.891373157501221,39.54333,2.37794,0.20245075225830078,-0.0962182879447937,-0.1964409202337265
38,2021-07-22 12:20:15.707340,0.09313775862842708,-2.8661218140708735,22.072471216349765,7.8938212394714355,39.54333,2.37794,0.20716652274131775,-0.09042102098464966,-0.1932709813117981
39,2021-07-22 12:20:15.750079,0.09405468490249536,-2.8654768998733955,22.074255835331797,7.8938212394714355,39.54333,2.37794,0.21152710914611816,-0.08437802642583847,-0.18987737596035004
40,2021-07-22 12:20:15.788641,0.09522720540277582,-2.8649214460355923,22.07589457647828,7.8938212394714355,39.54333,2.37794,0.21396654844284058,-0.08267004787921906,-0.18886230885982513
41,2021-07-22 12:20:15.829324,0.09839774783018973,-2.8642071401438427,22.07763905733148,7.889162540435791,39.54333,2.37794,0.2175704836845398,-0.07642652094364166,-0.18521341681480408
42,2021-07-22 12:20:15.869944,0.1042702604241707,-2.8641866644129474,22.07970005567398,7.889162540435791,39.54333,2.37794,0.22046063840389252,-0.07020919770002365,-0.1815558671951294
43,2021-07-22 12:20:15.910563,0.10624406215864034,-2.863523484940286,22.08159939688085,7.879570484161377,39.54333,2.37794,0.2226867377758026,-0.06413481384515762,-0.17800608277320862
44,2021-07-22 12:20:15.951595,0.10669706165510587,-2.8628281701794216,22.083547760464963,7.878843784332275,39.54333,2.37794,0.2241646647453308,-0.05827302858233452,-0.1745193600654602
45,2021-07-22 12:20:15.991921,0.10671825393104281,-2.862153850401336,22.085475937756016,7.878843784332275,39.54333,2.37794,0.22629845142364502,-0.055663228034973145,-0.17280441522598267
46,2021-07-22 12:20:16.025106,0.10672312779731853,-2.8582093177081602,22.078578278712694,7.8706159591674805,39.54333,2.37794,0.22638322412967682,-0.05053611844778061,-0.16979467868804932
47,2021-07-22 12:20:16.065016,0.10596782192161563,-2.8570553723567023,22.079487657369473,7.8706159591674805,39.54333,2.37794,0.2258933186531067,-0.04537074640393257,-0.16677679121494293
48,2021-07-22 12:20:16.146144,0.1042106093076409,-2.8546145923250523,22.08132830066131,7.8706159591674805,39.54333,2.37794,0.22246137261390686,-0.03651173412799835,-0.16179458796977997
49,2021-07-22 12:20:16.191757,0.10317254080822327,-2.858569476981738,22.07508681590187,7.867987155914307,39.54333,2.37794,0.2196541428565979,-0.03266160935163498,-0.15973427891731262
50,2021-07-22 12:20:16.227748,0.10145297593099013,-2.8580271932146744,22.07505205319487,7.867987155914307,39.54333,2.37794,0.22023296356201172,-0.030290283262729645,-0.1582501232624054
51,2021-07-22 12:20:16.268224,0.09960615707043274,-2.857388784590909,22.074999611099937,7.877162456512451,39.54333,2.37794,0.2162819504737854,-0.027547737583518028,-0.1568657010793686
52,2021-07-22 12:20:16.309298,0.09785534914085083,-2.856714762986541,22.07492176659713,7.875205039978027,39.54333,2.37794,0.21197988092899323,-0.025438936427235603,-0.15565064549446106
53,2021-07-22 12:20:16.350322,0.0961807150491204,-2.856014467616048,22.074819154356266,7.875205039978027,39.54333,2.37794,0.20739910006523132,-0.024091443046927452,-0.15453490614891052
54,2021-07-22 12:20:16.390637,0.09471005060247038,-2.856083484692246,22.070464445354343,7.890157699584961,39.54333,2.37794,0.2027987837791443,-0.023493455722928047,-0.15351228415966034
55,2021-07-22 12:20:16.431265,0.09342552460588989,-2.8306825128715554,22.047227509271085,7.890157699584961,39.54333,2.37794,0.20215953886508942,-0.02154761180281639,-0.15218688547611237
56,2021-07-22 12:20:16.471671,0.091912368863281,-2.830007536043438,22.046542080091875,7.890157699584961,39.54333,2.37794,0.1975651979446411,-0.02193063125014305,-0.1511724293231964
57,2021-07-22 12:20:16.511915,0.09078010811016653,-2.8293107374574498,22.045827510904854,7.889519691467285,39.54333,2.37794,0.19351409375667572,-0.022992730140686035,-0.14997650682926178
58,2021-07-22 12:20:16.552809,0.09037825217250224,-2.838206511649036,22.045789028255044,7.891571044921875,39.54333,2.37794,0.19021658599376678,-0.024645837023854256,-0.1485513597726822
59,2021-07-22 12:20:16.628224,0.09023074271050223,-2.839092002970633,22.044520303829227,7.891571044921875,39.54333,2.37794,0.18653948605060577,-0.030226698145270348,-0.14515933394432068
60,2021-07-22 12:20:16.667243,0.09045025123693663,-2.8395575495300824,22.043830873820642,7.891571044921875,39.54333,2.37794,0.18577620387077332,-0.029797926545143127,-0.14375285804271698
61,2021-07-22 12:20:16.709613,0.09155104605498716,-2.8436476354617835,22.050008836956987,7.879720211029053,39.54333,2.37794,0.18561837077140808,-0.03395134210586548,-0.1414792388677597
62,2021-07-22 12:20:16.747987,0.09268070593370796,-2.844515870809298,22.050164955008064,7.879720211029053,39.54333,2.37794,0.18658123910427094,-0.0387997142970562,-0.13925538957118988
63,2021-07-22 12:20:16.788693,0.09437433979026542,-2.8454357566465953,22.050335425617508,7.875638961791992,39.54333,2.37794,0.18847252428531647,-0.044230327010154724,-0.13699886202812195
64,2021-07-22 12:20:16.828920,0.09965315658250559,-2.846344742700503,22.05051217638041,7.875638961791992,39.54333,2.37794,0.19102685153484344,-0.050121091306209564,-0.1349695473909378
65,2021-07-22 12:20:16.872443,0.10474262434785758,-2.84671965578961,22.058696620105277,7.875638961791992,39.54333,2.37794,0.19410258531570435,-0.05635992810130119,-0.13318903744220734
66,2021-07-22 12:20:16.910145,0.10731853395786133,-2.8475157482701863,22.05980587446492,7.870638847351074,39.54333,2.37794,0.19462735950946808,-0.057675234973430634,-0.13162189722061157
67,2021-07-22 12:20:16.950785,0.1090955897843483,-2.8483369373807355,22.061048695883233,7.866329193115234,39.54333,2.37794,0.19804243743419647,-0.06410165876150131,-0.13050320744514465
68,2021-07-22 12:20:16.991520,0.11116046082499836,-2.849159500156783,22.062312495326726,7.866329193115234,39.54333,2.37794,0.2010881006717682,-0.07025358080863953,-0.12987162172794342
69,2021-07-22 12:20:17.032058,0.11629205678568368,-2.849983606732537,22.063587080500273,7.758899211883545,39.54333,2.37794,0.20348645746707916,-0.07598168402910233,-0.12972697615623474
70,2021-07-22 12:20:17.072797,0.11945355758260828,-2.8419614338486756,22.068108391773617,7.758899211883545,39.54333,2.37794,0.20504437386989594,-0.0811285674571991,-0.1299908608198166
71,2021-07-22 12:20:17.145753,0.11980371081407985,-2.8415749745335717,22.071105722173957,7.758899211883545,39.54333,2.37794,0.20623107254505157,-0.08748557418584824,-0.12983237206935883
72,2021-07-22 12:20:17.186383,0.1189060693105722,-2.841327680549478,22.072799906012524,7.7540740966796875,39.54333,2.37794,0.205515056848526,-0.09150461852550507,-0.13053180277347565
73,2021-07-22 12:20:17.227523,0.11715845795875016,-2.8378758008021614,22.073734443833732,7.7540740966796875,39.54333,2.37794,0.20349359512329102,-0.09508083015680313,-0.13098600506782532
74,2021-07-22 12:20:17.267690,0.11557672361796101,-2.837236403609128,22.07531476214143,7.7915730476379395,39.54333,2.37794,0.2004103809595108,-0.09819243848323822,-0.1310596764087677
75,2021-07-22 12:20:17.310624,0.11400427082509441,-2.8365271139568944,22.07702304687227,7.7915730476379395,39.54333,2.37794,0.19641681015491486,-0.10118313133716583,-0.13057412207126617
76,2021-07-22 12:20:17.349824,0.1115505340615395,-2.8358631043650178,22.078614895276235,7.7915730476379395,39.54333,2.37794,0.19588996469974518,-0.10321187227964401,-0.12995049357414246
77,2021-07-22 12:20:17.389845,0.10906270700479631,-2.8365739824645058,22.081607535663586,7.801370620727539,39.54333,2.37794,0.19098880887031555,-0.10586272925138474,-0.1288912296295166
78,2021-07-22 12:20:17.430499,0.10688552988005655,-2.8096597631587232,22.060209591774257,7.823826313018799,39.54333,2.37794,0.18597173690795898,-0.10842457413673401,-0.12723273038864136
79,2021-07-22 12:20:17.470992,0.10512749253623532,-2.809065663519426,22.062062128620436,7.823826313018799,39.54333,2.37794,0.1812988966703415,-0.1108349859714508,-0.125076025724411
80,2021-07-22 12:20:17.511595,0.10384447540511041,-2.8084460657586923,22.063942210670575,7.823083877563477,39.54333,2.37794,0.1773575395345688,-0.11306017637252808,-0.12247095257043839
81,2021-07-22 12:20:17.552347,0.10323428407908208,-2.8138202241678654,22.065495844999262,7.846377372741699,39.54333,2.37794,0.17590607702732086,-0.11503621190786362,-0.12120643258094788
82,2021-07-22 12:20:17.625299,0.09267633010463319,-2.8140105429831967,22.068899929074817,7.846377372741699,39.54333,2.37794,0.1720004677772522,-0.11861352622509003,-0.1148282065987587
83,2021-07-22 12:20:17.666154,0.08728273876636022,-2.8141073122550804,22.070839965596306,7.846377372741699,39.54333,2.37794,0.17206190526485443,-0.12034807354211807,-0.11115525662899017
84,2021-07-22 12:20:17.706644,0.08713667812424415,-2.814198367015131,22.072793073435506,7.843716621398926,39.54333,2.37794,0.1734464168548584,-0.12199404835700989,-0.10750909894704819
85,2021-07-22 12:20:17.748833,0.08893192343364073,-2.8198271163908233,22.070722529866174,7.843716621398926,39.54333,2.37794,0.17597638070583344,-0.12368910759687424,-0.10404228419065475
86,2021-07-22 12:20:17.787842,0.09095910940323013,-2.820533771845292,22.072203807166925,7.857340335845947,39.54333,2.37794,0.17580454051494598,-0.12535437941551208,-0.10200591385364532
87,2021-07-22 12:20:17.828434,0.09317055400561226,-2.8212651682613687,22.073780083438038,7.84994649887085,39.54333,2.37794,0.17948977649211884,-0.1269073635339737,-0.09907737374305725
88,2021-07-22 12:20:17.869293,0.0953013024465977,-2.822010217727719,22.075394476539362,7.84994649887085,39.54333,2.37794,0.1836583912372589,-0.12845104932785034,-0.0967584028840065
89,2021-07-22 12:20:17.909675,0.09735072024878991,-2.827949242350252,22.08510039874912,7.856460094451904,39.54333,2.37794,0.18785357475280762,-0.12979398667812347,-0.09525611996650696
90,2021-07-22 12:20:17.950326,0.09880587882879038,-2.8293304039515763,22.087781023444094,7.857736110687256,39.54333,2.37794,0.1917264759540558,-0.13088828325271606,-0.094541534781456
91,2021-07-22 12:20:17.991665,0.10465015962750747,-2.830741185099872,22.090528900975226,7.857736110687256,39.54333,2.37794,0.1926712840795517,-0.13251352310180664,-0.09284703433513641
92,2021-07-22 12:20:18.072224,0.11820483858084205,-2.838076976531614,22.09175792685475,7.847691059112549,39.54333,2.37794,0.1982525736093521,-0.13312359154224396,-0.09410765767097473
93,2021-07-22 12:20:18.105250,0.11873576180451922,-2.8397780817834484,22.093577513266045,7.858656883239746,39.54333,2.37794,0.19944563508033752,-0.13206909596920013,-0.09568560123443604
94,2021-07-22 12:20:18.145727,0.11853448662763018,-2.841896837301182,22.0958157925931,7.858656883239746,39.54333,2.37794,0.19979697465896606,-0.13046950101852417,-0.09738324582576752
95,2021-07-22 12:20:18.188465,0.11812339331835736,-2.8441838000689845,22.098189355896174,7.863602638244629,39.54333,2.37794,0.19931168854236603,-0.12810273468494415,-0.09920181334018707
96,2021-07-22 12:20:18.227550,0.11615792659282768,-2.8492844716263352,22.09186703833126,7.863602638244629,39.54333,2.37794,0.199685201048851,-0.12867198884487152,-0.09892667084932327
97,2021-07-22 12:20:18.267931,0.1149186181922031,-2.8519443992030165,22.092966492441846,7.872179985046387,39.54333,2.37794,0.19831566512584686,-0.12522278726100922,-0.1009325459599495
98,2021-07-22 12:20:18.308207,0.1137444379924562,-2.854637123261139,22.09405381847819,7.872179985046387,39.54333,2.37794,0.19657538831233978,-0.12122339010238647,-0.10272931307554245
99,2021-07-22 12:20:18.349646,0.1128000914154385,-2.8574460453835715,22.095168685038544,7.872179985046387,39.54333,2.37794,0.19489188492298126,-0.11686426401138306,-0.10416287183761597
100,2021-07-22 12:20:18.390092,0.10244463121814806,-2.860241307689068,22.096244299526223,7.881022930145264,39.54333,2.37794,0.19365212321281433,-0.11224721372127533,-0.10516064614057541
101,2021-07-22 12:20:18.430515,0.08848481055048317,-2.825756231663942,22.075382622119285,7.877986907958984,39.54333,2.37794,0.19349440932273865,-0.11144677549600601,-0.10523036867380142
102,2021-07-22 12:20:18.470863,0.08479628965543715,-2.8274708469370893,22.07671105162232,7.877986907958984,39.54333,2.37794,0.19279935956001282,-0.10662081092596054,-0.10557889193296432
103,2021-07-22 12:20:18.511355,0.08450409654670145,-2.8291931935351933,22.078053769683233,7.883286952972412,39.54333,2.37794,0.1930229216814041,-0.1018819734454155,-0.10531535744667053
104,2021-07-22 12:20:18.543750,0.08514377606497656,-2.8305742743929723,22.079131469333856,7.881234645843506,39.54333,2.37794,0.19429901242256165,-0.09745519608259201,-0.10448811203241348
105,2021-07-22 12:20:18.633295,0.11092374769421036,-2.8236681481741592,22.08122713568772,7.881234645843506,39.54333,2.37794,0.20015279948711395,-0.08782254904508591,-0.10120943933725357
106,2021-07-22 12:20:18.666925,0.11571300505075496,-2.8241102570186407,22.08229491444433,7.881234645843506,39.54333,2.37794,0.20076052844524384,-0.08637665957212448,-0.10061671584844589
107,2021-07-22 12:20:18.707345,0.11919032969098488,-2.8246203520126625,22.08355986147592,7.88541316986084,39.54333,2.37794,0.20550373196601868,-0.08155305683612823,-0.0984845757484436
108,2021-07-22 12:20:18.747290,0.12235119398777192,-2.818129323246556,22.083243297694278,7.88541316986084,39.54333,2.37794,0.210941344499588,-0.076816625893116,-0.09632032364606857
109,2021-07-22 12:20:18.787691,0.12468904859178746,-2.817735592183475,22.084336936130097,7.890962600708008,39.54333,2.37794,0.2165043205022812,-0.0723419338464737,-0.0943550169467926
110,2021-07-22 12:20:18.828423,0.12660310080647535,-2.8173137550368903,22.085440050675228,7.889366626739502,39.54333,2.37794,0.221878319978714,-0.0681292861700058,-0.09265150129795074
111,2021-07-22 12:20:18.869195,0.12818082844876277,-2.816874342091967,22.086557169609616,7.889366626739502,39.54333,2.37794,0.22391611337661743,-0.06589709222316742,-0.09153708070516586
112,2021-07-22 12:20:18.906512,0.12978506022897382,-2.8207583441325865,22.091484156533102,7.891417980194092,39.54333,2.37794,0.22867801785469055,-0.06223885342478752,-0.09022728353738785
113,2021-07-22 12:20:18.991256,0.13110245902585718,-2.8209094636443344,22.09490278571422,7.892212867736816,39.54333,2.37794,0.23515814542770386,-0.055406354367733,-0.08789162337779999
114,2021-07-22 12:20:19.031657,0.13070884652898715,-2.820964678817032,22.09655345402009,7.887900352478027,39.54333,2.37794,0.2361181676387787,-0.05259278789162636,-0.08679721504449844
115,2021-07-22 12:20:19.071987,0.12987728101547483,-2.821007520232204,22.098212154135364,7.887900352478027,39.54333,2.37794,0.23557019233703613,-0.05006624013185501,-0.08553215861320496
116,2021-07-22 12:20:19.104822,0.1290563482739733,-2.823370984085407,22.094376730590323,7.895878314971924,39.54333,2.37794,0.2366737425327301,-0.04835953935980797,-0.08472797274589539
117,2021-07-22 12:20:19.145420,0.12709812488077202,-2.8236757038844913,22.095444481855377,7.895878314971924,39.54333,2.37794,0.23430921137332916,-0.04613412171602249,-0.08320310711860657
118,2021-07-22 12:20:19.186229,0.12482644060111882,-2.8239745905230222,22.096512179033258,7.896366596221924,39.54333,2.37794,0.23066453635692596,-0.044243644922971725,-0.0814419686794281
119,2021-07-22 12:20:19.228051,0.12245426502929133,-2.8242730048805837,22.09759877609085,7.893011569976807,39.54333,2.37794,0.22603772580623627,-0.042833879590034485,-0.07951444387435913
120,2021-07-22 12:20:19.267464,0.11998135649375985,-2.8268895097866267,22.091640406617465,7.893011569976807,39.54333,2.37794,0.2207348644733429,-0.04198887199163437,-0.0776168555021286
121,2021-07-22 12:20:19.311606,0.11788169614503889,-2.82749918645489,22.09182996922291,7.913180351257324,39.54333,2.37794,0.21511191129684448,-0.041523516178131104,-0.07572649419307709
122,2021-07-22 12:20:19.349210,0.1145046299471648,-2.828016724159099,22.09196276369632,7.913180351257324,39.54333,2.37794,0.21432094275951385,-0.04009544476866722,-0.07454752177000046
123,2021-07-22 12:20:19.429502,0.10291699796616953,-2.81015202198886,22.06256234953447,7.913180351257324,39.54333,2.37794,0.20365075767040253,-0.04151336848735809,-0.0722699984908104
124,2021-07-22 12:20:19.470063,0.10115898184946304,-2.811646413502623,22.061851817339967,7.922120094299316,39.54333,2.37794,0.19944831728935242,-0.04295831918716431,-0.07204949855804443
125,2021-07-22 12:20:19.510784,0.10039004710585295,-2.8131711460663986,22.06110368626621,7.931962966918945,39.54333,2.37794,0.1962318867444992,-0.044899795204401016,-0.07261545956134796
126,2021-07-22 12:20:19.551330,0.09922595725883189,-2.814700033754678,22.06031803673213,7.931962966918945,39.54333,2.37794,0.1949027180671692,-0.044305115938186646,-0.07187031954526901
127,2021-07-22 12:20:19.592019,0.0949523415029156,-2.8125824371139267,22.066284497148928,7.931962966918945,39.54333,2.37794,0.19296708703041077,-0.046800218522548676,-0.07345207780599594
128,2021-07-22 12:20:19.632685,0.09261995773115982,-2.813692000578541,22.066309005915347,7.938302993774414,39.54333,2.37794,0.19232077896595,-0.049673039466142654,-0.07579255849123001
129,2021-07-22 12:20:19.665195,0.09292858539849873,-2.814597146281796,22.066303288046726,7.938302993774414,39.54333,2.37794,0.19300369918346405,-0.052824318408966064,-0.07862000912427902
130,2021-07-22 12:20:19.705900,0.09393054000138916,-2.815743706868604,22.066272154756327,7.948441028594971,39.54333,2.37794,0.19456759095191956,-0.05629383400082588,-0.08180830627679825
131,2021-07-22 12:20:19.752134,0.09510441778004758,-2.8091593900416143,22.070211860909154,7.950133800506592,39.54333,2.37794,0.19694875180721283,-0.05998070910573006,-0.08513696491718292
132,2021-07-22 12:20:19.787061,0.09714581867298097,-2.8092505153607554,22.07063985246214,7.950133800506592,39.54333,2.37794,0.1969006508588791,-0.060525599867105484,-0.08575999736785889
133,2021-07-22 12:20:19.828134,0.0989857579966723,-2.8093817677608977,22.07109291557419,7.950133800506592,39.54333,2.37794,0.200205460190773,-0.06446079164743423,-0.08900609612464905
134,2021-07-22 12:20:19.868284,0.10072295806724377,-2.8095039659030543,22.071523678896806,7.969173908233643,39.54333,2.37794,0.20378710329532623,-0.06822420656681061,-0.09173654019832611
135,2021-07-22 12:20:19.949621,0.10252788478071798,-2.803601966915366,22.081099690851683,7.969173908233643,39.54333,2.37794,0.2106909453868866,-0.07482172548770905,-0.09516081213951111
136,2021-07-22 12:20:19.992045,0.09871011556776967,-2.8028873934099776,22.082714066967213,7.825207233428955,39.54333,2.37794,0.213556706905365,-0.07745393365621567,-0.09554830938577652
137,2021-07-22 12:20:20.031049,0.09723910372775438,-2.802191436636185,22.08422836622628,7.825207233428955,39.54333,2.37794,0.21447472274303436,-0.07856502383947372,-0.09615405648946762
138,2021-07-22 12:20:20.071672,0.09703263141545404,-2.801447692783762,22.085803042417595,7.820293426513672,39.54333,2.37794,0.21647101640701294,-0.08056411147117615,-0.09524092078208923
139,2021-07-22 12:20:20.112169,0.09757587678565116,-2.8020718444803365,22.090697990367463,7.845564365386963,39.54333,2.37794,0.21761244535446167,-0.08202031999826431,-0.09335149079561234
140,2021-07-22 12:20:20.144913,0.10182656741560804,-2.8015261829931677,22.092371649130836,7.845564365386963,39.54333,2.37794,0.21754923462867737,-0.08282420784235,-0.09058938175439835
141,2021-07-22 12:20:20.193434,0.1173077351804375,-2.8006808649400394,22.09488293655318,7.845564365386963,39.54333,2.37794,0.21663208305835724,-0.08354857563972473,-0.08691471815109253
142,2021-07-22 12:20:20.225897,0.12099642889022576,-2.8000933631608236,22.096592591481308,7.833132266998291,39.54333,2.37794,0.21691104769706726,-0.08414265513420105,-0.08629380911588669
143,2021-07-22 12:20:20.267760,0.1217885573450611,-2.8081750531544,22.103730313967414,7.855043888092041,39.54333,2.37794,0.2150101512670517,-0.08439838886260986,-0.08167535066604614
144,2021-07-22 12:20:20.309574,0.12048239166068335,-2.8084458632366793,22.106668892380682,7.855043888092041,39.54333,2.37794,0.21227718889713287,-0.08446186780929565,-0.07665792852640152
145,2021-07-22 12:20:20.348901,0.1142582741840863,-2.808677160042594,22.10945512977385,7.855043888092041,39.54333,2.37794,0.20907707512378693,-0.08456604927778244,-0.07168951630592346
146,2021-07-22 12:20:20.431820,0.09917844475957477,-2.7937878701858314,22.08912583823628,7.855043888092041,39.54333,2.37794,0.2015051245689392,-0.0857355073094368,-0.062385741621255875
147,2021-07-22 12:20:20.470380,0.09657421316640392,-2.7954016892289824,22.091864218993578,7.851491451263428,39.54333,2.37794,0.20067468285560608,-0.08618507534265518,-0.060375962406396866
148,2021-07-22 12:20:20.510540,0.09470577152649745,-2.7970559883334563,22.094706186430777,7.854581832885742,39.54333,2.37794,0.1963445246219635,-0.08752395212650299,-0.05654188245534897
149,2021-07-22 12:20:20.551232,0.10013805999064028,-2.798743667636448,22.09761347883389,7.854581832885742,39.54333,2.37794,0.1919059157371521,-0.08948979526758194,-0.05358311906456947
150,2021-07-22 12:20:20.591561,0.11279688476737018,-2.80042776173282,22.100529372264248,7.854581832885742,39.54333,2.37794,0.1875283122062683,-0.09187495708465576,-0.05160076543688774
151,2021-07-22 12:20:20.632450,0.11615396657574727,-2.8039632168851365,22.093233391726216,7.850366115570068,39.54333,2.37794,0.18356159329414368,-0.0945468321442604,-0.05055677890777588
152,2021-07-22 12:20:20.665132,0.11631495958676794,-2.805592043207709,22.09462268145848,7.850366115570068,39.54333,2.37794,0.18229584395885468,-0.09541396796703339,-0.04926111176609993
153,2021-07-22 12:20:20.705991,0.11567154390849006,-2.8076212367436324,22.0963202786582,7.845722198486328,39.54333,2.37794,0.17880424857139587,-0.09829038381576538,-0.049330003559589386
154,2021-07-22 12:20:20.746061,0.11267091840471888,-2.809641819248769,22.097979361646978,7.8542938232421875,39.54333,2.37794,0.17581239342689514,-0.10107401013374329,-0.050204601138830185
155,2021-07-22 12:20:20.787085,0.10635719461740678,-2.8155869479705937,22.092638834715398,7.8542938232421875,39.54333,2.37794,0.17315863072872162,-0.103706955909729,-0.051621440798044205
156,2021-07-22 12:20:20.827827,0.10436835849715564,-2.818261389929965,22.093413379653807,7.8542938232421875,39.54333,2.37794,0.1709926426410675,-0.1059596836566925,-0.05341154336929321
157,2021-07-22 12:20:20.870935,0.1038485963244502,-2.821144113357325,22.094218562604617,7.863554000854492,39.54333,2.37794,0.16910599172115326,-0.10790803283452988,-0.055328547954559326
158,2021-07-22 12:20:20.949667,0.10195450916779376,-2.823594578372107,22.09444449534707,7.863554000854492,39.54333,2.37794,0.1661558300256729,-0.11083926260471344,-0.057276926934719086
159,2021-07-22 12:20:20.989837,0.1017220518343241,-2.826107796668864,22.094955517114716,7.871493816375732,39.54333,2.37794,0.16490235924720764,-0.11192867159843445,-0.05909518525004387
160,2021-07-22 12:20:21.030558,0.10153645402315874,-2.8286927156739976,22.09546107134907,7.871493816375732,39.54333,2.37794,0.16384583711624146,-0.1127225011587143,-0.06052181124687195
161,2021-07-22 12:20:21.071415,0.10140269116894376,-2.831322355655836,22.095955648053824,7.882838726043701,39.54333,2.37794,0.16299091279506683,-0.11311491578817368,-0.06148597598075867
162,2021-07-22 12:20:21.112592,0.10026889748745686,-2.828761857804161,22.09520310683726,7.895519256591797,39.54333,2.37794,0.16168218851089478,-0.11431913077831268,-0.061621006578207016
163,2021-07-22 12:20:21.153050,0.09647248570905788,-2.8307947261977664,22.09547881517481,7.895519256591797,39.54333,2.37794,0.16133081912994385,-0.1139817088842392,-0.06198163330554962
164,2021-07-22 12:20:21.185546,0.09324441389381062,-2.8324363264286134,22.09568366866476,7.889973163604736,39.54333,2.37794,0.16157838702201843,-0.11283233016729355,-0.06191929802298546
165,2021-07-22 12:20:21.225583,0.0923110459460514,-2.8344686386267615,22.095920625547144,7.906855583190918,39.54333,2.37794,0.16207243502140045,-0.11133509129285812,-0.0615621954202652
166,2021-07-22 12:20:21.266547,0.0924676610379571,-2.836557583717739,22.09614118422905,7.906855583190918,39.54333,2.37794,0.16300232708454132,-0.10949237644672394,-0.061004217714071274
167,2021-07-22 12:20:21.309599,0.0926791429705818,-2.8349356389830827,22.106195623829443,7.904685020446777,39.54333,2.37794,0.16221457719802856,-0.10983537137508392,-0.06071905791759491
168,2021-07-22 12:20:21.348182,0.08976605630729716,-2.836490245977646,22.107470041585167,7.904685020446777,39.54333,2.37794,0.16396287083625793,-0.10735351592302322,-0.060046713799238205
169,2021-07-22 12:20:21.388596,0.08668827667436348,-2.838120249587372,22.108799455972836,7.904685020446777,39.54333,2.37794,0.1660246104001999,-0.1048431396484375,-0.059482015669345856
170,2021-07-22 12:20:21.470231,0.08839566282876342,-2.8118364912742515,22.095821275230062,7.920860767364502,39.54333,2.37794,0.17167960107326508,-0.09975732862949371,-0.05879383906722069
171,2021-07-22 12:20:21.510184,0.09022307893639134,-2.8132928342848706,22.09836586684377,7.91987943649292,39.54333,2.37794,0.17523203790187836,-0.09726490080356598,-0.05875280499458313
172,2021-07-22 12:20:21.551097,0.09919617787005294,-2.8148176486866943,22.10105437002935,7.91987943649292,39.54333,2.37794,0.1754762828350067,-0.09678073227405548,-0.05846131592988968
173,2021-07-22 12:20:21.591749,0.10860035388079889,-2.816298884938274,22.103688628016037,7.925092697143555,39.54333,2.37794,0.17966648936271667,-0.09431004524230957,-0.05860023945569992
174,2021-07-22 12:20:21.632137,0.11309022318426012,-2.813379568888521,22.11137045351706,7.925092697143555,39.54333,2.37794,0.18437662720680237,-0.0917367935180664,-0.05873541533946991
175,2021-07-22 12:20:21.664788,0.11502953404262953,-2.8141204828288977,22.114082070854327,7.9236297607421875,39.54333,2.37794,0.18897125124931335,-0.08933664858341217,-0.0587751679122448
176,2021-07-22 12:20:21.705237,0.11668309737679688,-2.8150399042950967,22.117500640779497,7.922726154327393,39.54333,2.37794,0.1937015950679779,-0.08669005334377289,-0.05845325067639351
177,2021-07-22 12:20:21.748336,0.12174501754504666,-2.8160088818409696,22.12119938087421,7.922726154327393,39.54333,2.37794,0.19827516376972198,-0.08389613032341003,-0.057711537927389145
178,2021-07-22 12:20:21.788580,0.12761092616186845,-2.8120378407921467,22.121117495569692,7.9209442138671875,39.54333,2.37794,0.1997654289007187,-0.08286915719509125,-0.057388972491025925
179,2021-07-22 12:20:21.827180,0.12978161724965326,-2.8122766194697015,22.12411425642195,7.920614242553711,39.54333,2.37794,0.2039480060338974,-0.0800284668803215,-0.05604882165789604
180,2021-07-22 12:20:21.859726,0.13063361918860616,-2.812459629763171,22.126672958445546,7.920614242553711,39.54333,2.37794,0.2072039544582367,-0.07735691964626312,-0.054424677044153214
181,2021-07-22 12:20:21.908562,0.13047999815836012,-2.8127251300883773,22.13057666226804,7.917366027832031,39.54333,2.37794,0.2103632539510727,-0.07421568036079407,-0.0522158108651638
182,2021-07-22 12:20:21.990971,0.1234770762980602,-2.815501225992325,22.131901951999847,7.916825294494629,39.54333,2.37794,0.213557168841362,-0.0687314122915268,-0.04772999510169029
183,2021-07-22 12:20:22.030596,0.12238852208688086,-2.815959859963023,22.134578165123518,7.916825294494629,39.54333,2.37794,0.2148789018392563,-0.06731380522251129,-0.04668312147259712
184,2021-07-22 12:20:22.070958,0.12150779471088918,-2.8163924491942294,22.13732866004094,7.916825294494629,39.54333,2.37794,0.21483133733272552,-0.06492189317941666,-0.04452148452401161
185,2021-07-22 12:20:22.111890,0.12054243259276458,-2.8168221375246456,22.140142005437237,7.912869453430176,39.54333,2.37794,0.21400785446166992,-0.06282173097133636,-0.04270043969154358
186,2021-07-22 12:20:22.152225,0.11960598460587535,-2.818505656662093,22.129735232675444,7.912869453430176,39.54333,2.37794,0.21246404945850372,-0.061151422560214996,-0.041368477046489716
187,2021-07-22 12:20:22.192991,0.1185328382986364,-2.819083042174388,22.13096317613004,7.927166938781738,39.54333,2.37794,0.21032443642616272,-0.059929847717285156,-0.04061359167098999
188,2021-07-22 12:20:22.225677,0.11763275151779576,-2.819545409362208,22.13193753098536,7.924098014831543,39.54333,2.37794,0.2106039971113205,-0.05888615548610687,-0.03985410928726196
189,2021-07-22 12:20:22.266903,0.11622777712085208,-2.820119440283432,22.133154472880836,7.933848857879639,39.54333,2.37794,0.20779384672641754,-0.05823511257767677,-0.039904434233903885
190,2021-07-22 12:20:22.306447,0.1133381936377777,-2.8178026034161796,22.123303475565457,7.933848857879639,39.54333,2.37794,0.20469291508197784,-0.05804751440882683,-0.04065703973174095
191,2021-07-22 12:20:22.388166,0.10408476540542685,-2.81817975028834,22.1227870595025,7.933848857879639,39.54333,2.37794,0.1983761489391327,-0.05846501141786575,-0.043558426201343536
192,2021-07-22 12:20:22.430733,0.10278052442098758,-2.791950438627743,22.096501397647522,7.932769298553467,39.54333,2.37794,0.1978188008069992,-0.05770305171608925,-0.04353005439043045
193,2021-07-22 12:20:22.470382,0.10159711574395482,-2.7899477944634605,22.091778435505976,7.932769298553467,39.54333,2.37794,0.1948859989643097,-0.0582997165620327,-0.04554792493581772
194,2021-07-22 12:20:22.510038,0.09949209990141662,-2.7897838576315888,22.090788500860587,7.928265571594238,39.54333,2.37794,0.19246719777584076,-0.058903854340314865,-0.0474061518907547
195,2021-07-22 12:20:22.550657,0.0945081421404338,-2.7895940380060167,22.089721512939654,7.928265571594238,39.54333,2.37794,0.19056452810764313,-0.059548571705818176,-0.048934902995824814
196,2021-07-22 12:20:22.592277,0.09221082185826955,-2.789377965075178,22.088574071926764,7.929994583129883,39.54333,2.37794,0.18927603960037231,-0.06028931960463524,-0.049931447952985764
197,2021-07-22 12:20:22.632161,0.09188953210642209,-2.7891515880997932,22.08742387088369,7.924191951751709,39.54333,2.37794,0.1886054277420044,-0.06119026243686676,-0.05024809390306473
198,2021-07-22 12:20:22.672130,0.09217922385147337,-2.7897828493268144,22.08159536727011,7.924191951751709,39.54333,2.37794,0.1881050318479538,-0.060947876423597336,-0.050514381378889084
199,2021-07-22 12:20:22.704723,0.0910630048312796,-2.7896518131169485,22.08012252438725,7.92824125289917,39.54333,2.37794,0.18805600702762604,-0.06221170723438263,-0.05002494528889656
200,2021-07-22 12:20:22.745633,0.0868171672083087,-2.7894726663731273,22.078211771534207,7.929004192352295,39.54333,2.37794,0.18817414343357086,-0.06387168169021606,-0.04889999330043793
201,2021-07-22 12:20:22.786031,0.084989387659288,-2.789284244873192,22.076259335254953,7.929004192352295,39.54333,2.37794,0.18850736320018768,-0.06593159586191177,-0.047103095799684525
202,2021-07-22 12:20:22.868753,0.0851671941063379,-2.797217549536278,22.075940272328264,7.922823905944824,39.54333,2.37794,0.18923360109329224,-0.07111010700464249,-0.04220866411924362
203,2021-07-22 12:20:22.908025,0.09234889280242532,-2.797894015019733,22.074294403515204,7.9268035888671875,39.54333,2.37794,0.189217209815979,-0.07163480669260025,-0.04142230749130249
204,2021-07-22 12:20:22.948679,0.10647265039900383,-2.798617705935264,22.072549030875606,7.9268035888671875,39.54333,2.37794,0.18957677483558655,-0.07478780299425125,-0.03839411586523056
205,2021-07-22 12:20:22.989116,0.11127387091607739,-2.806050195683976,22.072978998417195,7.926568508148193,39.54333,2.37794,0.18969914317131042,-0.07804904133081436,-0.03543420508503914
206,2021-07-22 12:20:23.030110,0.11223774799697989,-2.8076407393296194,22.071396298826315,7.926568508148193,39.54333,2.37794,0.18965451419353485,-0.08140712231397629,-0.032668229192495346
207,2021-07-22 12:20:23.070687,0.1123373153329643,-2.80923264136234,22.069786096554957,7.922086715698242,39.54333,2.37794,0.18946664035320282,-0.08480755239725113,-0.030305439606308937
208,2021-07-22 12:20:23.111197,0.10263803772486521,-2.8108291206223552,22.068122000704776,7.926511764526367,39.54333,2.37794,0.18926207721233368,-0.08589867502450943,-0.02902732416987419
209,2021-07-22 12:20:23.151953,0.08916120336351517,-2.82502867125982,22.073303246596694,7.926511764526367,39.54333,2.37794,0.18885639309883118,-0.08939578384160995,-0.027138525620102882
210,2021-07-22 12:20:23.193099,0.08525878172583785,-2.828339754134554,22.07243613889459,7.918943881988525,39.54333,2.37794,0.18851391971111298,-0.09304184466600418,-0.025820260867476463
211,2021-07-22 12:20:23.225033,0.0843905250773049,-2.8309471608955024,22.071743606241597,7.918943881988525,39.54333,2.37794,0.1881636381149292,-0.09639700502157211,-0.025292985141277313
212,2021-07-22 12:20:23.266206,0.08397829273820923,-2.834358035440991,22.070822997483816,7.918943881988525,39.54333,2.37794,0.18779072165489197,-0.10002177208662033,-0.024959417060017586
213,2021-07-22 12:20:23.309850,0.08708297419395444,-2.8380403599172457,22.06982055883949,7.923314571380615,39.54333,2.37794,0.1875886768102646,-0.10187011957168579,-0.02402377314865589
214,2021-07-22 12:20:23.347727,0.09065723470333757,-2.8452658899074628,22.073905652515663,7.918752670288086,39.54333,2.37794,0.18737736344337463,-0.10543803125619888,-0.0243836697191
215,2021-07-22 12:20:23.428171,0.09217631796515485,-2.822623328348522,22.05056422574701,7.918752670288086,39.54333,2.37794,0.18730071187019348,-0.11124559491872787,-0.02623891644179821
216,2021-07-22 12:20:23.468813,0.09234675726806728,-2.8267816333545444,22.050085723544328,7.926172256469727,39.54333,2.37794,0.18745708465576172,-0.11315106600522995,-0.027547312900424004
217,2021-07-22 12:20:23.509486,0.09183540376482018,-2.825891190863024,22.052390413982284,7.928670883178711,39.54333,2.37794,0.18769903481006622,-0.11440370976924896,-0.028943562880158424
218,2021-07-22 12:20:23.551465,0.09185788067766743,-2.829669392330183,22.052184562562605,7.928670883178711,39.54333,2.37794,0.1878885179758072,-0.11486135423183441,-0.0302425567060709
219,2021-07-22 12:20:23.591050,0.09204417570366953,-2.833291666131686,22.052001094308498,7.928670883178711,39.54333,2.37794,0.1878271996974945,-0.11620017141103745,-0.030305830761790276
220,2021-07-22 12:20:23.631607,0.09204954599998096,-2.8370351048931677,22.051772784174183,7.943029880523682,39.54333,2.37794,0.18788450956344604,-0.1156778484582901,-0.03151717409491539
221,2021-07-22 12:20:23.672125,0.0916472436401544,-2.830202408388042,22.05713468492785,7.943029880523682,39.54333,2.37794,0.18781284987926483,-0.11448775976896286,-0.03243457153439522
222,2021-07-22 12:20:23.705180,0.09145611397795662,-2.832216386773922,22.057505848681974,7.943603515625,39.54333,2.37794,0.1875394731760025,-0.11265105754137039,-0.03311271592974663
223,2021-07-22 12:20:23.748157,0.09112929429101026,-2.8348520568431725,22.058001442000112,7.954875946044922,39.54333,2.37794,0.18703269958496094,-0.11043482273817062,-0.03368859365582466
224,2021-07-22 12:20:23.785994,0.09091716816065372,-2.83721715253755,22.058454431669396,7.954875946044922,39.54333,2.37794,0.18686233460903168,-0.11074734479188919,-0.0338042676448822
225,2021-07-22 12:20:23.830369,0.09052491299104062,-2.8282714012840935,22.064924470137743,7.955033302307129,39.54333,2.37794,0.18614709377288818,-0.1077217310667038,-0.03439961373806
226,2021-07-22 12:20:23.867957,0.09010320050747976,-2.829175687631637,22.066123228348115,7.9608893394470215,39.54333,2.37794,0.18542779982089996,-0.10427547991275787,-0.035009466111660004
227,2021-07-22 12:20:23.948271,0.08215293058332718,-2.8310589918839995,22.068741718349443,7.9608893394470215,39.54333,2.37794,0.1845214068889618,-0.09649930149316788,-0.03680378571152687
228,2021-07-22 12:20:23.990665,0.08110714625139256,-2.8320771138369176,22.070170564377417,7.968257904052734,39.54333,2.37794,0.1842135787010193,-0.0957188680768013,-0.03712623193860054
229,2021-07-22 12:20:24.030858,0.08164233720456503,-2.8236746563492847,22.07754458713386,7.968257904052734,39.54333,2.37794,0.18428003787994385,-0.0915791243314743,-0.03828524053096771
230,2021-07-22 12:20:24.070321,0.0821778745214583,-2.8234587801102844,22.079646480994636,7.969905853271484,39.54333,2.37794,0.18474432826042175,-0.08760243654251099,-0.0394236259162426
231,2021-07-22 12:20:24.111062,0.0826645619046455,-2.8232060208569254,22.08185274835777,7.969905853271484,39.54333,2.37794,0.18553966283798218,-0.08378533273935318,-0.04051387682557106
232,2021-07-22 12:20:24.143691,0.08304733152125758,-2.822972283170773,22.08364276563763,7.969905853271484,39.54333,2.37794,0.18658722937107086,-0.08037274330854416,-0.04127665236592293
233,2021-07-22 12:20:24.192007,0.08471066615107214,-2.8184343003751935,22.08513336077906,7.971105575561523,39.54333,2.37794,0.18787558376789093,-0.07651874423027039,-0.04192467778921127
234,2021-07-22 12:20:24.224683,0.08508032945241689,-2.81777280620743,22.086924854440387,7.9599151611328125,39.54333,2.37794,0.1880207508802414,-0.07535501569509506,-0.04231183975934982
235,2021-07-22 12:20:24.265221,0.08563872494565515,-2.8168841067256785,22.089163890792875,7.9599151611328125,39.54333,2.37794,0.18934829533100128,-0.071766696870327,-0.04237449914216995
236,2021-07-22 12:20:24.307113,0.08610443231762972,-2.815922115531511,22.09151664608716,7.954583168029785,39.54333,2.37794,0.19059772789478302,-0.06808807700872421,-0.04197138920426369
237,2021-07-22 12:20:24.346570,0.08670175030611625,-2.817507096699093,22.097082105460437,7.942831993103027,39.54333,2.37794,0.19171226024627686,-0.06447472423315048,-0.041124727576971054
238,2021-07-22 12:20:24.387341,0.08695500240646663,-2.8168148008830802,22.099883437483097,7.942831993103027,39.54333,2.37794,0.19261546432971954,-0.06080115959048271,-0.039885859936475754
239,2021-07-22 12:20:24.469235,0.09172700609601417,-2.788980159443628,22.08139403460157,7.94232177734375,39.54333,2.37794,0.1935005933046341,-0.05526128038764,-0.03801194950938225
240,2021-07-22 12:20:24.511235,0.10542122626946729,-2.78727072335096,22.081273378256785,7.94232177734375,39.54333,2.37794,0.19351385533809662,-0.051754895597696304,-0.036050599068403244
241,2021-07-22 12:20:24.550434,0.11190810872775249,-2.7863290212781857,22.083700941789758,7.94232177734375,39.54333,2.37794,0.1933470368385315,-0.04882844537496567,-0.03409161791205406
242,2021-07-22 12:20:24.590299,0.11298529999539285,-2.785335522801909,22.086204258657364,7.940420150756836,39.54333,2.37794,0.1929914802312851,-0.04631988704204559,-0.032190244644880295
243,2021-07-22 12:20:24.630958,0.1129303081639911,-2.784282798403224,22.08879185799557,7.940429210662842,39.54333,2.37794,0.1924203336238861,-0.04422081261873245,-0.030470790341496468
244,2021-07-22 12:20:24.663435,0.11102791075561172,-2.783427194559971,22.09088633685525,7.940429210662842,39.54333,2.37794,0.1924934983253479,-0.042721208184957504,-0.029851123690605164
245,2021-07-22 12:20:24.712007,0.09933305084100848,-2.7766701772239077,22.096495724925685,7.9414825439453125,39.54333,2.37794,0.1918075829744339,-0.04076351970434189,-0.028208183124661446
246,2021-07-22 12:20:24.744936,0.09480685139356591,-2.77517929435487,22.098893691467524,7.9414825439453125,39.54333,2.37794,0.19089867174625397,-0.03977679833769798,-0.027108917012810707
247,2021-07-22 12:20:24.785398,0.09294244199301435,-2.7732985380187345,22.101876108540193,7.9414825439453125,39.54333,2.37794,0.18976841866970062,-0.03875243663787842,-0.02603386715054512
248,2021-07-22 12:20:24.825727,0.09227747955154367,-2.7713684603951925,22.104887983346714,7.943037033081055,39.54333,2.37794,0.18850241601467133,-0.03807554394006729,-0.025083353742957115
249,2021-07-22 12:20:24.870021,0.09325055289026134,-2.764093524059727,22.107917886785305,7.943286418914795,39.54333,2.37794,0.1870911717414856,-0.037720371037721634,-0.024102889001369476
250,2021-07-22 12:20:24.906994,0.09739995864353644,-2.7616485264410198,22.110714770932802,7.943286418914795,39.54333,2.37794,0.18669408559799194,-0.03645281493663788,-0.023446567356586456
251,2021-07-22 12:20:24.988554,0.099073908190853,-2.756032802136595,22.116982204775084,7.9449872970581055,39.54333,2.37794,0.1837247759103775,-0.03734420984983444,-0.021146217361092567
252,2021-07-22 12:20:25.029255,0.09911887097401523,-2.7512793355764735,22.119835562585145,7.9449872970581055,39.54333,2.37794,0.18234939873218536,-0.038280874490737915,-0.0194863248616457
253,2021-07-22 12:20:25.069497,0.09877984587021073,-2.748089906951971,22.122979258665726,7.942073345184326,39.54333,2.37794,0.18106001615524292,-0.039541348814964294,-0.017390834167599678
254,2021-07-22 12:20:25.111995,0.09849537521371098,-2.744632265764175,22.126325789737223,7.942073345184326,39.54333,2.37794,0.17985771596431732,-0.041117433458566666,-0.014759693294763565
255,2021-07-22 12:20:25.151471,0.0981725587785745,-2.741364251124071,22.129485917963997,7.942073345184326,39.54333,2.37794,0.17931996285915375,-0.040654003620147705,-0.013583589345216751
256,2021-07-22 12:20:25.191690,0.09858105514468414,-2.7462961255613973,22.1193011673572,7.942991733551025,39.54333,2.37794,0.17839254438877106,-0.04300116002559662,-0.010364430025219917
257,2021-07-22 12:20:25.232292,0.09850369396345354,-2.743805654947908,22.120896640614813,7.936834335327148,39.54333,2.37794,0.17763566970825195,-0.04580327123403549,-0.006798129063099623
258,2021-07-22 12:20:25.264868,0.09616771507905014,-2.7417517297890357,22.12216181822252,7.936834335327148,39.54333,2.37794,0.1772347092628479,-0.04921168088912964,-0.0034458369482308626
259,2021-07-22 12:20:25.310256,0.09163863909475577,-2.738836161414901,22.123927031601244,7.936834335327148,39.54333,2.37794,0.17689289152622223,-0.053368907421827316,0.00048796573537401855
260,2021-07-22 12:20:25.350414,0.09141608672007527,-2.7479596067987178,22.131897704634387,7.926737308502197,39.54333,2.37794,0.17659799754619598,-0.054065264761447906,0.0024043864104896784
261,2021-07-22 12:20:25.387145,0.09092723294868107,-2.7467855894200612,22.134139750342968,7.926737308502197,39.54333,2.37794,0.17651772499084473,-0.059208475053310394,0.005803417414426804
262,2021-07-22 12:20:25.429118,0.09101762016511271,-2.7218851423381314,22.109622876277847,7.926737308502197,39.54333,2.37794,0.17647917568683624,-0.0650651752948761,0.008982144296169281
263,2021-07-22 12:20:25.468025,0.09100834674771371,-2.720528611188597,22.11203781962048,7.918805122375488,39.54333,2.37794,0.17640872299671173,-0.07132900506258011,0.011276587843894958
264,2021-07-22 12:20:25.550978,0.09184576438454414,-2.7344925524483337,22.11732486130302,7.918805122375488,39.54333,2.37794,0.1757039725780487,-0.08531641960144043,0.013836631551384926
265,2021-07-22 12:20:25.591260,0.09116078452894773,-2.735074374638699,22.11997547223106,7.745372772216797,39.54333,2.37794,0.17547215521335602,-0.08771487325429916,0.015342299826443195
266,2021-07-22 12:20:25.630270,0.09048343119247097,-2.735519279832784,22.122529629603925,7.745372772216797,39.54333,2.37794,0.17426908016204834,-0.09494428336620331,0.0150686614215374
267,2021-07-22 12:20:25.670888,0.09919177757126638,-2.7359832777933346,22.12519042054209,7.725152969360352,39.54333,2.37794,0.17219507694244385,-0.1021982878446579,0.01412245910614729
268,2021-07-22 12:20:25.711537,0.11085504509897966,-2.7507605432012654,22.12237691683537,7.761940002441406,39.54333,2.37794,0.16946019232273102,-0.10897775739431381,0.012665268033742905
269,2021-07-22 12:20:25.752248,0.11323476441509857,-2.7530338398961662,22.12435056767793,7.761940002441406,39.54333,2.37794,0.166334331035614,-0.11519477516412735,0.01086543221026659
270,2021-07-22 12:20:25.785157,0.11284556855031375,-2.7549501213273033,22.125991805423617,7.761940002441406,39.54333,2.37794,0.16556812822818756,-0.11781296879053116,0.01112766657024622
271,2021-07-22 12:20:25.825370,0.1112637487648165,-2.757252430199008,22.127894609316275,7.742978572845459,39.54333,2.37794,0.16178937256336212,-0.1233651340007782,0.008889423683285713
272,2021-07-22 12:20:25.865953,0.10526893560110527,-2.7635958553944504,22.115299651949794,7.742978572845459,39.54333,2.37794,0.1575080305337906,-0.12827225029468536,0.006654518190771341
273,2021-07-22 12:20:25.906727,0.0991808369350493,-2.76664023485004,22.115267251912915,7.777163982391357,39.54333,2.37794,0.15293702483177185,-0.13253287971019745,0.004558401647955179
274,2021-07-22 12:20:25.948316,0.09636704438013143,-2.7698213005471772,22.115181082488782,7.773446559906006,39.54333,2.37794,0.14824102818965912,-0.1361088752746582,0.0026705448981374502
275,2021-07-22 12:20:25.990067,0.09486472567683543,-2.7730893839229975,22.115042766808774,7.773446559906006,39.54333,2.37794,0.14365820586681366,-0.13895654678344727,0.0010060119675472379
276,2021-07-22 12:20:26.069413,0.09038475858241166,-2.7740029126959236,22.09061918460359,7.796652317047119,39.54333,2.37794,0.13742628693580627,-0.14359275996685028,-0.0008410572190769017
277,2021-07-22 12:20:26.110017,0.08942887899783206,-2.776813725832286,22.087519119889745,7.796652317047119,39.54333,2.37794,0.1338943988084793,-0.14458805322647095,-0.002008341019973159
278,2021-07-22 12:20:26.150660,0.08889909858370805,-2.7796866572305645,22.0843326627318,7.796652317047119,39.54333,2.37794,0.13122187554836273,-0.14472174644470215,-0.0029169863555580378
279,2021-07-22 12:20:26.191352,0.0887073904851903,-2.782621752197181,22.0810566672877,7.8037285804748535,39.54333,2.37794,0.12945739924907684,-0.14403964579105377,-0.0035871847067028284
280,2021-07-22 12:20:26.232070,0.08694503178236748,-2.78776504078956,22.076401710614668,7.810658931732178,39.54333,2.37794,0.12761835753917694,-0.14599812030792236,-0.003969528712332249
281,2021-07-22 12:20:26.264579,0.08405108187765066,-2.7904516488829825,22.073507719397636,7.810658931732178,39.54333,2.37794,0.1273220032453537,-0.1438339352607727,-0.004254968836903572
282,2021-07-22 12:20:26.306053,0.08036632303839826,-2.7938799601562008,22.069733039256757,7.820117950439453,39.54333,2.37794,0.1255468726158142,-0.14533789455890656,-0.004580439068377018
283,2021-07-22 12:20:26.345919,0.08114187657654912,-2.797315973172736,22.066020516933687,7.807467460632324,39.54333,2.37794,0.1292358934879303,-0.13754068315029144,-0.0038528202567249537
284,2021-07-22 12:20:26.386561,0.0811144438025266,-2.805070177854029,22.072912121569523,7.807467460632324,39.54333,2.37794,0.13139984011650085,-0.13355933129787445,-0.0030779042281210423
285,2021-07-22 12:20:26.467810,0.07862183072268528,-2.784866436619075,22.044000089965586,7.817319393157959,39.54333,2.37794,0.1336498260498047,-0.1286538541316986,-0.0016702229622751474
286,2021-07-22 12:20:26.508802,0.07714287461919223,-2.7891146781513876,22.04111559178243,7.831284999847412,39.54333,2.37794,0.13705533742904663,-0.12298254668712616,3.556084629963152e-05
287,2021-07-22 12:20:26.548996,0.07803611932672429,-2.7780558149250707,22.036220565425307,7.831284999847412,39.54333,2.37794,0.1406855434179306,-0.1169450506567955,0.002061897423118353
288,2021-07-22 12:20:26.589284,0.0791942518553715,-2.7803545395857623,22.032983786545724,7.827749252319336,39.54333,2.37794,0.14420253038406372,-0.11085577309131622,0.0041938163340091705
289,2021-07-22 12:20:26.630781,0.08013077422506222,-2.782732587881114,22.029565606067845,7.836978912353516,39.54333,2.37794,0.14741893112659454,-0.10469426214694977,0.006402547005563974
290,2021-07-22 12:20:26.671386,0.08082157730330235,-2.7851018819659923,22.02615396734563,7.836978912353516,39.54333,2.37794,0.14795567095279694,-0.1031564250588417,0.0072840070351958275
291,2021-07-22 12:20:26.711605,0.08135798805468476,-2.7883344197419175,22.034996529008584,7.841732501983643,39.54333,2.37794,0.15095075964927673,-0.0968535840511322,0.00942062959074974
292,2021-07-22 12:20:26.752171,0.08182664020187509,-2.790797738873879,22.032997088310573,7.841732501983643,39.54333,2.37794,0.1534317582845688,-0.09049142897129059,0.011356576345860958
293,2021-07-22 12:20:26.784656,0.08208374117677604,-2.7927580873134112,22.031356856552808,7.841732501983643,39.54333,2.37794,0.1553698182106018,-0.08447889238595963,0.012744535692036152
294,2021-07-22 12:20:26.825024,0.08229369508867522,-2.7952059888383505,22.029279375046535,7.8528265953063965,39.54333,2.37794,0.157070592045784,-0.0779184028506279,0.013957013376057148
295,2021-07-22 12:20:26.906464,0.08248685282186488,-2.800532786431679,22.03181194887788,7.859689712524414,39.54333,2.37794,0.15912026166915894,-0.06853704154491425,0.015693724155426025
296,2021-07-22 12:20:26.947447,0.08264599603032774,-2.8030608455757835,22.03037994659174,7.859689712524414,39.54333,2.37794,0.16043472290039062,-0.061561763286590576,0.016028041020035744
297,2021-07-22 12:20:26.987753,0.08286939945990154,-2.80554807624949,22.028934253959257,7.869002342224121,39.54333,2.37794,0.16175514459609985,-0.054674673825502396,0.016037248075008392
298,2021-07-22 12:20:27.029304,0.0816648863399945,-2.808126342284515,22.02740515762404,7.869002342224121,39.54333,2.37794,0.16329236328601837,-0.04795503988862038,0.015845833346247673
299,2021-07-22 12:20:27.068923,0.0778516254823744,-2.7954722345135505,22.036232322834984,7.869002342224121,39.54333,2.37794,0.1651040017604828,-0.04179124906659126,0.015407083556056023
300,2021-07-22 12:20:27.111205,0.07602241649242429,-2.7962523999627606,22.035935958806625,7.8733086585998535,39.54333,2.37794,0.1673264503479004,-0.03614620491862297,0.014925523661077023
301,2021-07-22 12:20:27.150113,0.07665425018283006,-2.7969915385040984,22.03569314439492,7.8733086585998535,39.54333,2.37794,0.16809409856796265,-0.03288400173187256,0.015249965712428093
302,2021-07-22 12:20:27.191288,0.07769457356010333,-2.797711753624996,22.03538331086112,7.885097503662109,39.54333,2.37794,0.17080804705619812,-0.028278766199946404,0.014587566256523132
303,2021-07-22 12:20:27.231289,0.07925317574825963,-2.786768007438941,22.040841282931897,7.893816947937012,39.54333,2.37794,0.17384716868400574,-0.024792691692709923,0.013816580176353455
304,2021-07-22 12:20:27.272233,0.0805206332247672,-2.786064539772416,22.041259510934957,7.893816947937012,39.54333,2.37794,0.1772116720676422,-0.022221948951482773,0.012894747778773308
305,2021-07-22 12:20:27.313000,0.08175417537734175,-2.7853336619001223,22.041686445885013,7.901156902313232,39.54333,2.37794,0.18075324594974518,-0.02064712531864643,0.011875607073307037
306,2021-07-22 12:20:27.345766,0.08275354058240936,-2.7846971593991134,22.04206830520096,7.899421215057373,39.54333,2.37794,0.18188786506652832,-0.018459150567650795,0.011838232167065144
307,2021-07-22 12:20:27.386893,0.08476614824576251,-2.7801041236690986,22.051103333018546,7.899421215057373,39.54333,2.37794,0.18564487993717194,-0.01788361370563507,0.010571585968136787
308,2021-07-22 12:20:27.467221,0.08712923754321392,-2.7531139364222694,22.0334112323013,7.899421215057373,39.54333,2.37794,0.19259025156497955,-0.018488489091396332,0.008013970218598843
309,2021-07-22 12:20:27.507896,0.08795023878509495,-2.751729562737352,22.03508533831335,7.906703472137451,39.54333,2.37794,0.1955520063638687,-0.019467182457447052,0.007002315483987331
310,2021-07-22 12:20:27.550342,0.08924731404167198,-2.7506382988859,22.04506977495524,7.906703472137451,39.54333,2.37794,0.19805069267749786,-0.020810162648558617,0.006207882426679134
311,2021-07-22 12:20:27.589207,0.08978005231506535,-2.7492485317059043,22.047862020919123,7.895453929901123,39.54333,2.37794,0.1996757835149765,-0.019571833312511444,0.005864023696631193
312,2021-07-22 12:20:27.629916,0.09461150172099779,-2.7477725887605193,22.050834250509194,7.898319721221924,39.54333,2.37794,0.20125429332256317,-0.02159814164042473,0.005510352086275816
313,2021-07-22 12:20:27.670369,0.1038220123707924,-2.7462464225860477,22.053850619071248,7.898319721221924,39.54333,2.37794,0.20201727747917175,-0.023929443210363388,0.005678239278495312
314,2021-07-22 12:20:27.710938,0.10705842271157383,-2.7503657378665207,22.055410316928153,7.900559902191162,39.54333,2.37794,0.20214532315731049,-0.02652643993496895,0.006459161173552275
315,2021-07-22 12:20:27.751677,0.10720736607581263,-2.7494508675789024,22.058386006704897,7.892183780670166,39.54333,2.37794,0.20151735842227936,-0.02936265803873539,0.007889466360211372
316,2021-07-22 12:20:27.792048,0.10670666375676081,-2.7485113102339396,22.061406411135444,7.892183780670166,39.54333,2.37794,0.20256632566452026,-0.029047314077615738,0.008070498704910278
317,2021-07-22 12:20:27.824951,0.10102370794833927,-2.747687883675713,22.063882853943902,7.89333438873291,39.54333,2.37794,0.20088884234428406,-0.03232017904520035,0.010334882885217667
318,2021-07-22 12:20:27.865268,0.09043396763659059,-2.746631400403665,22.066957676181836,7.889418125152588,39.54333,2.37794,0.19881978631019592,-0.03565788269042969,0.013177926652133465
319,2021-07-22 12:20:27.905814,0.08598936118517322,-2.753722163276235,22.09313571408361,7.889418125152588,39.54333,2.37794,0.1962561011314392,-0.03920154273509979,0.016325267031788826
320,2021-07-22 12:20:27.989494,0.08299278339862012,-2.7532440761272508,22.105684363882983,7.887959003448486,39.54333,2.37794,0.19038571417331696,-0.04729490354657173,0.022556209936738014
321,2021-07-22 12:20:28.028299,0.08171001104576843,-2.7530207558493878,22.111682925332133,7.887959003448486,39.54333,2.37794,0.19027937948703766,-0.04801369085907936,0.023784497752785683
