,a_nav_status_t,nav_status_D,nav_status_E,nav_status_N,nav_status_alt,nav_status_origin_lat,nav_status_origin_lon,nav_status_pitch,nav_status_roll,nav_status_yaw
0,2021-06-09 12:34:54.406488,0.7429051155542838,-3.7700861913441908,52.51856081754085,4.414999961853027,39.54333,2.37794,-0.028098678216338158,-0.03370264172554016,-2.9813694953918457
1,2021-06-09 12:34:54.455426,0.7449985312673622,-3.772931706576217,52.51191882440068,4.417500019073486,39.54333,2.37794,-0.028385857120156288,-0.030540606006979942,-2.980367422103882
2,2021-06-09 12:34:54.490760,0.7450899270585297,-3.772166277667063,52.50657677438454,4.417500019073486,39.54333,2.37794,-0.028601763769984245,-0.027224475517868996,-2.97943115234375
3,2021-06-09 12:34:54.531567,0.7514768166097139,-3.771353927822229,52.50105032734645,4.418749809265137,39.54333,2.37794,-0.02892463468015194,-0.02417229488492012,-2.978614568710327
4,2021-06-09 12:34:54.578373,0.7610294315617637,-3.775223336708995,52.4945194597643,4.418749809265137,39.54333,2.37794,-0.02923079952597618,-0.021483052521944046,-2.9780149459838867
5,2021-06-09 12:34:54.650072,0.7622734954593586,-3.775170061510288,52.4895039637789,4.418749809265137,39.54333,2.37794,-0.02941506914794445,-0.01862180605530739,-2.9774527549743652
6,2021-06-09 12:34:54.690800,0.7621073909837895,-3.775115325056145,52.48410402133925,4.426249980926514,39.54333,2.37794,-0.029579121619462967,-0.01615169644355774,-2.9770870208740234
7,2021-06-09 12:34:54.734736,0.7687338315351588,-3.781777180991004,52.47242325186305,4.426249980926514,39.54333,2.37794,-0.029831577092409134,-0.014166400767862797,-2.9770705699920654
8,2021-06-09 12:34:54.772197,0.7769879744421606,-3.7826702437220754,52.46727306123171,4.429999828338623,39.54333,2.37794,-0.03034563921391964,-0.012218562886118889,-2.976924180984497
9,2021-06-09 12:34:54.813207,0.778237352057663,-3.783771933541028,52.46109568831471,4.429999828338623,39.54333,2.37794,-0.03065851330757141,-0.010808796621859074,-2.9771053791046143
10,2021-06-09 12:34:54.846396,0.778237352057663,-3.783771933541028,52.46109568831471,4.432499885559082,39.54333,2.37794,-0.03065851330757141,-0.010808796621859074,-2.9771053791046143
11,2021-06-09 12:34:54.893653,0.7795080684081763,-3.7859627267216807,52.451895876315355,4.432499885559082,39.54333,2.37794,-0.03078162856400013,-0.009804361499845982,-2.977689743041992
12,2021-06-09 12:34:54.930441,0.7800084818023584,-3.786952601437314,52.44715452843085,4.4375,39.54333,2.37794,-0.03153223544359207,-0.009447988122701645,-2.977874755859375
13,2021-06-09 12:34:54.971313,0.7843207074281576,-3.7882969739284373,52.440826756460304,4.4375,39.54333,2.37794,-0.032257966697216034,-0.00960230827331543,-2.9784061908721924
14,2021-06-09 12:34:55.017335,0.784932209693229,-3.7897019860674788,52.43444338759273,4.4375,39.54333,2.37794,-0.03297901898622513,-0.01027956698089838,-2.9789867401123047
15,2021-06-09 12:34:55.046501,0.784932209693229,-3.7897019860674788,52.43444338759273,4.433750152587891,39.54333,2.37794,-0.03297901898622513,-0.01027956698089838,-2.9789867401123047
16,2021-06-09 12:34:55.130580,0.7871890876589812,-3.788595949426983,52.41746332018293,4.433750152587891,39.54333,2.37794,-0.03471076115965843,-0.013167194090783596,-2.980252981185913
17,2021-06-09 12:34:55.174881,0.7913839163584506,-3.789589167964353,52.41063205157117,4.426249980926514,39.54333,2.37794,-0.03577433526515961,-0.015291102230548859,-2.980891227722168
18,2021-06-09 12:34:55.217258,0.7920972409250598,-3.788492958185694,52.39613820905856,4.426249980926514,39.54333,2.37794,-0.036764584481716156,-0.017766492441296577,-2.9815309047698975
19,2021-06-09 12:34:55.255291,0.7919347285639996,-3.7892252914241014,52.38817276606384,4.414999961853027,39.54333,2.37794,-0.037749242037534714,-0.0205693282186985,-2.9821605682373047
20,2021-06-09 12:34:55.286486,0.7919347285639996,-3.7892252914241014,52.38817276606384,4.414999961853027,39.54333,2.37794,-0.037749242037534714,-0.0205693282186985,-2.9821605682373047
21,2021-06-09 12:34:55.334015,0.7989212190219457,-3.7888467108392163,52.37283808769415,4.414999961853027,39.54333,2.37794,-0.03822774067521095,-0.0223685372620821,-2.983619451522827
22,2021-06-09 12:34:55.370943,0.8059914858064547,-3.7891914555559314,52.36885133912791,4.404999732971191,39.54333,2.37794,-0.04017028585076332,-0.02683519572019577,-2.9834492206573486
23,2021-06-09 12:34:55.411910,0.8089339680481269,-3.789746179176424,52.36012802202661,4.404999732971191,39.54333,2.37794,-0.04114701971411705,-0.03016851656138897,-2.9841105937957764
24,2021-06-09 12:34:55.459139,0.8094963316692178,-3.790316290187214,52.35124034436491,4.391250133514404,39.54333,2.37794,-0.042012762278318405,-0.03355083242058754,-2.9847822189331055
25,2021-06-09 12:34:55.486593,0.8094963316692178,-3.790316290187214,52.35124034436491,4.391250133514404,39.54333,2.37794,-0.042012762278318405,-0.03355083242058754,-2.9847822189331055
26,2021-06-09 12:34:55.530061,0.8122116096388063,-3.7913471398749805,52.34033983452108,4.378749847412109,39.54333,2.37794,-0.043011054396629333,-0.036982808262109756,-2.9854133129119873
27,2021-06-09 12:34:55.571877,0.8167603823178055,-3.791980752489329,52.3311019229013,4.378749847412109,39.54333,2.37794,-0.043942198157310486,-0.04029582068324089,-2.9860589504241943
28,2021-06-09 12:34:55.613299,0.8183505202497627,-3.7926067237167516,52.3218953704347,4.364999771118164,39.54333,2.37794,-0.04469604790210724,-0.04346377030014992,-2.986732244491577
29,2021-06-09 12:34:55.658551,0.8185861230851242,-3.799332109459792,52.31746256718643,4.364999771118164,39.54333,2.37794,-0.04534929245710373,-0.04638059809803963,-2.9874093532562256
30,2021-06-09 12:34:55.726520,0.8188281817368674,-3.8008808265105625,52.309081685028325,4.364999771118164,39.54333,2.37794,-0.045934829860925674,-0.049068063497543335,-2.9880924224853516
31,2021-06-09 12:34:55.773062,0.8193780980640896,-3.80247458074584,52.30048587130942,4.351250171661377,39.54333,2.37794,-0.046442195773124695,-0.05144567787647247,-2.988800525665283
32,2021-06-09 12:34:55.812711,0.8193108620309967,-3.804660350617482,52.292877798651226,4.351250171661377,39.54333,2.37794,-0.046901315450668335,-0.053458817303180695,-2.9895126819610596
33,2021-06-09 12:34:55.852193,0.8194989555974765,-3.806360329770405,52.28435439940102,4.346250057220459,39.54333,2.37794,-0.047264304012060165,-0.055133335292339325,-2.99019718170166
34,2021-06-09 12:34:55.893175,0.8228135898643539,-3.808058864824642,52.27585048699404,4.346250057220459,39.54333,2.37794,-0.04767165333032608,-0.05636768043041229,-2.990846872329712
35,2021-06-09 12:34:55.934268,0.8336389890543482,-3.805222624969123,52.265371690811875,4.346250057220459,39.54333,2.37794,-0.04840657860040665,-0.057208556681871414,-2.9914467334747314
36,2021-06-09 12:34:55.966397,0.8336389890543482,-3.805222624969123,52.265371690811875,4.338749885559082,39.54333,2.37794,-0.04840657860040665,-0.057208556681871414,-2.9914467334747314
37,2021-06-09 12:34:56.009919,0.8371579577425629,-3.806217614602271,52.25626794210992,4.338749885559082,39.54333,2.37794,-0.048624034970998764,-0.057607486844062805,-2.9920496940612793
38,2021-06-09 12:34:56.054462,0.8384580456831774,-3.8071903265145983,52.24728336946726,4.333749771118164,39.54333,2.37794,-0.04864833876490593,-0.05750441551208496,-2.992537021636963
39,2021-06-09 12:34:56.092851,0.8406192450861917,-3.8076842635372694,52.24485095792721,4.333749771118164,39.54333,2.37794,-0.0486324317753315,-0.05694838985800743,-2.99292254447937
40,2021-06-09 12:34:56.135799,0.846517063105905,-3.808613957569877,52.23655742901907,4.352499961853027,39.54333,2.37794,-0.04865751415491104,-0.05592387914657593,-2.993260145187378
41,2021-06-09 12:34:56.166424,0.846517063105905,-3.808613957569877,52.23655742901907,4.352499961853027,39.54333,2.37794,-0.04865751415491104,-0.05592387914657593,-2.993260145187378
42,2021-06-09 12:34:56.211106,0.8484625479470932,-3.809494828849365,52.22871118478458,4.352499961853027,39.54333,2.37794,-0.048424795269966125,-0.05433525890111923,-2.993398427963257
43,2021-06-09 12:34:56.260409,0.8495406238238261,-3.8069575855922513,52.22136494760043,4.345000267028809,39.54333,2.37794,-0.04810434579849243,-0.05234887823462486,-2.993565559387207
44,2021-06-09 12:34:56.335942,0.857241721043051,-3.807598002275178,52.20641485941089,4.345000267028809,39.54333,2.37794,-0.0474272258579731,-0.04681204631924629,-2.9932565689086914
45,2021-06-09 12:34:56.366739,0.857241721043051,-3.807598002275178,52.20641485941089,4.340000152587891,39.54333,2.37794,-0.0474272258579731,-0.04681204631924629,-2.9932565689086914
46,2021-06-09 12:34:56.411751,0.8592840437933771,-3.8073653727127015,52.20207449449838,4.340000152587891,39.54333,2.37794,-0.046956632286310196,-0.04363982751965523,-2.993039846420288
47,2021-06-09 12:34:56.454151,0.8598280800223184,-3.8075818640668126,52.19523855219673,4.341249942779541,39.54333,2.37794,-0.04635877534747124,-0.03992583230137825,-2.992591381072998
48,2021-06-09 12:34:56.493829,0.8651835172652326,-3.8078068785286563,52.18812729657685,4.341249942779541,39.54333,2.37794,-0.045896243304014206,-0.03603759780526161,-2.992119550704956
49,2021-06-09 12:34:56.539533,0.8816474249082897,-3.809538181594846,52.18240282561387,4.341249942779541,39.54333,2.37794,-0.04573522135615349,-0.032248757779598236,-2.9916722774505615
50,2021-06-09 12:34:56.577225,0.8867871072731549,-3.809956480210328,52.17616378557754,4.34250020980835,39.54333,2.37794,-0.045096348971128464,-0.027853339910507202,-2.9910430908203125
51,2021-06-09 12:34:56.606469,0.8867871072731549,-3.809956480210328,52.17616378557754,4.34250020980835,39.54333,2.37794,-0.045096348971128464,-0.027853339910507202,-2.9910430908203125
52,2021-06-09 12:34:56.652627,0.8877874861434464,-3.810422079681094,52.16923913817401,4.34375,39.54333,2.37794,-0.044410496950149536,-0.023655764758586884,-2.99050235748291
53,2021-06-09 12:34:56.691602,0.885325109878783,-3.8098206225114546,52.159995011433686,4.34375,39.54333,2.37794,-0.04368361458182335,-0.01986672915518284,-2.9901251792907715
54,2021-06-09 12:34:56.732985,0.8739739191460134,-3.810036634443436,52.15390796704221,4.348750114440918,39.54333,2.37794,-0.04260767623782158,-0.015437598340213299,-2.989511728286743
55,2021-06-09 12:34:56.774884,0.8703948736984731,-3.810283001086674,52.14704136327467,4.348750114440918,39.54333,2.37794,-0.041902486234903336,-0.011549466289579868,-2.989069938659668
56,2021-06-09 12:34:56.846758,0.8697296163498915,-3.8105283668116616,52.14014040309083,4.355000019073486,39.54333,2.37794,-0.04135463759303093,-0.008004214614629745,-2.9887640476226807
57,2021-06-09 12:34:56.891753,0.8723274441689884,-3.8114899587969613,52.134683682312435,4.355000019073486,39.54333,2.37794,-0.04087512195110321,-0.004874764010310173,-2.988572120666504
58,2021-06-09 12:34:56.930959,0.8823956229093254,-3.8118444036835792,52.127825925329866,4.355000019073486,39.54333,2.37794,-0.04068560153245926,-0.002157551934942603,-2.9884755611419678
59,2021-06-09 12:34:56.973728,0.8881716592430472,-3.817324955016786,52.11442119342313,4.336250305175781,39.54333,2.37794,-0.040350280702114105,7.517182432081881e-09,-2.9888315200805664
60,2021-06-09 12:34:57.012074,0.8875558637432951,-3.8181208372092104,52.10940785917129,4.336250305175781,39.54333,2.37794,-0.03978235647082329,0.0021425248123705387,-2.988840341567993
61,2021-06-09 12:34:57.046520,0.8875558637432951,-3.8181208372092104,52.10940785917129,4.34375,39.54333,2.37794,-0.03978235647082329,0.0021425248123705387,-2.988840341567993
62,2021-06-09 12:34:57.089306,0.8886138353219566,-3.8193234379414904,52.10192216247955,4.34375,39.54333,2.37794,-0.03936246037483215,0.0034750571940094233,-2.9894003868103027
63,2021-06-09 12:34:57.131256,0.8890294673312253,-3.8223570748569675,52.090330553488364,4.34375,39.54333,2.37794,-0.039007753133773804,0.004396047908812761,-2.9905037879943848
64,2021-06-09 12:34:57.171438,0.8870608001906878,-3.823287863232433,52.085665967583644,4.347499847412109,39.54333,2.37794,-0.038679156452417374,0.004497635643929243,-2.990786552429199
65,2021-06-09 12:34:57.213162,0.8867802366563348,-3.8247990346543093,52.07804347797062,4.347499847412109,39.54333,2.37794,-0.03841405361890793,0.004209710285067558,-2.9916789531707764
66,2021-06-09 12:34:57.253114,0.888339751967275,-3.8264247474644395,52.070009287596555,4.346250057220459,39.54333,2.37794,-0.03829548880457878,0.003389243269339204,-2.992704391479492
67,2021-06-09 12:34:57.287918,0.888339751967275,-3.8264247474644395,52.070009287596555,4.346250057220459,39.54333,2.37794,-0.03829548880457878,0.003389243269339204,-2.992704391479492
68,2021-06-09 12:34:57.332569,0.8977775944290853,-3.8281799114595536,52.06007345057851,4.34250020980835,39.54333,2.37794,-0.03859657794237137,0.0020908184815198183,-2.9937386512756348
69,2021-06-09 12:34:57.371469,0.9025936394722957,-3.829834879997618,52.05201301895257,4.34250020980835,39.54333,2.37794,-0.03868905454874039,0.00034256669459864497,-2.9948132038116455
70,2021-06-09 12:34:57.456632,0.9035635583845905,-3.8356474504816855,52.03212021708906,4.338749885559082,39.54333,2.37794,-0.03889569267630577,-0.0041450983844697475,-2.997056007385254
71,2021-06-09 12:34:57.488760,0.904129799311141,-3.83590452038452,52.03097649005643,4.338749885559082,39.54333,2.37794,-0.0388403944671154,-0.0038745440542697906,-2.9972832202911377
72,2021-06-09 12:34:57.536548,0.9085944671274923,-3.8377679723369056,52.023357444684585,4.338749885559082,39.54333,2.37794,-0.03928075358271599,-0.006846301257610321,-2.9981656074523926
73,2021-06-09 12:34:57.573716,0.910321297504363,-3.8407219396422767,52.01016588890184,4.333749771118164,39.54333,2.37794,-0.039374541491270065,-0.008486555889248848,-3.0003561973571777
74,2021-06-09 12:34:57.610669,0.9100620030394585,-3.8416555225150963,52.00664172614511,4.333749771118164,39.54333,2.37794,-0.04015665128827095,-0.012936943210661411,-3.000239849090576
75,2021-06-09 12:34:57.651358,0.9106611316232264,-3.843641311416364,51.998461223720355,4.323750019073486,39.54333,2.37794,-0.04071193188428879,-0.01623525470495224,-3.001009702682495
76,2021-06-09 12:34:57.693324,0.9157400830920132,-3.8457549112033758,51.9897400791782,4.323750019073486,39.54333,2.37794,-0.04143822565674782,-0.019355149939656258,-3.001797676086426
77,2021-06-09 12:34:57.726665,0.9157400830920132,-3.8457549112033758,51.9897400791782,4.308750152587891,39.54333,2.37794,-0.04143822565674782,-0.019355149939656258,-3.001797676086426
78,2021-06-09 12:34:57.771979,0.9175643223644061,-3.8420468347101626,51.982484675669504,4.308750152587891,39.54333,2.37794,-0.042123813182115555,-0.022280389443039894,-3.002596378326416
79,2021-06-09 12:34:57.811653,0.9178704566755508,-3.843078220783518,51.97523370349238,4.308750152587891,39.54333,2.37794,-0.042829886078834534,-0.025455594062805176,-3.0028297901153564
80,2021-06-09 12:34:57.853548,0.9196199732240862,-3.8442160756687596,51.967092217546494,4.293749809265137,39.54333,2.37794,-0.04351910203695297,-0.028178883716464043,-3.003082036972046
81,2021-06-09 12:34:57.896693,0.9302966454134113,-3.851125530143827,51.9544980142397,4.293749809265137,39.54333,2.37794,-0.04453238844871521,-0.030607527121901512,-3.0032167434692383
82,2021-06-09 12:34:57.966411,0.935241497858696,-3.8532399446219823,51.94528366499374,4.284999847412109,39.54333,2.37794,-0.04522670432925224,-0.032692134380340576,-3.003162384033203
83,2021-06-09 12:34:58.009957,0.9359983592818641,-3.855333581054762,51.93626333574397,4.284999847412109,39.54333,2.37794,-0.04569684714078903,-0.03446933254599571,-3.002952814102173
84,2021-06-09 12:34:58.053626,0.9369574600174623,-3.8533939187444246,51.93006694972112,4.275000095367432,39.54333,2.37794,-0.04594840481877327,-0.0358283668756485,-3.002626895904541
85,2021-06-09 12:34:58.091928,0.9373807372515874,-3.8548658773652758,51.92168963906551,4.275000095367432,39.54333,2.37794,-0.04620392993092537,-0.03688071668148041,-3.0020945072174072
86,2021-06-09 12:34:58.136447,0.9378472065406305,-3.856410261082237,51.91297717749629,4.275000095367432,39.54333,2.37794,-0.046371109783649445,-0.037535496056079865,-3.001526117324829
87,2021-06-09 12:34:58.167411,0.9378472065406305,-3.856410261082237,51.91297717749629,4.267499923706055,39.54333,2.37794,-0.046371109783649445,-0.037535496056079865,-3.001526117324829
88,2021-06-09 12:34:58.211559,0.9386288200868026,-3.8558684610099827,51.90803715449598,4.267499923706055,39.54333,2.37794,-0.046349938958883286,-0.0378432460129261,-3.0009312629699707
89,2021-06-09 12:34:58.250894,0.9391731774823759,-3.8571048299046833,51.8999568043544,4.257500171661377,39.54333,2.37794,-0.04621759057044983,-0.03771036118268967,-3.000347137451172
90,2021-06-09 12:34:58.292027,0.9397034484659179,-3.858355731793934,51.89184015438108,4.257500171661377,39.54333,2.37794,-0.04595719650387764,-0.03723552078008652,-2.999744176864624
91,2021-06-09 12:34:58.335657,0.9406890168781269,-3.85469502815241,51.88955748881752,4.257500171661377,39.54333,2.37794,-0.04548495635390282,-0.03647245466709137,-2.9992003440856934
92,2021-06-09 12:34:58.372562,0.9412518840686014,-3.8551410948049485,51.88247512904108,4.257500171661377,39.54333,2.37794,-0.045002635568380356,-0.03548315539956093,-2.998713493347168
93,2021-06-09 12:34:58.406419,0.9412518840686014,-3.8551410948049485,51.88247512904108,4.257500171661377,39.54333,2.37794,-0.045002635568380356,-0.03548315539956093,-2.998713493347168
94,2021-06-09 12:34:58.452980,0.9426083700011234,-3.8555719847641914,51.87539823715885,4.261250019073486,39.54333,2.37794,-0.04442991688847542,-0.03425714746117592,-2.998270034790039
95,2021-06-09 12:34:58.532749,0.9597153866725636,-3.8557991575361075,51.86150640034598,4.261250019073486,39.54333,2.37794,-0.043317656964063644,-0.03126240894198418,-2.9977033138275146
96,2021-06-09 12:34:58.574017,0.9611646101656302,-3.856088283584313,51.85447660709551,4.271249771118164,39.54333,2.37794,-0.04245983436703682,-0.029535258188843727,-2.997622489929199
97,2021-06-09 12:34:58.606578,0.9611646101656302,-3.856088283584313,51.85447660709551,4.271249771118164,39.54333,2.37794,-0.04245983436703682,-0.029535258188843727,-2.997622489929199
98,2021-06-09 12:34:58.652771,0.9641705408525705,-3.859683596405321,51.8482194033254,4.28000020980835,39.54333,2.37794,-0.041712336242198944,-0.027942651882767677,-2.9978458881378174
99,2021-06-09 12:34:58.690559,0.9774300299604547,-3.860375124315432,51.84236558423555,4.28000020980835,39.54333,2.37794,-0.04107329994440079,-0.025961825624108315,-2.997950792312622
100,2021-06-09 12:34:58.735724,0.987333905391799,-3.8611595581118463,51.835595019315996,4.28000020980835,39.54333,2.37794,-0.040418971329927444,-0.024193955585360527,-2.99837589263916
101,2021-06-09 12:34:58.779890,0.9888629760631552,-3.8618744922423414,51.82932185768745,4.286250114440918,39.54333,2.37794,-0.039572734385728836,-0.02242775447666645,-2.998889923095703
102,2021-06-09 12:34:58.808893,0.9893914364641594,-3.863381322463214,51.828974371191,4.286250114440918,39.54333,2.37794,-0.03971852362155914,-0.02266453392803669,-2.9991488456726074
103,2021-06-09 12:34:58.849974,0.9892869054700087,-3.8642170508832643,51.82341171307875,4.293749809265137,39.54333,2.37794,-0.03885606676340103,-0.020849961787462234,-2.999730348587036
104,2021-06-09 12:34:58.893085,0.9891473596413458,-3.865081546506621,51.817645824096466,4.293749809265137,39.54333,2.37794,-0.03814660757780075,-0.01925656944513321,-3.000441551208496
105,2021-06-09 12:34:58.936331,0.9896097003636998,-3.867440299072254,51.8048721821802,4.304999828338623,39.54333,2.37794,-0.03767205774784088,-0.018057851120829582,-3.0018107891082764
106,2021-06-09 12:34:58.972441,0.9883848356551873,-3.8682219848223527,51.799978025757895,4.304999828338623,39.54333,2.37794,-0.03708832710981369,-0.016571372747421265,-3.002441883087158
107,2021-06-09 12:34:59.046531,0.9883649809149575,-3.869368862195715,51.7927887013243,4.304999828338623,39.54333,2.37794,-0.03673732280731201,-0.01547575369477272,-3.0036396980285645
108,2021-06-09 12:34:59.090793,0.9931260205084117,-3.868201411675059,51.784686379130534,4.318749904632568,39.54333,2.37794,-0.03666798770427704,-0.014724543318152428,-3.0054283142089844
109,2021-06-09 12:34:59.131251,0.9960356410356429,-3.8686338630521484,51.7803765913578,4.318749904632568,39.54333,2.37794,-0.03650572523474693,-0.013723327778279781,-3.0060455799102783
110,2021-06-09 12:34:59.175040,0.9970265500530098,-3.8693367263030174,51.773213663666624,4.320000171661377,39.54333,2.37794,-0.03638724237680435,-0.013075845316052437,-3.0073163509368896
111,2021-06-09 12:34:59.221862,0.9969241717581344,-3.8699403248751025,51.76700395128285,4.320000171661377,39.54333,2.37794,-0.036272890865802765,-0.012482025660574436,-3.0082859992980957
112,2021-06-09 12:34:59.256427,1.0053299705105467,-3.8693307116082853,51.75630890009101,4.317500114440918,39.54333,2.37794,-0.03642244637012482,-0.012081502005457878,-3.009263038635254
113,2021-06-09 12:34:59.287034,1.0053299705105467,-3.8693307116082853,51.75630890009101,4.317500114440918,39.54333,2.37794,-0.03642244637012482,-0.012081502005457878,-3.009263038635254
114,2021-06-09 12:34:59.332107,1.0123417591640453,-3.86977248223188,51.749059073284265,4.317500114440918,39.54333,2.37794,-0.03652660548686981,-0.011789360083639622,-3.0101044178009033
115,2021-06-09 12:34:59.374562,1.0162293453932318,-3.8740676628405946,51.73770835210187,4.313750267028809,39.54333,2.37794,-0.03653894364833832,-0.01163884811103344,-3.011690855026245
116,2021-06-09 12:34:59.414802,1.0151041641563952,-3.8745567656739524,51.734364954081094,4.313750267028809,39.54333,2.37794,-0.03637728467583656,-0.011510155163705349,-3.011270046234131
117,2021-06-09 12:34:59.455595,1.011181409888263,-3.875603946800463,51.72693751349831,4.309999942779541,39.54333,2.37794,-0.03612913936376572,-0.01151205599308014,-3.011643409729004
118,2021-06-09 12:34:59.487414,1.011181409888263,-3.875603946800463,51.72693751349831,4.309999942779541,39.54333,2.37794,-0.03612913936376572,-0.01151205599308014,-3.011643409729004
119,2021-06-09 12:34:59.569901,1.00713854099553,-3.874574902840237,51.71081163539862,4.307499885559082,39.54333,2.37794,-0.03579089790582657,-0.011725115589797497,-3.011758804321289
120,2021-06-09 12:34:59.610682,1.0066644141093353,-3.8751321710473676,51.70335829414701,4.307499885559082,39.54333,2.37794,-0.035647131502628326,-0.011808662675321102,-3.0116117000579834
121,2021-06-09 12:34:59.653527,1.015006863424234,-3.875695846613546,51.69577395150552,4.305000305175781,39.54333,2.37794,-0.03576582670211792,-0.011876007542014122,-3.0112998485565186
122,2021-06-09 12:34:59.694637,1.02290015126203,-3.8786400995853407,51.6885795588806,4.305000305175781,39.54333,2.37794,-0.03588084131479263,-0.01196599006652832,-3.010803461074829
123,2021-06-09 12:34:59.729770,1.02290015126203,-3.8786400995853407,51.6885795588806,4.305000305175781,39.54333,2.37794,-0.03588084131479263,-0.01196599006652832,-3.010803461074829
124,2021-06-09 12:34:59.773539,1.0242802220268605,-3.879592478476899,51.680989166425334,4.296249866485596,39.54333,2.37794,-0.035715848207473755,-0.011998610571026802,-3.0102272033691406
125,2021-06-09 12:34:59.811755,1.0243205484126103,-3.8805093579259355,51.67377133244022,4.296249866485596,39.54333,2.37794,-0.03551245480775833,-0.01200947631150484,-3.0094974040985107
126,2021-06-09 12:34:59.852856,1.0240294615336825,-3.881541440081321,51.66042773245745,4.286250114440918,39.54333,2.37794,-0.03537971153855324,-0.011976880021393299,-3.0087203979492188
127,2021-06-09 12:34:59.894081,1.02382964093794,-3.8825478364772743,51.65179689155262,4.286250114440918,39.54333,2.37794,-0.03526802361011505,-0.011977134272456169,-3.0079057216644287
128,2021-06-09 12:34:59.932539,1.0235709003607838,-3.8835426345164428,51.643364636343996,4.278749942779541,39.54333,2.37794,-0.03521982207894325,-0.011969206854701042,-3.0070788860321045
129,2021-06-09 12:34:59.966533,1.0235709003607838,-3.8835426345164428,51.643364636343996,4.278749942779541,39.54333,2.37794,-0.03521982207894325,-0.011969206854701042,-3.0070788860321045
130,2021-06-09 12:35:00.013684,1.0234204575968,-3.8846989255281685,51.63345005303516,4.278749942779541,39.54333,2.37794,-0.03524718061089516,-0.011986938305199146,-3.006232976913452
131,2021-06-09 12:35:00.054577,1.0229371408533459,-3.8857389728471814,51.62476944409867,4.276249885559082,39.54333,2.37794,-0.03531442582607269,-0.012012538500130177,-3.005460023880005
132,2021-06-09 12:35:00.096718,1.0225175058898381,-3.8867980468443415,51.61599546350369,4.276249885559082,39.54333,2.37794,-0.035465121269226074,-0.012093174271285534,-3.0047502517700195
133,2021-06-09 12:35:00.166463,1.02212326751871,-3.885118689514814,51.606721792266846,4.273750305175781,39.54333,2.37794,-0.035687513649463654,-0.012279662303626537,-3.004146099090576
134,2021-06-09 12:35:00.212275,1.0219874020475723,-3.885758517382184,51.597600959788124,4.273750305175781,39.54333,2.37794,-0.03596583753824234,-0.012483719736337662,-3.0036773681640625
135,2021-06-09 12:35:00.252039,1.0247408061181082,-3.8863710583995945,51.58882711629649,4.273750305175781,39.54333,2.37794,-0.0364338755607605,-0.012762797996401787,-3.0033066272735596
136,2021-06-09 12:35:00.298284,1.0288885745498204,-3.8884594094115785,51.578630916837874,4.272500038146973,39.54333,2.37794,-0.03698175400495529,-0.013067532330751419,-3.003141403198242
137,2021-06-09 12:35:00.336061,1.0294462453312705,-3.8893148277705754,51.56945513664041,4.272500038146973,39.54333,2.37794,-0.0374198816716671,-0.01349594909697771,-3.0031211376190186
138,2021-06-09 12:35:00.376062,1.029220686701409,-3.890172489793269,51.560212270602655,4.268750190734863,39.54333,2.37794,-0.037890806794166565,-0.014063064940273762,-3.00323224067688
139,2021-06-09 12:35:00.406468,1.029220686701409,-3.890172489793269,51.560212270602655,4.268750190734863,39.54333,2.37794,-0.037890806794166565,-0.014063064940273762,-3.00323224067688
140,2021-06-09 12:35:00.453478,1.0386519120680104,-3.8882614395955266,51.54730580675602,4.266250133514404,39.54333,2.37794,-0.03868190199136734,-0.01472809910774231,-3.003533124923706
141,2021-06-09 12:35:00.494324,1.0517361845391056,-3.8886226530853034,51.53819758898379,4.266250133514404,39.54333,2.37794,-0.03972863405942917,-0.01563505083322525,-3.0038676261901855
142,2021-06-09 12:35:00.532001,1.0550141450844563,-3.888991406245275,51.528409564466195,4.266250133514404,39.54333,2.37794,-0.04029656946659088,-0.016554048284888268,-3.0043582916259766
143,2021-06-09 12:35:00.575794,1.055432687928021,-3.8893490738576206,51.518447940172955,4.266250133514404,39.54333,2.37794,-0.040747299790382385,-0.017545532435178757,-3.004969358444214
144,2021-06-09 12:35:00.606436,1.055432687928021,-3.8893490738576206,51.518447940172955,4.266250133514404,39.54333,2.37794,-0.040747299790382385,-0.017545532435178757,-3.004969358444214
145,2021-06-09 12:35:00.690325,1.048259559784553,-3.8906116081929962,51.50362934137203,4.268750190734863,39.54333,2.37794,-0.04147059842944145,-0.020050782710313797,-3.0063636302948
146,2021-06-09 12:35:00.739457,1.046785698359164,-3.891630407221494,51.49488482426116,4.268750190734863,39.54333,2.37794,-0.04183071106672287,-0.021242979913949966,-3.007416009902954
147,2021-06-09 12:35:00.775100,1.0459381098577505,-3.8920013475585837,51.48796466080891,4.271250247955322,39.54333,2.37794,-0.04248268902301788,-0.0230670478194952,-3.007875919342041
148,2021-06-09 12:35:00.812442,1.0491148160232255,-3.8924453354750077,51.479049147994175,4.271250247955322,39.54333,2.37794,-0.0431131049990654,-0.02469518408179283,-3.008629083633423
149,2021-06-09 12:35:00.846402,1.0491148160232255,-3.8924453354750077,51.479049147994175,4.272500038146973,39.54333,2.37794,-0.0431131049990654,-0.02469518408179283,-3.008629083633423
150,2021-06-09 12:35:00.891978,1.0538465793492058,-3.894409035706705,51.46763367950269,4.272500038146973,39.54333,2.37794,-0.04357020556926727,-0.026093974709510803,-3.009835958480835
151,2021-06-09 12:35:00.931110,1.0548717468430642,-3.894869404148708,51.46160066989633,4.272500038146973,39.54333,2.37794,-0.04415900260210037,-0.028136294335126877,-3.0100762844085693
152,2021-06-09 12:35:00.972917,1.0553659092298495,-3.8955231661185716,51.45248774360941,4.271250247955322,39.54333,2.37794,-0.04450519010424614,-0.02978990226984024,-3.0107319355010986
153,2021-06-09 12:35:01.012748,1.0556386110264662,-3.8961634811274295,51.44342224681948,4.271250247955322,39.54333,2.37794,-0.044792771339416504,-0.03134362772107124,-3.0112860202789307
154,2021-06-09 12:35:01.046576,1.0556386110264662,-3.8961634811274295,51.44342224681948,4.273750305175781,39.54333,2.37794,-0.044792771339416504,-0.03134362772107124,-3.0112860202789307
155,2021-06-09 12:35:01.090108,1.056122034505341,-3.8971559418359587,51.43602916728568,4.273750305175781,39.54333,2.37794,-0.04505085572600365,-0.032780908048152924,-3.0118112564086914
156,2021-06-09 12:35:01.132885,1.056141419704286,-3.8978150533042073,51.42743664242218,4.277500152587891,39.54333,2.37794,-0.04520101845264435,-0.034018855541944504,-3.0121798515319824
157,2021-06-09 12:35:01.211995,1.0564263627472688,-3.898403851475219,51.41175252894865,4.277500152587891,39.54333,2.37794,-0.0453658364713192,-0.035818327218294144,-3.0126891136169434
158,2021-06-09 12:35:01.254972,1.0566815627681907,-3.8989436623121763,51.40315460569242,4.28125,39.54333,2.37794,-0.04536575451493263,-0.036293111741542816,-3.012822151184082
159,2021-06-09 12:35:01.286512,1.0566815627681907,-3.8989436623121763,51.40315460569242,4.28125,39.54333,2.37794,-0.04536575451493263,-0.036293111741542816,-3.012822151184082
160,2021-06-09 12:35:01.333860,1.0578926565676192,-3.8974378599497435,51.38883059017579,4.28125,39.54333,2.37794,-0.045402031391859055,-0.0366721972823143,-3.013546943664551
161,2021-06-09 12:35:01.374509,1.0572310871896327,-3.8975254098125705,51.38454470163273,4.283750057220459,39.54333,2.37794,-0.045162446796894073,-0.03617160767316818,-3.012843132019043
162,2021-06-09 12:35:01.413027,1.0671364424612992,-3.897653612626122,51.375883232682696,4.283750057220459,39.54333,2.37794,-0.045366980135440826,-0.03564674034714699,-3.0126914978027344
163,2021-06-09 12:35:01.458044,1.0878503998691265,-3.8977684932759677,51.367133209691715,4.284999847412109,39.54333,2.37794,-0.04585684463381767,-0.0349443182349205,-3.0124802589416504
164,2021-06-09 12:35:01.486565,1.0878503998691265,-3.8977684932759677,51.367133209691715,4.284999847412109,39.54333,2.37794,-0.04585684463381767,-0.0349443182349205,-3.0124802589416504
165,2021-06-09 12:35:01.531163,1.092262802265053,-3.899842105002565,51.362306770127965,4.286250114440918,39.54333,2.37794,-0.04571943357586861,-0.033954910933971405,-3.012242317199707
166,2021-06-09 12:35:01.573170,1.0935870974350599,-3.9002244240202084,51.35449009283445,4.286250114440918,39.54333,2.37794,-0.04538486525416374,-0.032684821635484695,-3.011883020401001
167,2021-06-09 12:35:01.623973,1.088926807739441,-3.900611501642728,51.34642138376264,4.286250114440918,39.54333,2.37794,-0.04488690197467804,-0.031237168237566948,-3.0115253925323486
168,2021-06-09 12:35:01.667941,1.0792417086971688,-3.894752515265537,51.33002249372834,4.287499904632568,39.54333,2.37794,-0.044178757816553116,-0.02962614968419075,-3.011197805404663
169,2021-06-09 12:35:01.726936,1.0766160626971724,-3.894138569340417,51.32062335828737,4.287499904632568,39.54333,2.37794,-0.043837737292051315,-0.027892732992768288,-3.010854482650757
170,2021-06-09 12:35:01.775400,1.0764894868931516,-3.8934760205621446,51.31092880423463,4.291250228881836,39.54333,2.37794,-0.04362405836582184,-0.026110433042049408,-3.010538101196289
171,2021-06-09 12:35:01.814404,1.081184941788984,-3.892612084123958,51.30346220434503,4.291250228881836,39.54333,2.37794,-0.04361454397439957,-0.024248220026493073,-3.0102336406707764
172,2021-06-09 12:35:01.851550,1.0910212128865981,-3.891893904569944,51.294503896554275,4.291250228881836,39.54333,2.37794,-0.043765924870967865,-0.022329092025756836,-3.0099613666534424
173,2021-06-09 12:35:01.892683,1.093529353339833,-3.891122475157052,51.28529446690249,4.291250228881836,39.54333,2.37794,-0.04364200308918953,-0.020399948582053185,-3.009782075881958
174,2021-06-09 12:35:01.934420,1.0937407669315165,-3.89511922505948,51.281328050050355,4.291250228881836,39.54333,2.37794,-0.04347781464457512,-0.018503358587622643,-3.00962233543396
175,2021-06-09 12:35:01.966460,1.0937407669315165,-3.89511922505948,51.281328050050355,4.288750171661377,39.54333,2.37794,-0.04347781464457512,-0.018503358587622643,-3.00962233543396
176,2021-06-09 12:35:02.012306,1.0962030982395536,-3.8950591235781715,51.27290793766613,4.288750171661377,39.54333,2.37794,-0.04340895265340805,-0.016563115641474724,-3.0095837116241455
177,2021-06-09 12:35:02.056537,1.100826560040759,-3.8949853822035894,51.264478650710906,4.284999847412109,39.54333,2.37794,-0.043436598032712936,-0.014671161770820618,-3.0095982551574707
178,2021-06-09 12:35:02.095926,1.1021767319928526,-3.895317066795299,51.256366491119365,4.284999847412109,39.54333,2.37794,-0.0433490052819252,-0.012879844754934311,-3.0097320079803467
179,2021-06-09 12:35:02.135179,1.102074419370083,-3.8952789289591867,51.24823557142236,4.284999847412109,39.54333,2.37794,-0.04329816624522209,-0.011192414909601212,-3.0098860263824463
180,2021-06-09 12:35:02.167208,1.102074419370083,-3.8952789289591867,51.24823557142236,4.284999847412109,39.54333,2.37794,-0.04329816624522209,-0.011192414909601212,-3.0098860263824463
181,2021-06-09 12:35:02.214377,1.1056047190492617,-3.89522523969629,51.23968713654504,4.284999847412109,39.54333,2.37794,-0.04346125200390816,-0.009718106128275394,-3.0101921558380127
182,2021-06-09 12:35:02.254175,1.1152045814938245,-3.8948580024643213,51.228258443152455,4.28249979019165,39.54333,2.37794,-0.04381444305181503,-0.008460667915642262,-3.0105347633361816
183,2021-06-09 12:35:02.293428,1.1187077627923696,-3.894732056867842,51.219823300255484,4.28249979019165,39.54333,2.37794,-0.044010307639837265,-0.007369661703705788,-3.0108652114868164
184,2021-06-09 12:35:02.336226,1.1193056063658027,-3.8945778736883754,51.210753133343516,4.28249979019165,39.54333,2.37794,-0.04413313791155815,-0.006482129916548729,-3.011338233947754
185,2021-06-09 12:35:02.375279,1.1176385207405988,-3.8944152225940245,51.20200495434373,4.279999732971191,39.54333,2.37794,-0.044228192418813705,-0.005825095344334841,-3.011810064315796
186,2021-06-09 12:35:02.406545,1.1176385207405988,-3.8944152225940245,51.20200495434373,4.279999732971191,39.54333,2.37794,-0.044228192418813705,-0.005825095344334841,-3.011810064315796
187,2021-06-09 12:35:02.453321,1.112778259009506,-3.8997293568114104,51.195925509702114,4.278749942779541,39.54333,2.37794,-0.04428701475262642,-0.005351664498448372,-3.01231050491333
188,2021-06-09 12:35:02.493549,1.1102695596694774,-3.9003569260265927,51.18738273857392,4.278749942779541,39.54333,2.37794,-0.04448715224862099,-0.0051104165613651276,-3.0128591060638428
189,2021-06-09 12:35:02.537084,1.109846003940832,-3.899849536468211,51.17795789375907,4.278749942779541,39.54333,2.37794,-0.044754475355148315,-0.005082088988274336,-3.0135934352874756
190,2021-06-09 12:35:02.574883,1.1123031131922836,-3.9002255526963268,51.170846049183545,4.28000020980835,39.54333,2.37794,-0.04525985196232796,-0.005353901069611311,-3.0139448642730713
191,2021-06-09 12:35:02.606640,1.1123031131922836,-3.9002255526963268,51.170846049183545,4.28000020980835,39.54333,2.37794,-0.04525985196232796,-0.005353901069611311,-3.0139448642730713
192,2021-06-09 12:35:02.649495,1.1203950583592999,-3.9006700617406933,51.162375219318626,4.28125,39.54333,2.37794,-0.04584254324436188,-0.005780416075140238,-3.0145411491394043
193,2021-06-09 12:35:02.692935,1.126256653579446,-3.9039042188792004,51.15169236479866,4.28125,39.54333,2.37794,-0.04623262584209442,-0.006249615922570229,-3.01540470123291
194,2021-06-09 12:35:02.733719,1.1269765835353027,-3.9046328315596224,51.14492000705754,4.282500267028809,39.54333,2.37794,-0.04655132442712784,-0.00708578759804368,-3.0156915187835693
195,2021-06-09 12:35:02.773423,1.1272658860918394,-3.905536266955708,51.13649841193112,4.282500267028809,39.54333,2.37794,-0.04676830396056175,-0.007960687391459942,-3.016247272491455
196,2021-06-09 12:35:02.846492,1.127374900010358,-3.906469995622408,51.12791259489622,4.283750057220459,39.54333,2.37794,-0.046933867037296295,-0.008955461904406548,-3.0168018341064453
197,2021-06-09 12:35:02.893882,1.1271248591830143,-3.914828712668822,51.127208947848914,4.283750057220459,39.54333,2.37794,-0.04721686989068985,-0.010057732462882996,-3.0172719955444336
198,2021-06-09 12:35:02.933343,1.1270602214648844,-3.916918789763256,51.11982697409706,4.283750057220459,39.54333,2.37794,-0.047364503145217896,-0.011228040792047977,-3.0177552700042725
199,2021-06-09 12:35:02.974819,1.1285910201098297,-3.9190114783328713,51.11259694859386,4.282500267028809,39.54333,2.37794,-0.04755061864852905,-0.012432615272700787,-3.0182390213012695
200,2021-06-09 12:35:03.021022,1.1341229527274914,-3.915722790673855,51.099918648800724,4.282500267028809,39.54333,2.37794,-0.04783172532916069,-0.013645312748849392,-3.018711566925049
201,2021-06-09 12:35:03.046728,1.1341229527274914,-3.915722790673855,51.099918648800724,4.282500267028809,39.54333,2.37794,-0.04783172532916069,-0.013645312748849392,-3.018711566925049
202,2021-06-09 12:35:03.089369,1.1358285657866918,-3.9171120814801843,51.09165553188149,4.282500267028809,39.54333,2.37794,-0.04793975129723549,-0.01486644335091114,-3.0191047191619873
203,2021-06-09 12:35:03.131669,1.136603148314129,-3.9197808347983742,51.079886715085784,4.282500267028809,39.54333,2.37794,-0.047963421791791916,-0.015793854370713234,-3.0199992656707764
204,2021-06-09 12:35:03.171589,1.1361251720649133,-3.9206567275425686,51.07534982694746,4.283750057220459,39.54333,2.37794,-0.04805666580796242,-0.01724700629711151,-3.0196645259857178
205,2021-06-09 12:35:03.211500,1.1361145753851767,-3.9221724942608143,51.06733555635395,4.283750057220459,39.54333,2.37794,-0.04808925837278366,-0.018341055139899254,-3.019840955734253
206,2021-06-09 12:35:03.256175,1.1361435066154042,-3.923841337962211,51.058616727069186,4.283750057220459,39.54333,2.37794,-0.04812052100896835,-0.019327381625771523,-3.0200960636138916
207,2021-06-09 12:35:03.286645,1.1361435066154042,-3.923841337962211,51.058616727069186,4.283750057220459,39.54333,2.37794,-0.04812052100896835,-0.019327381625771523,-3.0200960636138916
208,2021-06-09 12:35:03.332753,1.1361811251328064,-3.9216340267489795,51.050234038916436,4.278750419616699,39.54333,2.37794,-0.04817260056734085,-0.020282143726944923,-3.020106792449951
209,2021-06-09 12:35:03.411931,1.154651658531795,-3.923673574819358,51.033910609825625,4.278750419616699,39.54333,2.37794,-0.048935435712337494,-0.02184072881937027,-3.0200841426849365
210,2021-06-09 12:35:03.453832,1.1616572551906623,-3.9248354004870465,51.02577375452489,4.277500152587891,39.54333,2.37794,-0.04920230060815811,-0.022401614114642143,-3.019958257675171
211,2021-06-09 12:35:03.493251,1.1625984654168042,-3.925914328068192,51.01752835828506,4.277500152587891,39.54333,2.37794,-0.0492427758872509,-0.022868838161230087,-3.0197865962982178
212,2021-06-09 12:35:03.526388,1.1625984654168042,-3.925914328068192,51.01752835828506,4.277500152587891,39.54333,2.37794,-0.0492427758872509,-0.022868838161230087,-3.0197865962982178
213,2021-06-09 12:35:03.572465,1.1635060586201,-3.924976695404439,51.003596412280814,4.278749942779541,39.54333,2.37794,-0.04921668767929077,-0.023216938599944115,-3.0202343463897705
214,2021-06-09 12:35:03.610393,1.162480544066457,-3.9252197014603007,51.00096612186389,4.278749942779541,39.54333,2.37794,-0.04938589408993721,-0.023454146459698677,-3.019251585006714
215,2021-06-09 12:35:03.651766,1.162259591628122,-3.925863708369511,50.99283235326356,4.256249904632568,39.54333,2.37794,-0.0495322048664093,-0.023588575422763824,-3.0189733505249023
216,2021-06-09 12:35:03.692529,1.1620119281871493,-3.92651450711414,50.98462496423131,4.256249904632568,39.54333,2.37794,-0.049720652401447296,-0.023601237684488297,-3.0186336040496826
217,2021-06-09 12:35:03.726557,1.1620119281871493,-3.92651450711414,50.98462496423131,4.235000133514404,39.54333,2.37794,-0.049720652401447296,-0.023601237684488297,-3.0186336040496826
218,2021-06-09 12:35:03.772131,1.1642493171525043,-3.9241670219059444,50.973548651059424,4.235000133514404,39.54333,2.37794,-0.04998667165637016,-0.023519763723015785,-3.018364667892456
219,2021-06-09 12:35:03.812389,1.1742404323755886,-3.9243356700294334,50.96507727216517,4.235000133514404,39.54333,2.37794,-0.0505841001868248,-0.023349083960056305,-3.018040418624878
220,2021-06-09 12:35:03.862868,1.1786444752686127,-3.9244996266908285,50.95618047206866,4.215000152587891,39.54333,2.37794,-0.05095430091023445,-0.023147854954004288,-3.0177860260009766
221,2021-06-09 12:35:03.898529,1.1789742027898893,-3.9315741293664566,50.96009368751881,4.215000152587891,39.54333,2.37794,-0.05127965658903122,-0.02288680337369442,-3.017488479614258
222,2021-06-09 12:35:03.966484,1.1788358128019465,-3.932814784661729,50.95353092355957,4.191249847412109,39.54333,2.37794,-0.051579345017671585,-0.022605322301387787,-3.0172853469848633
223,2021-06-09 12:35:04.012112,1.1787340021603463,-3.9340710031247035,50.94700771879831,4.191249847412109,39.54333,2.37794,-0.05191048979759216,-0.022370796650648117,-3.017101764678955
224,2021-06-09 12:35:04.054541,1.1788446718862207,-3.9351283684828275,50.93515969771353,4.192500114440918,39.54333,2.37794,-0.05216103792190552,-0.022143669426441193,-3.016962766647339
225,2021-06-09 12:35:04.094100,1.1784907113384038,-3.9363871168055624,50.92783134064968,4.192500114440918,39.54333,2.37794,-0.052516158670186996,-0.02196674235165119,-3.0169215202331543
226,2021-06-09 12:35:04.135136,1.1784860479866848,-3.937679847644035,50.92040499353556,4.192500114440918,39.54333,2.37794,-0.05290582776069641,-0.021879732608795166,-3.0169458389282227
227,2021-06-09 12:35:04.167559,1.1784860479866848,-3.937679847644035,50.92040499353556,4.196249961853027,39.54333,2.37794,-0.05290582776069641,-0.021879732608795166,-3.0169458389282227
228,2021-06-09 12:35:04.212164,1.1829133366857645,-3.943539379258051,50.9073958906232,4.196249961853027,39.54333,2.37794,-0.05338750779628754,-0.02188454195857048,-3.017056703567505
229,2021-06-09 12:35:04.252414,1.1861231599455946,-3.945650813078153,50.89899938112767,4.196249961853027,39.54333,2.37794,-0.05391582101583481,-0.02203114703297615,-3.017230987548828
230,2021-06-09 12:35:04.291079,1.1865170112341592,-3.947693523394506,50.89101189221337,4.196249961853027,39.54333,2.37794,-0.05439959466457367,-0.022311201319098473,-3.0174002647399902
231,2021-06-09 12:35:04.333095,1.1869151261623156,-3.945916465519026,50.87790862788339,4.196249961853027,39.54333,2.37794,-0.05483759194612503,-0.022685648873448372,-3.0177412033081055
232,2021-06-09 12:35:04.373085,1.1912849187982892,-3.947355831439182,50.86949208389011,4.196249961853027,39.54333,2.37794,-0.05556686222553253,-0.023183202371001244,-3.017993211746216
233,2021-06-09 12:35:04.406477,1.1912849187982892,-3.947355831439182,50.86949208389011,4.196249961853027,39.54333,2.37794,-0.05556686222553253,-0.023183202371001244,-3.017993211746216
234,2021-06-09 12:35:04.492278,1.194552895377817,-3.947174811265036,50.86058757768711,4.196249961853027,39.54333,2.37794,-0.05677415430545807,-0.024381695315241814,-3.018822431564331
235,2021-06-09 12:35:04.531900,1.1939703418713257,-3.9480670775495414,50.85420056544032,4.196249961853027,39.54333,2.37794,-0.057469069957733154,-0.025161638855934143,-3.018975257873535
236,2021-06-09 12:35:04.573523,1.1936999305762903,-3.949093089140967,50.84683211936526,4.196249961853027,39.54333,2.37794,-0.058130208402872086,-0.025934407487511635,-3.0192394256591797
237,2021-06-09 12:35:04.616030,1.1934289029351637,-3.950122231928618,50.839477666155375,4.196249961853027,39.54333,2.37794,-0.05879957601428032,-0.026706332340836525,-3.0195040702819824
238,2021-06-09 12:35:04.646538,1.1934289029351637,-3.950122231928618,50.839477666155375,4.196249961853027,39.54333,2.37794,-0.05879957601428032,-0.026706332340836525,-3.0195040702819824
239,2021-06-09 12:35:04.690984,1.1930412227854057,-3.9651650272021812,50.82098978380551,4.196249961853027,39.54333,2.37794,-0.05959493666887283,-0.027485311031341553,-3.019660234451294
240,2021-06-09 12:35:04.732870,1.1930233747662327,-3.9682155992315513,50.812113429586184,4.196249961853027,39.54333,2.37794,-0.060306794941425323,-0.02822894975543022,-3.0197746753692627
241,2021-06-09 12:35:04.772289,1.1977005355387589,-3.9714039907937217,50.80296426769074,4.196249961853027,39.54333,2.37794,-0.06119585409760475,-0.028971947729587555,-3.0199108123779297
242,2021-06-09 12:35:04.816497,1.201227108785758,-3.9571860068576936,50.805374347307165,4.196249961853027,39.54333,2.37794,-0.061900071799755096,-0.029676534235477448,-3.01996111869812
243,2021-06-09 12:35:04.846461,1.201227108785758,-3.9571860068576936,50.805374347307165,4.235000133514404,39.54333,2.37794,-0.061900071799755096,-0.029676534235477448,-3.01996111869812
244,2021-06-09 12:35:04.892097,1.2019257364018878,-3.9579247378072435,50.7980294190008,4.235000133514404,39.54333,2.37794,-0.0625629872083664,-0.030240323394536972,-3.0200142860412598
245,2021-06-09 12:35:04.931936,1.202955373507162,-3.9650560154391767,50.78079480057695,4.235000133514404,39.54333,2.37794,-0.06302618980407715,-0.030750490725040436,-3.0204765796661377
246,2021-06-09 12:35:04.973318,1.2020422710186354,-3.9661167397713784,50.77541755239379,4.235000133514404,39.54333,2.37794,-0.06370177865028381,-0.030931400135159492,-3.0201480388641357
247,2021-06-09 12:35:05.047954,1.2022828096882456,-3.9677629509118146,50.766996800776354,4.273749828338623,39.54333,2.37794,-0.06419242918491364,-0.03105752356350422,-3.020204782485962
248,2021-06-09 12:35:05.100424,1.2046945021044084,-3.9416687315732264,50.77343207517482,4.273749828338623,39.54333,2.37794,-0.06442959606647491,-0.03128573298454285,-3.020752429962158
249,2021-06-09 12:35:05.132162,1.2048666803448247,-3.9401805969238355,50.77025768325372,4.273749828338623,39.54333,2.37794,-0.06478940695524216,-0.03070937469601631,-3.020430326461792
250,2021-06-09 12:35:05.181317,1.219942395054306,-3.9373009663467187,50.76438874124594,4.336249828338623,39.54333,2.37794,-0.06527380645275116,-0.03026781603693962,-3.0206494331359863
251,2021-06-09 12:35:05.223416,1.2296847241614262,-3.9346261386467227,50.759194517078,4.336249828338623,39.54333,2.37794,-0.06546580791473389,-0.02942315861582756,-3.0208210945129395
252,2021-06-09 12:35:05.271620,1.2313304295159428,-3.9528223170128016,50.75963303675986,4.397500038146973,39.54333,2.37794,-0.06546515971422195,-0.0283232182264328,-3.0211021900177
253,2021-06-09 12:35:05.286479,1.2313304295159428,-3.9528223170128016,50.75963303675986,4.397500038146973,39.54333,2.37794,-0.06546515971422195,-0.0283232182264328,-3.0211021900177
254,2021-06-09 12:35:05.332772,1.2323454620432897,-3.952753567508596,50.754895188794194,4.458749771118164,39.54333,2.37794,-0.06523992121219635,-0.027061477303504944,-3.0214641094207764
255,2021-06-09 12:35:05.372998,1.2285522636401465,-3.952656227291789,50.750551602223055,4.458749771118164,39.54333,2.37794,-0.0648132711648941,-0.025519775226712227,-3.0218310356140137
256,2021-06-09 12:35:05.412485,1.2248282522829181,-3.9391295670917916,50.72706768549808,4.458749771118164,39.54333,2.37794,-0.06438817083835602,-0.023837603628635406,-3.022219657897949
257,2021-06-09 12:35:05.453841,1.2242262062859,-3.9371087209610045,50.72005904819811,4.458749771118164,39.54333,2.37794,-0.06381471455097198,-0.021963324397802353,-3.022688865661621
258,2021-06-09 12:35:05.526417,1.2244886256233751,-3.935000972560482,50.713002622044385,4.458749771118164,39.54333,2.37794,-0.06317202001810074,-0.019961342215538025,-3.0231311321258545
259,2021-06-09 12:35:05.570766,1.2288589936835783,-3.932831219845627,50.70597502134427,4.458749771118164,39.54333,2.37794,-0.06260353326797485,-0.017891263589262962,-3.0236380100250244
260,2021-06-09 12:35:05.611066,1.2330657220872594,-3.9306058700239803,50.699005112989774,4.458749771118164,39.54333,2.37794,-0.0619392953813076,-0.015717413276433945,-3.0241312980651855
261,2021-06-09 12:35:05.651864,1.234191934234532,-3.9283195700795535,50.692076066658736,4.522500038146973,39.54333,2.37794,-0.06118226796388626,-0.01346292532980442,-3.024648666381836
262,2021-06-09 12:35:05.693990,1.2335288792234467,-3.9317866467776206,50.67112728927448,4.522500038146973,39.54333,2.37794,-0.0605890192091465,-0.01129938568919897,-3.0250916481018066
263,2021-06-09 12:35:05.726560,1.2335288792234467,-3.9317866467776206,50.67112728927448,4.522500038146973,39.54333,2.37794,-0.0605890192091465,-0.01129938568919897,-3.0250916481018066
264,2021-06-09 12:35:05.773513,1.2334577540623308,-3.93008375825451,50.66227496589453,4.561249732971191,39.54333,2.37794,-0.059884943068027496,-0.009120040573179722,-3.025569438934326
265,2021-06-09 12:35:05.810298,1.2333355012095952,-3.928341898890784,50.65339986796427,4.561249732971191,39.54333,2.37794,-0.05923487991094589,-0.006976694334298372,-3.026031732559204
266,2021-06-09 12:35:05.851823,1.2333632024180585,-3.903717482608082,50.61337213495612,4.599999904632568,39.54333,2.37794,-0.05857458710670471,-0.004851263482123613,-3.0263593196868896
267,2021-06-09 12:35:05.894096,1.2330288902275233,-3.899082900984926,50.60068860870291,4.599999904632568,39.54333,2.37794,-0.058078065514564514,-0.002961798571050167,-3.026735782623291
268,2021-06-09 12:35:05.932891,1.236785299312754,-3.894229033243915,50.58758148710561,4.599999904632568,39.54333,2.37794,-0.057905375957489014,-0.0012788884341716766,-3.027069091796875
269,2021-06-09 12:35:05.993461,1.2395026884448666,-3.8578846128438653,50.59366364346436,4.599999904632568,39.54333,2.37794,-0.05807223916053772,0.0001604392018634826,-3.027383327484131
270,2021-06-09 12:35:06.006416,1.2395026884448666,-3.8578846128438653,50.59366364346436,4.599999904632568,39.54333,2.37794,-0.05807223916053772,0.0001604392018634826,-3.027383327484131
271,2021-06-09 12:35:06.059660,1.2394158952723757,-3.8492167371162007,50.583185572363554,4.599999904632568,39.54333,2.37794,-0.05795188620686531,0.001585128833539784,-3.027632236480713
272,2021-06-09 12:35:06.136117,1.2423813622871525,-3.884673221181976,50.57510387519489,4.599999904632568,39.54333,2.37794,-0.0583772175014019,0.0035481289960443974,-3.0281472206115723
273,2021-06-09 12:35:06.176228,1.2457320303346093,-3.882110789221719,50.566090599060146,4.599999904632568,39.54333,2.37794,-0.05888641998171806,0.004186789505183697,-3.0283403396606445
274,2021-06-09 12:35:06.206435,1.2457320303346093,-3.882110789221719,50.566090599060146,4.599999904632568,39.54333,2.37794,-0.05888641998171806,0.004186789505183697,-3.0283403396606445
275,2021-06-09 12:35:06.258762,1.2453562737610069,-3.879424422489194,50.55678423736374,4.599999904632568,39.54333,2.37794,-0.059385813772678375,0.004703614395111799,-3.0285632610321045
276,2021-06-09 12:35:06.296558,1.245404730002893,-3.8718380388730713,50.59953946377189,4.599999904632568,39.54333,2.37794,-0.05990759655833244,0.005026089958846569,-3.028862714767456
277,2021-06-09 12:35:06.335083,1.2481552550907844,-3.8687997798566385,50.59737280364226,4.599999904632568,39.54333,2.37794,-0.06072734296321869,0.0051870099268853664,-3.0289485454559326
278,2021-06-09 12:35:06.366514,1.2481552550907844,-3.8687997798566385,50.59737280364226,4.599999904632568,39.54333,2.37794,-0.06072734296321869,0.0051870099268853664,-3.0289485454559326
279,2021-06-09 12:35:06.413152,1.2503845285054926,-3.86517214997166,50.59499682762914,4.599999904632568,39.54333,2.37794,-0.06157354265451431,0.005140737630426884,-3.0292205810546875
280,2021-06-09 12:35:06.454272,1.252664619264304,-3.891128793638949,50.57734069102813,4.599999904632568,39.54333,2.37794,-0.062370963394641876,0.005083009600639343,-3.0295112133026123
281,2021-06-09 12:35:06.494433,1.252656451555542,-3.891454303670616,50.57386647196109,4.599999904632568,39.54333,2.37794,-0.0634375587105751,0.004784056451171637,-3.0296735763549805
282,2021-06-09 12:35:06.534531,1.2555690160365174,-3.89184849491336,50.57003584961768,4.599999904632568,39.54333,2.37794,-0.06450454145669937,0.004360387101769447,-3.0299689769744873
283,2021-06-09 12:35:06.577742,1.2598818550899686,-3.892282622019607,50.5662477264145,4.599999904632568,39.54333,2.37794,-0.06559859961271286,0.0038295695558190346,-3.0303449630737305
284,2021-06-09 12:35:06.646490,1.260435024809998,-3.8927444566632152,50.562608200362774,4.599999904632568,39.54333,2.37794,-0.06662088632583618,0.0031722760759294033,-3.0307915210723877
285,2021-06-09 12:35:06.692214,1.260259095179371,-3.893249841571762,50.559004310454206,4.599999904632568,39.54333,2.37794,-0.06761913001537323,0.002451513893902302,-3.031303882598877
286,2021-06-09 12:35:06.737379,1.2649017738272927,-3.8746898664844305,50.510062383205494,4.599999904632568,39.54333,2.37794,-0.06829306483268738,0.0018751766765490174,-3.032270669937134
287,2021-06-09 12:35:06.776372,1.2686019710514864,-3.8734386454114142,50.50392375391794,4.599999904632568,39.54333,2.37794,-0.06955549120903015,0.0007975705084390938,-3.0324509143829346
288,2021-06-09 12:35:06.818711,1.2694999245086642,-3.8716167747015406,50.49507881385949,4.599999904632568,39.54333,2.37794,-0.07043585181236267,-0.00014922367699909955,-3.0330886840820312
289,2021-06-09 12:35:06.846575,1.2694999245086642,-3.8716167747015406,50.49507881385949,4.599999904632568,39.54333,2.37794,-0.07043585181236267,-0.00014922367699909955,-3.0330886840820312
290,2021-06-09 12:35:06.894293,1.2716925427831411,-3.88455469796709,50.471383656018034,4.599999904632568,39.54333,2.37794,-0.07087656110525131,-0.0009233974851667881,-3.0342071056365967
291,2021-06-09 12:35:06.931839,1.2795553659845933,-3.8845768118518036,50.46460590559478,4.599999904632568,39.54333,2.37794,-0.07224736362695694,-0.00250845099799335,-3.034346103668213
292,2021-06-09 12:35:06.974395,1.2938414964638323,-3.884619409701279,50.454437015725624,4.599999904632568,39.54333,2.37794,-0.07343550026416779,-0.003871078137308359,-3.0348916053771973
293,2021-06-09 12:35:07.018900,1.2969044188837136,-3.8846990540747415,50.44404972969362,4.599999904632568,39.54333,2.37794,-0.07403919845819473,-0.00520152086392045,-3.0353636741638184
294,2021-06-09 12:35:07.046992,1.2969044188837136,-3.8846990540747415,50.44404972969362,4.599999904632568,39.54333,2.37794,-0.07403919845819473,-0.00520152086392045,-3.0353636741638184
295,2021-06-09 12:35:07.093610,1.2976715611945762,-3.8990015054299354,50.41091749290169,4.599999904632568,39.54333,2.37794,-0.07453709840774536,-0.0066331797279417515,-3.0358002185821533
296,2021-06-09 12:35:07.130475,1.3074686904478487,-3.900881206436882,50.39759926434699,4.599999904632568,39.54333,2.37794,-0.07543083280324936,-0.008146144449710846,-3.03613018989563
297,2021-06-09 12:35:07.213800,1.3260226657809737,-3.882130816251369,50.37327792552133,4.599999904632568,39.54333,2.37794,-0.07608659565448761,-0.010860948823392391,-3.036503314971924
298,2021-06-09 12:35:07.255163,1.326996161120592,-3.881372606608918,50.360145123385315,4.599999904632568,39.54333,2.37794,-0.07601692527532578,-0.012042578309774399,-3.0365543365478516
299,2021-06-09 12:35:07.286450,1.326996161120592,-3.881372606608918,50.360145123385315,4.599999904632568,39.54333,2.37794,-0.07601692527532578,-0.012042578309774399,-3.0365543365478516
300,2021-06-09 12:35:07.331565,1.3330992646569573,-3.8804053237627922,50.345346913368225,4.599999904632568,39.54333,2.37794,-0.07572027295827866,-0.012752250768244267,-3.0373077392578125
301,2021-06-09 12:35:07.371690,1.3285626406030482,-3.880165711001398,50.3399457248649,4.599999904632568,39.54333,2.37794,-0.07559987902641296,-0.013793082907795906,-3.0364952087402344
302,2021-06-09 12:35:07.413669,1.328519827883108,-3.8794701023004374,50.327224364842344,4.599999904632568,39.54333,2.37794,-0.07539721578359604,-0.014513099566102028,-3.0363290309906006
303,2021-06-09 12:35:07.454006,1.3285499590380105,-3.8787950443591477,50.31464289010668,4.599999904632568,39.54333,2.37794,-0.07518091797828674,-0.0151307238265872,-3.036036729812622
304,2021-06-09 12:35:07.499054,1.335719041077653,-3.8725751146750103,50.31428309681457,4.599999904632568,39.54333,2.37794,-0.07533150911331177,-0.01564745046198368,-3.0356791019439697
305,2021-06-09 12:35:07.526495,1.335719041077653,-3.8725751146750103,50.31428309681457,4.599999904632568,39.54333,2.37794,-0.07533150911331177,-0.01564745046198368,-3.0356791019439697
306,2021-06-09 12:35:07.572435,1.35001538956086,-3.871136508194441,50.302929549716296,4.599999904632568,39.54333,2.37794,-0.07567232102155685,-0.015971126034855843,-3.0352365970611572
307,2021-06-09 12:35:07.613266,1.3553484534144142,-3.8696719058169617,50.29144077664786,4.599999904632568,39.54333,2.37794,-0.07548901438713074,-0.01601709984242916,-3.0347321033477783
308,2021-06-09 12:35:07.655241,1.355321721540247,-3.905164218734722,50.28388837790138,4.599999904632568,39.54333,2.37794,-0.07553860545158386,-0.016041314229369164,-3.0341715812683105
309,2021-06-09 12:35:07.695621,1.3602442718351515,-3.9086720671024215,50.27287318081503,4.599999904632568,39.54333,2.37794,-0.07542329281568527,-0.015952320769429207,-3.0335564613342285
310,2021-06-09 12:35:07.726523,1.3602442718351515,-3.9086720671024215,50.27287318081503,4.599999904632568,39.54333,2.37794,-0.07542329281568527,-0.015952320769429207,-3.0335564613342285
311,2021-06-09 12:35:07.811568,1.3730518574010606,-3.9063111176785426,50.262944528080176,4.599999904632568,39.54333,2.37794,-0.0750647708773613,-0.015275461599230766,-3.0321474075317383
312,2021-06-09 12:35:07.853238,1.37441264828845,-3.9087538961388244,50.25355806099603,4.599999904632568,39.54333,2.37794,-0.07467008382081985,-0.014611770398914814,-3.0314736366271973
313,2021-06-09 12:35:07.892118,1.3745788104056447,-3.911282447490327,50.24408322173024,4.599999904632568,39.54333,2.37794,-0.07428103685379028,-0.013863765634596348,-3.0308241844177246
314,2021-06-09 12:35:07.933842,1.3737261614913432,-3.931169335935244,50.208331601882655,4.599999904632568,39.54333,2.37794,-0.07416141778230667,-0.013029227964580059,-3.0302047729492188
315,2021-06-09 12:35:07.966414,1.3737261614913432,-3.931169335935244,50.208331601882655,4.599999904632568,39.54333,2.37794,-0.07416141778230667,-0.013029227964580059,-3.0302047729492188
316,2021-06-09 12:35:08.010481,1.3742679860743108,-3.9363283189573615,50.19502278475252,4.599999904632568,39.54333,2.37794,-0.07380633056163788,-0.012136646546423435,-3.029653549194336
317,2021-06-09 12:35:08.057119,1.373845622178123,-3.941508876286472,50.18192122983676,4.599999904632568,39.54333,2.37794,-0.07342405617237091,-0.011247921735048294,-3.0291688442230225
318,2021-06-09 12:35:08.093061,1.37958352545748,-3.9725445355971125,50.16246042784585,4.599999904632568,39.54333,2.37794,-0.07298299670219421,-0.01035445649176836,-3.028820753097534
319,2021-06-09 12:35:08.132892,1.3897102810891724,-3.9814756423073034,50.148534582803,4.599999904632568,39.54333,2.37794,-0.07319997251033783,-0.009314002469182014,-3.02858829498291
320,2021-06-09 12:35:08.174089,1.3921109526860114,-3.9908153050825326,50.13419607630929,4.599999904632568,39.54333,2.37794,-0.07290004193782806,-0.00856337696313858,-3.0285234451293945
321,2021-06-09 12:35:08.206394,1.3921109526860114,-3.9908153050825326,50.13419607630929,4.599999904632568,39.54333,2.37794,-0.07290004193782806,-0.00856337696313858,-3.0285234451293945
322,2021-06-09 12:35:08.251043,1.3904698879278294,-4.041887671431096,50.08732846997358,4.599999904632568,39.54333,2.37794,-0.07353871315717697,-0.007662603631615639,-3.028613567352295
323,2021-06-09 12:35:08.293293,1.3949195572501938,-4.056812179281442,50.06911658904896,4.599999904632568,39.54333,2.37794,-0.07377291470766068,-0.006905302871018648,-3.028806447982788
324,2021-06-09 12:35:08.372389,1.4070723200186044,-4.08901236221189,50.030487963603925,4.599999904632568,39.54333,2.37794,-0.07445798069238663,-0.0058763534761965275,-3.0294835567474365
