,a_nav_status_t,nav_status_D,nav_status_E,nav_status_N,nav_status_alt,nav_status_origin_lat,nav_status_origin_lon,nav_status_pitch,nav_status_roll,nav_status_yaw
0,2021-07-21 12:59:13.152545,0.5701924839909995,-35.371217639264614,-20.03470005492071,12.119912147521973,39.54333,2.37794,0.09682045131921768,-0.07939132302999496,1.6635884046554565
1,2021-07-21 12:59:13.192709,0.5701141851543646,-35.367836952724254,-20.031087232896848,11.844388961791992,39.54333,2.37794,0.09752839058637619,-0.07239705324172974,1.6581007242202759
2,2021-07-21 12:59:13.233766,0.5698614558296892,-35.371609907413614,-20.034154042974414,11.924088478088379,39.54333,2.37794,0.09790131449699402,-0.06597661226987839,1.6524046659469604
3,2021-07-21 12:59:13.315344,0.5693272568218687,-35.36630330678558,-20.02821863368804,11.924088478088379,39.54333,2.37794,0.09770439565181732,-0.055326834321022034,1.6410213708877563
4,2021-07-21 12:59:13.355262,0.5759883363776483,-35.36370854408493,-20.0252875946796,11.903138160705566,39.54333,2.37794,0.09843325614929199,-0.051012661308050156,1.6337403059005737
5,2021-07-21 12:59:13.388288,0.5871055636931743,-35.36901740490232,-20.030924145253888,11.733814239501953,39.54333,2.37794,0.09751047939062119,-0.04792889580130577,1.6294081211090088
6,2021-07-21 12:59:13.428916,0.5933654121819242,-35.36725974028298,-20.028914269860643,11.733814239501953,39.54333,2.37794,0.09663597494363785,-0.04455779120326042,1.6236666440963745
7,2021-07-21 12:59:13.469833,0.594341363621117,-35.36549600294363,-20.026877904743326,11.733814239501953,39.54333,2.37794,0.09566529840230942,-0.041795991361141205,1.6177326440811157
8,2021-07-21 12:59:13.510232,0.5941462492390465,-35.363765681191666,-20.024866808946275,11.733814239501953,39.54333,2.37794,0.09451062977313995,-0.039744287729263306,1.6119118928909302
9,2021-07-21 12:59:13.552409,0.5986848330310933,-35.361969151629445,-20.02277713960457,11.713005065917969,39.54333,2.37794,0.09324688464403152,-0.03815145418047905,1.6057721376419067
10,2021-07-21 12:59:13.591475,0.6069097697291828,-35.36727886527087,-20.025521561777804,11.795592308044434,39.54333,2.37794,0.09344540536403656,-0.034946098923683167,1.5987240076065063
11,2021-07-21 12:59:13.631868,0.6095800321854171,-35.36637866249391,-20.024110535783578,11.795592308044434,39.54333,2.37794,0.09196998178958893,-0.03436972573399544,1.593009352684021
12,2021-07-21 12:59:13.672976,0.6097851376981135,-35.36548152020277,-20.022696115087612,11.795592308044434,39.54333,2.37794,0.09044061601161957,-0.034328773617744446,1.5872780084609985
13,2021-07-21 12:59:13.713690,0.6093811802939785,-35.36461285326247,-20.02132118912157,11.776188850402832,39.54333,2.37794,0.08888246864080429,-0.03481278941035271,1.5817463397979736
14,2021-07-21 12:59:13.753739,0.6117446679152956,-35.370692928093305,-20.02383003044344,11.776188850402832,39.54333,2.37794,0.08730300515890121,-0.03578818961977959,1.576447606086731
15,2021-07-21 12:59:13.834805,0.6163143750501678,-35.37072367923567,-20.02210976520862,11.59814739227295,39.54333,2.37794,0.08555292338132858,-0.035100024193525314,1.564279556274414
16,2021-07-21 12:59:13.868178,0.616157192986352,-35.37078580605639,-20.02151262392289,11.587973594665527,39.54333,2.37794,0.08399084955453873,-0.03732383996248245,1.5605049133300781
17,2021-07-21 12:59:13.908518,0.615765301434469,-35.37087991055653,-20.02080333936509,11.587973594665527,39.54333,2.37794,0.0824584886431694,-0.03955790400505066,1.5557576417922974
18,2021-07-21 12:59:13.949316,0.6181920978806784,-35.374551231244254,-20.017442805017154,11.308279991149902,39.54333,2.37794,0.08098474144935608,-0.04223232716321945,1.5510997772216797
19,2021-07-21 12:59:13.993043,0.6224140999688201,-35.37517121087096,-20.016403631327282,11.432779312133789,39.54333,2.37794,0.07963696122169495,-0.04518868029117584,1.5461698770523071
20,2021-07-21 12:59:14.030514,0.6230261211003865,-35.37573099124266,-20.015456554738872,11.432779312133789,39.54333,2.37794,0.07924564927816391,-0.04431939125061035,1.5401482582092285
21,2021-07-21 12:59:14.071164,0.622977147194368,-35.37637732723671,-20.01457281871597,11.42479133605957,39.54333,2.37794,0.07802518457174301,-0.04800207167863846,1.5358589887619019
22,2021-07-21 12:59:14.111586,0.6236869021066774,-35.376715673619934,-20.011579197394322,11.526327133178711,39.54333,2.37794,0.07698781043291092,-0.052090175449848175,1.5316721200942993
23,2021-07-21 12:59:14.152140,0.6390435005131163,-35.377379100870094,-20.010469105937247,11.526327133178711,39.54333,2.37794,0.07616432756185532,-0.05654637888073921,1.5273852348327637
24,2021-07-21 12:59:14.192701,0.6540828379115511,-35.3780699276985,-20.009384858624912,11.526327133178711,39.54333,2.37794,0.07552918046712875,-0.06128395348787308,1.5230472087860107
25,2021-07-21 12:59:14.233462,0.6575685406481616,-35.37881181264677,-20.00825238511084,11.520416259765625,39.54333,2.37794,0.07505641132593155,-0.061544228345155716,1.5167585611343384
26,2021-07-21 12:59:14.274569,0.6583273672279202,-35.37958249908549,-20.007236147613565,11.520416259765625,39.54333,2.37794,0.07456304877996445,-0.06678047776222229,1.5121994018554688
27,2021-07-21 12:59:14.347710,0.6617570079383346,-35.379691819359444,-20.000431245444776,11.387462615966797,39.54333,2.37794,0.07435488700866699,-0.0777478739619255,1.5038901567459106
28,2021-07-21 12:59:14.395678,0.6666666641712553,-35.38053049080309,-19.9986525537888,11.387462615966797,39.54333,2.37794,0.07446766644716263,-0.08373063802719116,1.4977272748947144
29,2021-07-21 12:59:14.430524,0.6676873376623653,-35.38116010747023,-19.9973998956563,11.387462615966797,39.54333,2.37794,0.07487261295318604,-0.08916974067687988,1.4933451414108276
30,2021-07-21 12:59:14.469092,0.6681131702732211,-35.38190707932731,-19.995963187295715,11.382232666015625,39.54333,2.37794,0.07456439733505249,-0.09068883210420609,1.4872907400131226
31,2021-07-21 12:59:14.509318,0.6691761673347418,-35.37774559249222,-19.990108475689894,11.382232666015625,39.54333,2.37794,0.07517707347869873,-0.0963747575879097,1.4818681478500366
32,2021-07-21 12:59:14.550769,0.6773515996832327,-35.37800581846189,-19.988125609339047,11.294204711914062,39.54333,2.37794,0.07595322281122208,-0.10189380496740341,1.4760602712631226
33,2021-07-21 12:59:14.591201,0.6852741430003904,-35.37827778181479,-19.986198701295717,11.294204711914062,39.54333,2.37794,0.07687880098819733,-0.10705394297838211,1.470275640487671
34,2021-07-21 12:59:14.631284,0.6873849581312472,-35.37856720724273,-19.984304884767738,11.457345008850098,39.54333,2.37794,0.0779276043176651,-0.11169932037591934,1.4643871784210205
35,2021-07-21 12:59:14.674780,0.688412622160022,-35.37642653609538,-19.97820599965875,11.457345008850098,39.54333,2.37794,0.07905886322259903,-0.11613438278436661,1.4578598737716675
36,2021-07-21 12:59:14.713097,0.6905067906187482,-35.37648853472408,-19.975913146681318,11.457345008850098,39.54333,2.37794,0.0790339857339859,-0.11819060146808624,1.4515020847320557
37,2021-07-21 12:59:14.745101,0.6976367283799837,-35.37652572116381,-19.974030372466952,11.457345008850098,39.54333,2.37794,0.08031782507896423,-0.12147767096757889,1.4467657804489136
38,2021-07-21 12:59:14.834463,0.7082460313922528,-35.376702057622666,-19.968726902287152,11.449275016784668,39.54333,2.37794,0.08329147845506668,-0.12725971639156342,1.4330910444259644
39,2021-07-21 12:59:14.875204,0.7091878936689464,-35.37645572620009,-19.96274772316876,11.58376693725586,39.54333,2.37794,0.08493642508983612,-0.1288152039051056,1.4270622730255127
40,2021-07-21 12:59:14.915821,0.7097191227682604,-35.376567445132,-19.959897069341707,11.58376693725586,39.54333,2.37794,0.08520626276731491,-0.13060826063156128,1.4201381206512451
41,2021-07-21 12:59:14.949429,0.7103780085355961,-35.376642431446584,-19.957541597515274,11.33801555633545,39.54333,2.37794,0.08694761991500854,-0.1311727613210678,1.4153532981872559
42,2021-07-21 12:59:14.989259,0.7110133697881372,-35.37675440089204,-19.954723777659588,11.33801555633545,39.54333,2.37794,0.0888361930847168,-0.13118591904640198,1.4096324443817139
43,2021-07-21 12:59:15.029546,0.7118596615937706,-35.375784648746134,-19.951310874234306,11.33801555633545,39.54333,2.37794,0.09078821539878845,-0.1304176300764084,1.4039890766143799
44,2021-07-21 12:59:15.071344,0.7125195335600193,-35.37579085121943,-19.94823771742757,11.499528884887695,39.54333,2.37794,0.09295784682035446,-0.12877392768859863,1.3983585834503174
45,2021-07-21 12:59:15.112588,0.7192533614674252,-35.37581557536048,-19.945169566123116,11.490574836730957,39.54333,2.37794,0.095116525888443,-0.12664736807346344,1.3929977416992188
46,2021-07-21 12:59:15.151910,0.7389502047211267,-35.37588944382315,-19.94223786244534,11.490574836730957,39.54333,2.37794,0.09579438716173172,-0.12741269171237946,1.3864045143127441
47,2021-07-21 12:59:15.193199,0.7488458850460156,-35.37593839671929,-19.939109586340404,11.490574836730957,39.54333,2.37794,0.09808855503797531,-0.12442358583211899,1.3813835382461548
48,2021-07-21 12:59:15.233308,0.7516313281184167,-35.37513062905658,-19.934615599149254,11.62216854095459,39.54333,2.37794,0.10038900375366211,-0.12094533443450928,1.376833200454712
49,2021-07-21 12:59:15.274652,0.7527909921951137,-35.3750962518425,-19.931236592026387,11.62216854095459,39.54333,2.37794,0.10270968824625015,-0.11719748377799988,1.3724497556686401
50,2021-07-21 12:59:15.315236,0.755058281934217,-35.37507477459944,-19.927878501935933,11.365063667297363,39.54333,2.37794,0.1049523875117302,-0.11342737823724747,1.368459701538086
51,2021-07-21 12:59:15.395602,0.7633512535865152,-35.37506523719599,-19.922558796044658,11.498954772949219,39.54333,2.37794,0.10824877768754959,-0.10899844765663147,1.358686089515686
52,2021-07-21 12:59:15.429809,0.7644994449053065,-35.375055204218825,-19.919773055394472,11.498954772949219,39.54333,2.37794,0.11021295934915543,-0.10542689263820648,1.3562932014465332
53,2021-07-21 12:59:15.469117,0.7651675852564097,-35.375058980967836,-19.916553628539543,11.498954772949219,39.54333,2.37794,0.11221874505281448,-0.10216016322374344,1.3533682823181152
54,2021-07-21 12:59:15.509124,0.7687375827710281,-35.37507469782918,-19.913255673746445,11.498954772949219,39.54333,2.37794,0.11413732171058655,-0.09919363260269165,1.3504537343978882
55,2021-07-21 12:59:15.553322,0.7789470962822163,-35.375104860558565,-19.909600979972502,11.241244316101074,39.54333,2.37794,0.11608625948429108,-0.0966874361038208,1.3471640348434448
56,2021-07-21 12:59:15.591027,0.7838769573569292,-35.37174719700821,-19.91000301111736,11.377469062805176,39.54333,2.37794,0.1173083633184433,-0.09572066366672516,1.3419691324234009
57,2021-07-21 12:59:15.631302,0.7854026765803299,-35.37137279697168,-19.90701984079253,11.377469062805176,39.54333,2.37794,0.11915281414985657,-0.09365125745534897,1.3393856287002563
58,2021-07-21 12:59:15.671495,0.7861649165874862,-35.370998723666915,-19.904028703583492,11.377469062805176,39.54333,2.37794,0.1209537535905838,-0.09188082069158554,1.336861252784729
59,2021-07-21 12:59:15.712344,0.7914086986148079,-35.37061751409454,-19.900985638821194,11.11599063873291,39.54333,2.37794,0.1226716861128807,-0.09067758917808533,1.334430456161499
60,2021-07-21 12:59:15.753132,0.8012868516072837,-35.36981125620118,-19.90004623276584,11.11599063873291,39.54333,2.37794,0.12432978302240372,-0.08999541401863098,1.3319941759109497
61,2021-07-21 12:59:15.793722,0.8050150690062877,-35.369422877258046,-19.897270085503656,11.27582836151123,39.54333,2.37794,0.12570615112781525,-0.08918765187263489,1.3268992900848389
62,2021-07-21 12:59:15.875496,0.8068371281497896,-35.36852004233591,-19.891645064566344,11.26359748840332,39.54333,2.37794,0.12872900068759918,-0.08945367485284805,1.3219960927963257
63,2021-07-21 12:59:15.916052,0.8137220543599725,-35.36806747578086,-19.888866644348077,11.26359748840332,39.54333,2.37794,0.12997451424598694,-0.09050001949071884,1.3194109201431274
64,2021-07-21 12:59:15.948260,0.8215755362982394,-35.365097781451816,-19.888351813239357,11.01243782043457,39.54333,2.37794,0.13086892664432526,-0.09197372943162918,1.3176993131637573
65,2021-07-21 12:59:15.990294,0.8253129488580934,-35.36429428264026,-19.885686338025526,11.19714069366455,39.54333,2.37794,0.1320173591375351,-0.09352665394544601,1.3146342039108276
66,2021-07-21 12:59:16.029845,0.8262444315817329,-35.36356976943574,-19.883149007216577,11.19714069366455,39.54333,2.37794,0.13325661420822144,-0.09352266043424606,1.3098996877670288
67,2021-07-21 12:59:16.069618,0.8266382450394488,-35.36278697568324,-19.88063268604935,11.182044982910156,39.54333,2.37794,0.13418631255626678,-0.09537001699209213,1.307037353515625
68,2021-07-21 12:59:16.110633,0.8332509474936448,-35.36682515166248,-19.879146588973363,10.929314613342285,39.54333,2.37794,0.13503320515155792,-0.0973549410700798,1.3037731647491455
69,2021-07-21 12:59:16.151289,0.8421675876570349,-35.36661519225313,-19.876710992530477,10.929314613342285,39.54333,2.37794,0.13577236235141754,-0.09933865070343018,1.3003854751586914
70,2021-07-21 12:59:16.191838,0.8447874579040409,-35.36640857321785,-19.87428506304762,10.91712760925293,39.54333,2.37794,0.13649824261665344,-0.10131984204053879,1.29684579372406
71,2021-07-21 12:59:16.233939,0.8456194703634153,-35.366202856137875,-19.87176897405301,10.91712760925293,39.54333,2.37794,0.1371801346540451,-0.1032981425523758,1.2929552793502808
72,2021-07-21 12:59:16.273341,0.8457639156166089,-35.366046752618914,-19.86938322682844,10.91712760925293,39.54333,2.37794,0.13818781077861786,-0.10386033356189728,1.288106918334961
73,2021-07-21 12:59:16.314448,0.8559479727049228,-35.36078651797603,-19.870609734129214,10.906822204589844,39.54333,2.37794,0.1387327015399933,-0.10602419078350067,1.2841750383377075
74,2021-07-21 12:59:16.395182,0.8728654310976989,-35.35925266001661,-19.866668841059578,10.892827033996582,39.54333,2.37794,0.13962480425834656,-0.11014055460691452,1.2761592864990234
75,2021-07-21 12:59:16.429816,0.8738371384591085,-35.35858122406566,-19.864995232603054,10.892827033996582,39.54333,2.37794,0.14002388715744019,-0.11179286986589432,1.2727540731430054
76,2021-07-21 12:59:16.468064,0.874305043512042,-35.35222883284592,-19.86540461844912,10.892827033996582,39.54333,2.37794,0.1408732533454895,-0.11255940049886703,1.2678555250167847
77,2021-07-21 12:59:16.508712,0.8810460789527598,-35.350738267292165,-19.863736099463182,10.892827033996582,39.54333,2.37794,0.1412981152534485,-0.11430753767490387,1.2636452913284302
78,2021-07-21 12:59:16.549478,0.8899933600031981,-35.34921955991946,-19.862075325185977,10.525450706481934,39.54333,2.37794,0.14176051318645477,-0.11593694984912872,1.259369969367981
79,2021-07-21 12:59:16.590327,0.8926382202854133,-35.34767033500005,-19.86042482303935,10.507075309753418,39.54333,2.37794,0.1422983556985855,-0.11747287213802338,1.2550814151763916
80,2021-07-21 12:59:16.631391,0.8934099189921231,-35.34608900523365,-19.85877716164682,10.507075309753418,39.54333,2.37794,0.14295147359371185,-0.11891010403633118,1.2508472204208374
81,2021-07-21 12:59:16.672927,0.8946271369573204,-35.34089244378535,-19.857082966418215,10.91746997833252,39.54333,2.37794,0.14364659786224365,-0.12026761472225189,1.2465249300003052
82,2021-07-21 12:59:16.711900,0.9025730209825732,-35.33895867298983,-19.855513879207198,10.624641418457031,39.54333,2.37794,0.14434394240379333,-0.12115812301635742,1.241396188735962
83,2021-07-21 12:59:16.752696,0.910549708670693,-35.33687930385463,-19.853907961311915,10.624641418457031,39.54333,2.37794,0.14500769972801208,-0.12238071858882904,1.2372008562088013
84,2021-07-21 12:59:16.793338,0.9126942505929607,-35.33477082249175,-19.852311192843977,10.604629516601562,39.54333,2.37794,0.14586931467056274,-0.12318193167448044,1.2330571413040161
85,2021-07-21 12:59:16.874955,0.9157151973768389,-35.333698798323624,-19.846342843588108,10.680158615112305,39.54333,2.37794,0.14784711599349976,-0.12380099296569824,1.2249891757965088
86,2021-07-21 12:59:16.915197,0.9247638305656913,-35.331888946228325,-19.84445813848579,10.680158615112305,39.54333,2.37794,0.14861522614955902,-0.12450767308473587,1.2196906805038452
87,2021-07-21 12:59:16.956051,0.9314243731126383,-35.33000612136828,-19.84254316542674,10.680158615112305,39.54333,2.37794,0.14968131482601166,-0.1241438090801239,1.2158397436141968
88,2021-07-21 12:59:16.988356,0.9330505155452276,-35.32849624353073,-19.841018663469782,10.659963607788086,39.54333,2.37794,0.1506439596414566,-0.12338396906852722,1.2132264375686646
89,2021-07-21 12:59:17.032650,0.9341766102340503,-35.327248842122295,-19.83692960770582,10.659963607788086,39.54333,2.37794,0.1518680900335312,-0.12250901758670807,1.2091680765151978
90,2021-07-21 12:59:17.069662,0.9360172496944142,-35.325565837282966,-19.834952138428378,10.710165977478027,39.54333,2.37794,0.15287712216377258,-0.12125536799430847,1.206276297569275
91,2021-07-21 12:59:17.112608,0.9453510440066407,-35.32359603222287,-19.83264736638009,10.710165977478027,39.54333,2.37794,0.15389877557754517,-0.1198943555355072,1.2027196884155273
92,2021-07-21 12:59:17.151082,0.9516614963801429,-35.321815317005985,-19.83058561934288,10.710165977478027,39.54333,2.37794,0.15477143228054047,-0.11994121223688126,1.1978727579116821
93,2021-07-21 12:59:17.191588,0.953301471187218,-35.31991428936945,-19.828377664038737,10.688002586364746,39.54333,2.37794,0.15573778748512268,-0.11830483376979828,1.194871425628662
94,2021-07-21 12:59:17.232923,0.953742004836785,-35.323316566454714,-19.82546602624415,10.7195463180542,39.54333,2.37794,0.15658073127269745,-0.11667349189519882,1.1918740272521973
95,2021-07-21 12:59:17.273056,0.9555504300600957,-35.32201020559059,-19.823187059730937,10.7195463180542,39.54333,2.37794,0.15716783702373505,-0.11522985249757767,1.189124584197998
96,2021-07-21 12:59:17.354064,0.9705438577578999,-35.31935380095693,-19.81858510626102,10.7195463180542,39.54333,2.37794,0.15830138325691223,-0.11370018124580383,1.181675672531128
97,2021-07-21 12:59:17.394593,0.9714761338955881,-35.323707191346855,-19.81864619394462,10.96683406829834,39.54333,2.37794,0.158416286110878,-0.112471804022789,1.1791938543319702
98,2021-07-21 12:59:17.435566,0.971617103715793,-35.323049710354724,-19.816580279042636,10.96683406829834,39.54333,2.37794,0.15835784375667572,-0.11139927804470062,1.1767113208770752
99,2021-07-21 12:59:17.468356,0.9748699887559663,-35.32253031353421,-19.814935249354143,10.72485637664795,39.54333,2.37794,0.15792034566402435,-0.11068450659513474,1.1752440929412842
100,2021-07-21 12:59:17.508451,0.9920658336161116,-35.32189261647404,-19.812940282713804,10.72485637664795,39.54333,2.37794,0.15739049017429352,-0.11013776808977127,1.172985553741455
101,2021-07-21 12:59:17.555072,1.004537424236547,-35.32796400606036,-19.81299323911829,10.72485637664795,39.54333,2.37794,0.15677449107170105,-0.10972703993320465,1.1700091361999512
102,2021-07-21 12:59:17.589728,1.0061592444741556,-35.328176715127825,-19.811506876883353,10.711910247802734,39.54333,2.37794,0.15717628598213196,-0.10945452749729156,1.1662014722824097
103,2021-07-21 12:59:17.630261,1.0063088258602437,-35.32845234880892,-19.80979354269845,10.711910247802734,39.54333,2.37794,0.1563342958688736,-0.1091422587633133,1.164001703262329
104,2021-07-21 12:59:17.671916,1.0060424743913903,-35.32876319213161,-19.80804805827976,10.699532508850098,39.54333,2.37794,0.15539126098155975,-0.10910764336585999,1.1616806983947754
105,2021-07-21 12:59:17.712813,1.0057168667366614,-35.32909665021955,-19.806349577875643,10.699532508850098,39.54333,2.37794,0.1543373465538025,-0.10917028039693832,1.1594443321228027
106,2021-07-21 12:59:17.752805,1.0052299658683104,-35.33510477440224,-19.80631714911616,10.699532508850098,39.54333,2.37794,0.153232604265213,-0.1092347577214241,1.1572959423065186
107,2021-07-21 12:59:17.834237,1.004483059524268,-35.337299077885596,-19.803380202167677,10.814257621765137,39.54333,2.37794,0.15209883451461792,-0.10928776860237122,1.150830626487732
108,2021-07-21 12:59:17.873908,1.010963142403576,-35.33841766327235,-19.80199100991374,10.538082122802734,39.54333,2.37794,0.1508428305387497,-0.10971527546644211,1.1487687826156616
109,2021-07-21 12:59:17.914574,1.0246038750264586,-35.339585850119676,-19.800590366233436,10.538082122802734,39.54333,2.37794,0.1495593935251236,-0.1102873757481575,1.1466490030288696
110,2021-07-21 12:59:17.955111,1.0292118533369934,-35.34441004737635,-19.800610707730254,10.530322074890137,39.54333,2.37794,0.14829561114311218,-0.11086702346801758,1.1446027755737305
111,2021-07-21 12:59:17.989825,1.0301457986485503,-35.34583705120683,-19.799584367095534,10.530322074890137,39.54333,2.37794,0.1470559686422348,-0.11147822439670563,1.1431869268417358
112,2021-07-21 12:59:18.029306,1.0298753913028071,-35.34750740778186,-19.798426551572476,10.530322074890137,39.54333,2.37794,0.14681361615657806,-0.11149347573518753,1.1392806768417358
113,2021-07-21 12:59:18.069372,1.0365341908224546,-35.349232684885685,-19.79728992828174,10.51722240447998,39.54333,2.37794,0.14560191333293915,-0.11231837421655655,1.1374279260635376
114,2021-07-21 12:59:18.109795,1.0503797900707805,-35.34926278081784,-19.794899848594014,10.5127534866333,39.54333,2.37794,0.14450514316558838,-0.11341740936040878,1.1356492042541504
115,2021-07-21 12:59:18.150560,1.0550622523996458,-35.350879293897854,-19.793647304667203,10.5127534866333,39.54333,2.37794,0.14336270093917847,-0.11476495862007141,1.1338584423065186
116,2021-07-21 12:59:18.191266,1.055840309583822,-35.35253298969989,-19.792424246329816,10.5127534866333,39.54333,2.37794,0.1422485113143921,-0.11630208790302277,1.1321587562561035
117,2021-07-21 12:59:18.234965,1.0560225949128974,-35.35435239899987,-19.79114197727504,10.132142066955566,39.54333,2.37794,0.14115332067012787,-0.11806739121675491,1.1302038431167603
118,2021-07-21 12:59:18.312685,1.0553450156079411,-35.357513817506515,-19.7887654353067,10.132142066955566,39.54333,2.37794,0.1396787464618683,-0.12064319849014282,1.1252717971801758
119,2021-07-21 12:59:18.353777,1.0551169270203866,-35.35929901323854,-19.78763621413521,10.435799598693848,39.54333,2.37794,0.13870100677013397,-0.12327708303928375,1.1236952543258667
120,2021-07-21 12:59:18.393945,1.054844455360842,-35.36107717889178,-19.786566401171314,10.423384666442871,39.54333,2.37794,0.13775938749313354,-0.12614308297634125,1.1221930980682373
121,2021-07-21 12:59:18.434661,1.0545862929999676,-35.362914212688125,-19.78551645761087,10.423384666442871,39.54333,2.37794,0.13683795928955078,-0.12934225797653198,1.1206109523773193
122,2021-07-21 12:59:18.468089,1.0615948841920009,-35.356232700881584,-19.785693711530598,10.49269962310791,39.54333,2.37794,0.13644032180309296,-0.1302342414855957,1.1177467107772827
123,2021-07-21 12:59:18.507849,1.075193772145016,-35.35705597401144,-19.7848713274693,10.49269962310791,39.54333,2.37794,0.1355704963207245,-0.13385921716690063,1.1162976026535034
124,2021-07-21 12:59:18.548613,1.079895857875924,-35.357910599649365,-19.784074954447743,10.49269962310791,39.54333,2.37794,0.13472017645835876,-0.13762341439723969,1.1145694255828857
125,2021-07-21 12:59:18.589506,1.0806915402156267,-35.358779894290606,-19.783320060873788,10.476781845092773,39.54333,2.37794,0.13386593759059906,-0.14146216213703156,1.1127089262008667
126,2021-07-21 12:59:18.629963,1.0806249719576355,-35.35965241101734,-19.78261425382483,10.19130802154541,39.54333,2.37794,0.13304923474788666,-0.14535677433013916,1.1107792854309082
127,2021-07-21 12:59:18.674945,1.0874257354618944,-35.35214209750303,-19.783225980945627,10.19130802154541,39.54333,2.37794,0.13221020996570587,-0.14950565993785858,1.1082873344421387
128,2021-07-21 12:59:18.752140,1.0975112362413586,-35.351961097352664,-19.78234919887172,10.19130802154541,39.54333,2.37794,0.13090118765830994,-0.15500517189502716,1.1028187274932861
129,2021-07-21 12:59:18.784501,1.097747322690699,-35.35185675989142,-19.78205152228094,10.171906471252441,39.54333,2.37794,0.1303149312734604,-0.15816690027713776,1.1010221242904663
130,2021-07-21 12:59:18.832811,1.098018841867182,-35.34683635695386,-19.78079533461014,10.171906471252441,39.54333,2.37794,0.12953194975852966,-0.16169880330562592,1.097705602645874
131,2021-07-21 12:59:18.873649,1.1056127400914006,-35.346098692013584,-19.780359473434896,9.850336074829102,39.54333,2.37794,0.12892362475395203,-0.16440531611442566,1.0949056148529053
132,2021-07-21 12:59:18.914847,1.113067840328115,-35.345357298058296,-19.77991926314882,9.850336074829102,39.54333,2.37794,0.12826654314994812,-0.16635914146900177,1.091161847114563
133,2021-07-21 12:59:18.955220,1.1146462271881419,-35.34458527463154,-19.779544557671077,9.835700988769531,39.54333,2.37794,0.12778998911380768,-0.1684410274028778,1.0882158279418945
134,2021-07-21 12:59:18.995772,1.1148997418680195,-35.343797345948076,-19.779182390898697,9.835700988769531,39.54333,2.37794,0.127389058470726,-0.16979967057704926,1.0851590633392334
135,2021-07-21 12:59:19.029487,1.1158108164188405,-35.337614492164526,-19.77681756542574,9.477360725402832,39.54333,2.37794,0.12719272077083588,-0.1702149510383606,1.0826400518417358
136,2021-07-21 12:59:19.069115,1.131291366602441,-35.3361968006171,-19.776221867106614,9.477360725402832,39.54333,2.37794,0.12689577043056488,-0.17007221281528473,1.07955002784729
137,2021-07-21 12:59:19.113437,1.146818578846643,-35.3345751140457,-19.775560853631262,9.45839786529541,39.54333,2.37794,0.12671221792697906,-0.1692463457584381,1.075940728187561
138,2021-07-21 12:59:19.150073,1.1500505547798157,-35.333206150527275,-19.775044963339894,9.45839786529541,39.54333,2.37794,0.12626546621322632,-0.17018373310565948,1.0723243951797485
139,2021-07-21 12:59:19.232457,1.15189102142174,-35.32745604636483,-19.770197029253712,9.456530570983887,39.54333,2.37794,0.12665478885173798,-0.16533739864826202,1.0655819177627563
140,2021-07-21 12:59:19.271879,1.1636321022293201,-35.32564576765483,-19.769192709619606,9.070412635803223,39.54333,2.37794,0.12697859108448029,-0.1616739183664322,1.0624486207962036
141,2021-07-21 12:59:19.312998,1.1752665007063863,-35.323723845141245,-19.76813213333545,9.070412635803223,39.54333,2.37794,0.12736524641513824,-0.1573655605316162,1.05916428565979
142,2021-07-21 12:59:19.354082,1.1781036426140705,-35.32175584420957,-19.76712016288235,9.048174858093262,39.54333,2.37794,0.12713204324245453,-0.15700210630893707,1.0549553632736206
143,2021-07-21 12:59:19.394543,1.1787439320267983,-35.32285812615014,-19.76321636739333,9.052358627319336,39.54333,2.37794,0.12792478501796722,-0.1514136642217636,1.0518897771835327
144,2021-07-21 12:59:19.435272,1.180854476827623,-35.321247152701446,-19.76177235067382,9.052358627319336,39.54333,2.37794,0.12879310548305511,-0.1452227234840393,1.0489472150802612
145,2021-07-21 12:59:19.475502,1.18990806340039,-35.31963509126162,-19.7603306347666,8.640510559082031,39.54333,2.37794,0.129658043384552,-0.13846690952777863,1.0462793111801147
146,2021-07-21 12:59:19.507613,1.195702002451689,-35.31833742313534,-19.759148107589414,8.614248275756836,39.54333,2.37794,0.13057300448417664,-0.13173791766166687,1.0445679426193237
147,2021-07-21 12:59:19.551073,1.197877485416903,-35.32302346356881,-19.7562098183087,8.614248275756836,39.54333,2.37794,0.13158974051475525,-0.12420426309108734,1.0419169664382935
148,2021-07-21 12:59:19.588838,1.1984215173170674,-35.3221921668841,-19.75470944982054,8.19481372833252,39.54333,2.37794,0.1317857950925827,-0.12199700623750687,1.038191795349121
149,2021-07-21 12:59:19.630419,1.1997004387615946,-35.32130146665526,-19.752956307169327,8.19481372833252,39.54333,2.37794,0.13285429775714874,-0.11416474729776382,1.0360006093978882
150,2021-07-21 12:59:19.673327,1.2044780521315688,-35.320373640828684,-19.751135630404683,8.19481372833252,39.54333,2.37794,0.1338176429271698,-0.10634556412696838,1.0339492559432983
151,2021-07-21 12:59:19.702986,1.2072134338018674,-35.31973591182836,-19.74984444286075,8.163865089416504,39.54333,2.37794,0.13454481959342957,-0.09992815554141998,1.0332878828048706
152,2021-07-21 12:59:19.793648,1.2086743471818258,-35.32359397394521,-19.74212367414432,8.945121765136719,39.54333,2.37794,0.13580743968486786,-0.08600728958845139,1.0295811891555786
153,2021-07-21 12:59:19.832638,1.2131758408025777,-35.323324325740536,-19.740063250534213,8.945121765136719,39.54333,2.37794,0.13613994419574738,-0.08275953680276871,1.026176929473877
154,2021-07-21 12:59:19.873955,1.2273720778182524,-35.323043936513955,-19.73783062780789,8.945121765136719,39.54333,2.37794,0.136369988322258,-0.07712462544441223,1.0249165296554565
155,2021-07-21 12:59:19.914155,1.2342070131116207,-35.325060720646235,-19.737563921654804,8.945121765136719,39.54333,2.37794,0.13649551570415497,-0.07211212068796158,1.0238443613052368
156,2021-07-21 12:59:19.954984,1.2354755785590106,-35.32508535800979,-19.735524648938117,9.644665718078613,39.54333,2.37794,0.1365102231502533,-0.06769008189439774,1.0227686166763306
157,2021-07-21 12:59:19.995468,1.2356136910038622,-35.32511994456934,-19.7334915511527,9.369118690490723,39.54333,2.37794,0.13635718822479248,-0.06416548043489456,1.0217680931091309
158,2021-07-21 12:59:20.028662,1.2385913528183445,-35.325155839351716,-19.73183881950085,9.369118690490723,39.54333,2.37794,0.1365543007850647,-0.061570726335048676,1.0191410779953003
159,2021-07-21 12:59:20.068181,1.2477138263655516,-35.325192076638174,-19.729856590342028,9.369118690490723,39.54333,2.37794,0.1361505389213562,-0.05922175943851471,1.0182517766952515
160,2021-07-21 12:59:20.111015,1.2522859239927557,-35.32624313175643,-19.731805526260842,9.854144096374512,39.54333,2.37794,0.1356366127729416,-0.05739574134349823,1.0170544385910034
161,2021-07-21 12:59:20.149484,1.2528667575258192,-35.32640442153024,-19.730318736998203,9.854144096374512,39.54333,2.37794,0.1349974423646927,-0.056604400277137756,1.0161865949630737
162,2021-07-21 12:59:20.185555,1.2531736909198468,-35.32655964245611,-19.728937846918686,9.598379135131836,39.54333,2.37794,0.13422349095344543,-0.05657438188791275,1.015519380569458
163,2021-07-21 12:59:20.232392,1.2555708378397117,-35.32677448787909,-19.72715659205166,9.598379135131836,39.54333,2.37794,0.13337066769599915,-0.056482262909412384,1.0140067338943481
164,2021-07-21 12:59:20.312784,1.269032762021552,-35.327223968066676,-19.72486205558382,9.598379135131836,39.54333,2.37794,0.1322471648454666,-0.055835213512182236,1.0101003646850586
165,2021-07-21 12:59:20.352580,1.2694829355510333,-35.32741051136834,-19.723476625349114,9.991085052490234,39.54333,2.37794,0.13110516965389252,-0.05773227661848068,1.0091511011123657
166,2021-07-21 12:59:20.394485,1.2692675608722839,-35.32761357969046,-19.72204128710062,9.743610382080078,39.54333,2.37794,0.12985529005527496,-0.06000863388180733,1.0079882144927979
167,2021-07-21 12:59:20.434022,1.2781008371722142,-35.32779924518187,-19.720715627381786,9.743610382080078,39.54333,2.37794,0.1284964382648468,-0.06267877668142319,1.0069586038589478
168,2021-07-21 12:59:20.466712,1.2936551864702006,-35.32678932248039,-19.719886450203404,10.083035469055176,39.54333,2.37794,0.12817737460136414,-0.06209666654467583,1.0046570301055908
169,2021-07-21 12:59:20.515471,1.3026382369257994,-35.32684807331621,-19.71833480655365,10.083035469055176,39.54333,2.37794,0.12661343812942505,-0.06500677764415741,1.0029219388961792
170,2021-07-21 12:59:20.556128,1.3035130571108033,-35.32689140226735,-19.71708401116477,10.083035469055176,39.54333,2.37794,0.12511137127876282,-0.06799570471048355,1.0016130208969116
171,2021-07-21 12:59:20.588399,1.303319769921527,-35.32692001347456,-19.71612707500969,9.83484935760498,39.54333,2.37794,0.12371209263801575,-0.07093638926744461,1.0007224082946777
172,2021-07-21 12:59:20.629125,1.314592446534638,-35.32696636161126,-19.714907887267547,10.133312225341797,39.54333,2.37794,0.12214848399162292,-0.07370878756046295,0.9991223216056824
173,2021-07-21 12:59:20.674165,1.3382291973647398,-35.32584448391881,-19.712752152870326,10.133312225341797,39.54333,2.37794,0.12045130878686905,-0.07632589340209961,0.9971059560775757
174,2021-07-21 12:59:20.710643,1.3452641237865295,-35.325807070411344,-19.711543915719446,10.133312225341797,39.54333,2.37794,0.11983276903629303,-0.07641555368900299,0.9944679737091064
175,2021-07-21 12:59:20.751178,1.3464652883446675,-35.325727144223166,-19.710303475217444,10.133312225341797,39.54333,2.37794,0.1182749792933464,-0.07874778658151627,0.9925838708877563
176,2021-07-21 12:59:20.824400,1.3458329479222906,-35.32305229684274,-19.707533766638136,9.888566970825195,39.54333,2.37794,0.11536505073308945,-0.08252127468585968,0.9890722036361694
177,2021-07-21 12:59:20.872855,1.3452455265656635,-35.322615901122056,-19.705985763234352,10.175942420959473,39.54333,2.37794,0.11368543654680252,-0.08402403444051743,0.9863080978393555
178,2021-07-21 12:59:20.915217,1.3450480225022203,-35.32223488715873,-19.704645783178,10.175942420959473,39.54333,2.37794,0.11217506974935532,-0.08508272469043732,0.9838849306106567
179,2021-07-21 12:59:20.954154,1.3443165259911145,-35.321905954629074,-19.703377515204224,10.162428855895996,39.54333,2.37794,0.11137033998966217,-0.08523410558700562,0.9808351993560791
180,2021-07-21 12:59:20.994975,1.3447245578241713,-35.32154708709945,-19.70209745407155,9.929542541503906,39.54333,2.37794,0.10995065420866013,-0.08570986986160278,0.9784483909606934
181,2021-07-21 12:59:21.035668,1.3558695807681018,-35.32068403825784,-19.70446885211528,9.929542541503906,39.54333,2.37794,0.10853808373212814,-0.08578687906265259,0.9759576320648193
182,2021-07-21 12:59:21.068076,1.3657167013872655,-35.32036126630618,-19.703779832194503,10.214561462402344,39.54333,2.37794,0.10741808265447617,-0.08544059097766876,0.9741606116294861
183,2021-07-21 12:59:21.111352,1.3692689510492697,-35.319934784863186,-19.702860613566536,10.199740409851074,39.54333,2.37794,0.1062026172876358,-0.0846376046538353,0.9714711308479309
184,2021-07-21 12:59:21.150618,1.3695212599805735,-35.319551754754215,-19.702031054318144,10.199740409851074,39.54333,2.37794,0.10535772144794464,-0.08438453078269958,0.9682176113128662
185,2021-07-21 12:59:21.190595,1.3690801846904497,-35.318534189906366,-19.700911138710545,10.413300514221191,39.54333,2.37794,0.10434655845165253,-0.08321643620729446,0.9657854437828064
186,2021-07-21 12:59:21.230902,1.3785422596621408,-35.31807693070952,-19.700026967842177,10.413300514221191,39.54333,2.37794,0.10343998670578003,-0.08157916367053986,0.9633726477622986
187,2021-07-21 12:59:21.312285,1.3948579107626606,-35.317156405113195,-19.698234372629603,10.413300514221191,39.54333,2.37794,0.1020452156662941,-0.07708515226840973,0.9586678147315979
188,2021-07-21 12:59:21.354538,1.3956292897575273,-35.31667206926089,-19.69733373593815,10.398661613464355,39.54333,2.37794,0.10126258432865143,-0.07615351676940918,0.9550936222076416
189,2021-07-21 12:59:21.393035,1.396334251656332,-35.31620589530931,-19.69670607690499,10.376572608947754,39.54333,2.37794,0.10087833553552628,-0.07337259501218796,0.9530841708183289
190,2021-07-21 12:59:21.434160,1.4080137549924647,-35.31574311383267,-19.69582617425267,10.376572608947754,39.54333,2.37794,0.1004924476146698,-0.07041752338409424,0.9509680271148682
191,2021-07-21 12:59:21.475847,1.419379234719915,-35.31527078949734,-19.694934736069868,10.376572608947754,39.54333,2.37794,0.10017819702625275,-0.06732812523841858,0.9489526152610779
192,2021-07-21 12:59:21.515100,1.4218799705121972,-35.31482834164161,-19.69409289824883,10.376572608947754,39.54333,2.37794,0.0999850332736969,-0.06437448412179947,0.9473027586936951
193,2021-07-21 12:59:21.555644,1.4221958849817535,-35.31377460236493,-19.693476198910254,10.360429763793945,39.54333,2.37794,0.09978332370519638,-0.0615324005484581,0.9457311034202576
194,2021-07-21 12:59:21.588022,1.423142666832643,-35.31334225188777,-19.692839821584826,10.335432052612305,39.54333,2.37794,0.09935706853866577,-0.0603000707924366,0.9431254267692566
195,2021-07-21 12:59:21.629193,1.4347686560368877,-35.312793533553545,-19.692009330083216,10.324469566345215,39.54333,2.37794,0.09913597255945206,-0.05768172815442085,0.9417390823364258
196,2021-07-21 12:59:21.669752,1.4459990437193215,-35.312242517033816,-19.691200800319415,10.324469566345215,39.54333,2.37794,0.09890756011009216,-0.05539756268262863,0.940575897693634
197,2021-07-21 12:59:21.702187,1.4483062013181465,-35.31179838329753,-19.690555171744446,10.487712860107422,39.54333,2.37794,0.0988152027130127,-0.053747616708278656,0.9401066303253174
198,2021-07-21 12:59:21.750861,1.4488216207824234,-35.31227975677796,-19.69157157299356,10.487712860107422,39.54333,2.37794,0.0984557643532753,-0.051883358508348465,0.9385566115379333
199,2021-07-21 12:59:21.832079,1.4590419565512662,-35.31141023157112,-19.69051407941269,10.284955024719238,39.54333,2.37794,0.0976860523223877,-0.04928167164325714,0.9348143339157104
200,2021-07-21 12:59:21.873871,1.4650337269217808,-35.31094617538241,-19.689998167793878,10.274392127990723,39.54333,2.37794,0.09728178381919861,-0.048609454184770584,0.9340080618858337
201,2021-07-21 12:59:21.913125,1.4658570028024678,-35.31097017416633,-19.69112289271911,10.274392127990723,39.54333,2.37794,0.09688122570514679,-0.04837065935134888,0.9335236549377441
202,2021-07-21 12:59:21.953902,1.4658818218895437,-35.31056145928482,-19.690864626630592,10.446698188781738,39.54333,2.37794,0.09643300622701645,-0.048446714878082275,0.9329910278320312
203,2021-07-21 12:59:21.994821,1.4687808053960318,-35.31014210775815,-19.690634322780102,10.239850044250488,39.54333,2.37794,0.09594026207923889,-0.04890298843383789,0.9325022101402283
204,2021-07-21 12:59:22.035002,1.4779308576153365,-35.309740726144085,-19.69040970021842,10.239850044250488,39.54333,2.37794,0.0954495444893837,-0.048005253076553345,0.9299511313438416
205,2021-07-21 12:59:22.068110,1.481817642723992,-35.30938201385634,-19.690269984877677,10.229403495788574,39.54333,2.37794,0.09499623626470566,-0.04919874295592308,0.9300034642219543
206,2021-07-21 12:59:22.108483,1.4827925199822831,-35.31004100726173,-19.68860050571518,10.401142120361328,39.54333,2.37794,0.09440376609563828,-0.0506373792886734,0.9296503067016602
207,2021-07-21 12:59:22.149209,1.482775120229589,-35.30971620810145,-19.688294758055033,10.401142120361328,39.54333,2.37794,0.09376141428947449,-0.05235658586025238,0.9293212294578552
208,2021-07-21 12:59:22.190024,1.4833480528320833,-35.30938223560214,-19.68801696121409,10.194238662719727,39.54333,2.37794,0.09303148835897446,-0.05462043359875679,0.9289976954460144
209,2021-07-21 12:59:22.235064,1.4878161345338305,-35.30900581804177,-19.687738663885757,10.183176040649414,39.54333,2.37794,0.09217299520969391,-0.05715734884142876,0.9284899830818176
210,2021-07-21 12:59:22.273267,1.490310913142399,-35.30616861603347,-19.68426153732564,10.183176040649414,39.54333,2.37794,0.09163244068622589,-0.05720924586057663,0.9263609647750854
211,2021-07-21 12:59:22.352806,1.4900480843436532,-35.30480014423313,-19.683120581038974,10.365036964416504,39.54333,2.37794,0.0897587388753891,-0.06367917358875275,0.925901472568512
212,2021-07-21 12:59:22.393579,1.495728599674459,-35.30407610412555,-19.682565090484825,10.151631355285645,39.54333,2.37794,0.08866694569587708,-0.0671706423163414,0.9255521893501282
213,2021-07-21 12:59:22.433917,1.5141851065352525,-35.303343195579934,-19.68202738277652,10.151631355285645,39.54333,2.37794,0.08749313652515411,-0.0708112046122551,0.9251005053520203
214,2021-07-21 12:59:22.465672,1.521846547423876,-35.305038981249595,-19.679999366098354,10.334159851074219,39.54333,2.37794,0.08689799904823303,-0.07149205356836319,0.9234277606010437
215,2021-07-21 12:59:22.514462,1.5240602445984592,-35.30445208210712,-19.67915988129735,10.334159851074219,39.54333,2.37794,0.08561064302921295,-0.07541869580745697,0.9224742650985718
216,2021-07-21 12:59:22.555144,1.5239854485650866,-35.303945672413896,-19.678486956402796,10.334159851074219,39.54333,2.37794,0.08447907119989395,-0.07888789474964142,0.9218366146087646
217,2021-07-21 12:59:22.595811,1.5258994894975995,-35.30343363419271,-19.677823784640058,10.322758674621582,39.54333,2.37794,0.0833681970834732,-0.08200637996196747,0.9211102724075317
218,2021-07-21 12:59:22.628196,1.5295407028071089,-35.30301633221293,-19.677309174129704,10.322758674621582,39.54333,2.37794,0.08242248743772507,-0.08446349948644638,0.9206675887107849
219,2021-07-21 12:59:22.670700,1.531595916928631,-35.30458123194589,-19.67626136975646,10.472764015197754,39.54333,2.37794,0.08133954554796219,-0.08674640953540802,0.9195282459259033
220,2021-07-21 12:59:22.712206,1.5315707328380566,-35.304324035927685,-19.675520834706635,10.244505882263184,39.54333,2.37794,0.08050069957971573,-0.08794771879911423,0.9172447919845581
221,2021-07-21 12:59:22.750352,1.5312275260648234,-35.30406319906395,-19.674883963612047,10.244505882263184,39.54333,2.37794,0.07956261187791824,-0.08944754302501678,0.9161315560340881
222,2021-07-21 12:59:22.791059,1.5379436754232676,-35.303792912988754,-19.674195295975753,10.244505882263184,39.54333,2.37794,0.07865636050701141,-0.09035982191562653,0.9147757887840271
223,2021-07-21 12:59:22.823730,1.5495388557029757,-35.30326639436836,-19.669855517463862,10.417542457580566,39.54333,2.37794,0.07795006781816483,-0.09051483124494553,0.9137189388275146
224,2021-07-21 12:59:22.913329,1.5573881648208192,-35.30260990812291,-19.667271457470715,10.417542457580566,39.54333,2.37794,0.0762915387749672,-0.09091503173112869,0.9090472459793091
225,2021-07-21 12:59:22.954009,1.5574446582051742,-35.30231753172251,-19.666081578693507,10.186723709106445,39.54333,2.37794,0.07574914395809174,-0.08966245502233505,0.907159149646759
226,2021-07-21 12:59:22.993983,1.5702613155696648,-35.30203544541232,-19.66489204189336,10.186723709106445,39.54333,2.37794,0.07529809325933456,-0.08788010478019714,0.9052128195762634
227,2021-07-21 12:59:23.034973,1.587618887619621,-35.30679628473799,-19.66504133910269,10.186723709106445,39.54333,2.37794,0.07496077567338943,-0.08555439114570618,0.903114914894104
228,2021-07-21 12:59:23.067344,1.5919640196786433,-35.30705304399594,-19.664172817939672,10.351319313049316,39.54333,2.37794,0.07495125383138657,-0.08272261917591095,0.901516854763031
229,2021-07-21 12:59:23.115716,1.593454159098775,-35.307457989796355,-19.66286898603336,10.118880271911621,39.54333,2.37794,0.0748404860496521,-0.07935090363025665,0.8987969160079956
230,2021-07-21 12:59:23.148552,1.593713482326809,-35.307739887819245,-19.661999360431356,10.118880271911621,39.54333,2.37794,0.0743967741727829,-0.07884731143712997,0.8964887857437134
231,2021-07-21 12:59:23.188929,1.5985673259494255,-35.308455352182804,-19.664007930988213,10.294692993164062,39.54333,2.37794,0.07453794032335281,-0.07505008578300476,0.8942456841468811
232,2021-07-21 12:59:23.229701,1.608033435327219,-35.30889828645306,-19.66325540124797,10.294692993164062,39.54333,2.37794,0.07476764917373657,-0.07099471986293793,0.8919183611869812
233,2021-07-21 12:59:23.270749,1.6115065824210162,-35.309367314224296,-19.66248581263278,10.294692993164062,39.54333,2.37794,0.07514352351427078,-0.06649386137723923,0.8896387815475464
234,2021-07-21 12:59:23.312192,1.6124012996805852,-35.309864424197336,-19.661698746714286,10.058196067810059,39.54333,2.37794,0.07561837136745453,-0.06193902716040611,0.8874040246009827
235,2021-07-21 12:59:23.353561,1.6128048408535458,-35.310383817421865,-19.660904270350194,10.058196067810059,39.54333,2.37794,0.07615828514099121,-0.0572686493396759,0.8852917551994324
236,2021-07-21 12:59:23.433763,1.6283296678538428,-35.311010166939504,-19.66016874730631,10.254281044006348,39.54333,2.37794,0.0765925943851471,-0.050801217555999756,0.8804137110710144
237,2021-07-21 12:59:23.474848,1.630953694586478,-35.31153718365298,-19.659441707002642,10.254281044006348,39.54333,2.37794,0.07725457102060318,-0.04611199349164963,0.878646969795227
238,2021-07-21 12:59:23.514228,1.6315821719889785,-35.31206197330089,-19.658737616656598,10.254281044006348,39.54333,2.37794,0.07791827619075775,-0.041728515177965164,0.8771483898162842
239,2021-07-21 12:59:23.555123,1.6329446318006184,-35.31010436266965,-19.65662172705139,10.013481140136719,39.54333,2.37794,0.07854710519313812,-0.03754010424017906,0.8757312893867493
240,2021-07-21 12:59:23.589051,1.6420419703877005,-35.31030168113951,-19.655913629476768,10.186029434204102,39.54333,2.37794,0.07853782176971436,-0.0356859490275383,0.8732897043228149
241,2021-07-21 12:59:23.628768,1.6550420482895314,-35.310555188203175,-19.65503102720567,10.186029434204102,39.54333,2.37794,0.079097680747509,-0.0319947712123394,0.8722153902053833
242,2021-07-21 12:59:23.668917,1.6586764833102225,-35.31082250246324,-19.654128317640684,10.173227310180664,39.54333,2.37794,0.07953867316246033,-0.028772829100489616,0.8712813854217529
243,2021-07-21 12:59:23.709426,1.6593626441012537,-35.31110124758849,-19.65321658782585,10.134345054626465,39.54333,2.37794,0.07980547100305557,-0.02608019858598709,0.8704928159713745
244,2021-07-21 12:59:23.749699,1.6601894063439218,-35.311311823048904,-19.65007696878187,10.134345054626465,39.54333,2.37794,0.07994377613067627,-0.023929977789521217,0.8698976635932922
245,2021-07-21 12:59:23.792374,1.6681090503183869,-35.311600407819334,-19.648849446036913,10.134345054626465,39.54333,2.37794,0.07989612966775894,-0.022186869755387306,0.869344174861908
246,2021-07-21 12:59:23.831283,1.6752774405020263,-35.31187482500193,-19.64773687653433,10.118942260742188,39.54333,2.37794,0.07988063991069794,-0.020321177318692207,0.8669458031654358
247,2021-07-21 12:59:23.912384,1.67689458822843,-35.3135265973259,-19.64475111262776,10.118942260742188,39.54333,2.37794,0.07931225001811981,-0.018698830157518387,0.8667479753494263
248,2021-07-21 12:59:23.953854,1.6800797829151488,-35.31395773794736,-19.643478157790298,10.070464134216309,39.54333,2.37794,0.07882879674434662,-0.018618252128362656,0.8667364716529846
249,2021-07-21 12:59:23.994915,1.6972993838242292,-35.31438319213699,-19.64223185512274,10.070464134216309,39.54333,2.37794,0.0781577005982399,-0.01901964657008648,0.8668124079704285
250,2021-07-21 12:59:24.034723,1.7092130428141854,-35.314828657692566,-19.64099686743109,10.070464134216309,39.54333,2.37794,0.07796209305524826,-0.017791397869586945,0.8647269606590271
251,2021-07-21 12:59:24.075456,1.711367536124618,-35.31526063701418,-19.639760107753897,10.053337097167969,39.54333,2.37794,0.07713203877210617,-0.018848199397325516,0.8648998141288757
252,2021-07-21 12:59:24.115840,1.711432645372853,-35.312366754204376,-19.638296840539684,10.029525756835938,39.54333,2.37794,0.07618904858827591,-0.02038899064064026,0.8651119470596313
253,2021-07-21 12:59:24.148563,1.711756621956428,-35.31238572969511,-19.637307388962526,10.029525756835938,39.54333,2.37794,0.07522822916507721,-0.022429034113883972,0.8656590580940247
254,2021-07-21 12:59:24.190091,1.719200206776927,-35.31241287154225,-19.636051945418647,10.017894744873047,39.54333,2.37794,0.07406555861234665,-0.024734463542699814,0.8657944202423096
255,2021-07-21 12:59:24.232888,1.7266179272581805,-35.31243421661024,-19.634767392209067,10.017894744873047,39.54333,2.37794,0.07279917597770691,-0.027297353371977806,0.865760862827301
256,2021-07-21 12:59:24.311434,1.7274387660260953,-35.31106419734879,-19.631618567606786,10.017894744873047,39.54333,2.37794,0.07101369649171829,-0.030347786843776703,0.8640301823616028
257,2021-07-21 12:59:24.351723,1.7294056862396436,-35.310887436460185,-19.63036728712146,9.987086296081543,39.54333,2.37794,0.06954184174537659,-0.03403988480567932,0.8639583587646484
258,2021-07-21 12:59:24.392179,1.741895755889771,-35.3106992916299,-19.629120855468937,9.974326133728027,39.54333,2.37794,0.06794825941324234,-0.03798660635948181,0.863771915435791
259,2021-07-21 12:59:24.432586,1.750583388110262,-35.31049669804999,-19.627890838355672,9.974326133728027,39.54333,2.37794,0.0663272961974144,-0.042025212198495865,0.863486111164093
260,2021-07-21 12:59:24.473737,1.752225972837848,-35.30896574478531,-19.627418614643425,10.148832321166992,39.54333,2.37794,0.06560331583023071,-0.04279552772641182,0.8616334795951843
261,2021-07-21 12:59:24.514168,1.751983925969479,-35.308563173295866,-19.62633035703833,10.148832321166992,39.54333,2.37794,0.06397206336259842,-0.047076936811208725,0.8612117171287537
262,2021-07-21 12:59:24.555345,1.75453020111289,-35.30814195116521,-19.62523395965396,9.948894500732422,39.54333,2.37794,0.062299393117427826,-0.0512278750538826,0.8606812953948975
263,2021-07-21 12:59:24.595639,1.7633565481580502,-35.30771944613909,-19.624168263299293,9.93445873260498,39.54333,2.37794,0.06065674498677254,-0.055084869265556335,0.8600632548332214
264,2021-07-21 12:59:24.635760,1.767290722569312,-35.30728671738845,-19.623118236255422,10.125258445739746,39.54333,2.37794,0.05916405841708183,-0.05843677744269371,0.8593599796295166
265,2021-07-21 12:59:24.673273,1.7685601527559491,-35.30698476766767,-19.622346017459755,10.125258445739746,39.54333,2.37794,0.05780330300331116,-0.06120456010103226,0.8586432933807373
266,2021-07-21 12:59:24.709234,1.7677651083200232,-35.30663018326681,-19.621381074018284,10.125258445739746,39.54333,2.37794,0.05701466649770737,-0.06234043836593628,0.8568922877311707
267,2021-07-21 12:59:24.749579,1.771990185829391,-35.306185740241396,-19.620359648575086,10.125258445739746,39.54333,2.37794,0.05572360381484032,-0.06465054303407669,0.8558593392372131
268,2021-07-21 12:59:24.831045,1.7923753980559478,-35.30744237216353,-19.620531550232315,10.10546588897705,39.54333,2.37794,0.05364549905061722,-0.06712239235639572,0.8535341024398804
269,2021-07-21 12:59:24.871242,1.7936447451357227,-35.30726084649676,-19.619759885081386,10.269777297973633,39.54333,2.37794,0.05298160761594772,-0.06733410805463791,0.8522384762763977
270,2021-07-21 12:59:24.912179,1.7938802475143076,-35.307090423816376,-19.618970287192823,10.269777297973633,39.54333,2.37794,0.05216292291879654,-0.06815651059150696,0.8500368595123291
271,2021-07-21 12:59:24.953263,1.800932042122482,-35.30691525595437,-19.618171704759508,10.054556846618652,39.54333,2.37794,0.051690325140953064,-0.06757233291864395,0.8485742807388306
272,2021-07-21 12:59:24.994157,1.8150687261217426,-35.30674839204131,-19.61735861849697,10.039834022521973,39.54333,2.37794,0.051441043615341187,-0.06633573025465012,0.8471067547798157
273,2021-07-21 12:59:25.033629,1.8199306633331191,-35.30945363730531,-19.61706853349245,10.039834022521973,39.54333,2.37794,0.05148215964436531,-0.06451728194952011,0.8456854820251465
274,2021-07-21 12:59:25.074847,1.821176326455854,-35.30964674845019,-19.616279465527395,10.208158493041992,39.54333,2.37794,0.05172750726342201,-0.062075670808553696,0.8441216945648193
275,2021-07-21 12:59:25.115515,1.8216634868861403,-35.309854851001866,-19.615483657886596,9.99079418182373,39.54333,2.37794,0.05219130218029022,-0.05910436064004898,0.842668890953064
276,2021-07-21 12:59:25.155715,1.8288600794861847,-35.31005169226486,-19.614751343710086,9.99079418182373,39.54333,2.37794,0.051750894635915756,-0.05873190611600876,0.8403013944625854
277,2021-07-21 12:59:25.188930,1.8410119404853997,-35.310223240198475,-19.612971443533624,10.1596040725708,39.54333,2.37794,0.052574098110198975,-0.055324189364910126,0.8392787575721741
278,2021-07-21 12:59:25.228840,1.8481534213343658,-35.31046554775521,-19.612012599033978,10.1596040725708,39.54333,2.37794,0.05352377891540527,-0.051460251212120056,0.8379672765731812
279,2021-07-21 12:59:25.269383,1.850027554743689,-35.31072595313603,-19.611018686080758,10.1596040725708,39.54333,2.37794,0.05461606755852699,-0.047427933663129807,0.8366564512252808
280,2021-07-21 12:59:25.352530,1.851355208877825,-35.31130613094637,-19.60892303430266,9.938715934753418,39.54333,2.37794,0.05714947730302811,-0.038795389235019684,0.8341913223266602
281,2021-07-21 12:59:25.391933,1.85164029692553,-35.31340213225639,-19.608189692536047,10.106703758239746,39.54333,2.37794,0.05724009871482849,-0.03728257119655609,0.831864058971405
282,2021-07-21 12:59:25.432156,1.8522132695384939,-35.3139307028359,-19.60715677808469,10.106703758239746,39.54333,2.37794,0.05875515937805176,-0.032826732844114304,0.8308718800544739
283,2021-07-21 12:59:25.473063,1.8527137904669457,-35.314482283392856,-19.6060958195201,9.883069038391113,39.54333,2.37794,0.06028399616479874,-0.028549930080771446,0.8299272060394287
284,2021-07-21 12:59:25.513982,1.8531818616831561,-35.31504774697435,-19.60502469056407,9.883069038391113,39.54333,2.37794,0.061785098165273666,-0.024573517963290215,0.8291104435920715
285,2021-07-21 12:59:25.554379,1.8632502405090579,-35.31572844007718,-19.604504801289117,9.883069038391113,39.54333,2.37794,0.06323175877332687,-0.021037913858890533,0.8283719420433044
286,2021-07-21 12:59:25.594546,1.8765482169824395,-35.31630076254023,-19.603586805519573,10.06469440460205,39.54333,2.37794,0.06362570077180862,-0.01914704032242298,0.8261189460754395
287,2021-07-21 12:59:25.635021,1.8805731149032885,-35.31690488134384,-19.60257388425024,10.06469440460205,39.54333,2.37794,0.06503035128116608,-0.01595490612089634,0.8254773020744324
288,2021-07-21 12:59:25.676139,1.8816861256025719,-35.31752874649825,-19.60154150001008,9.83652400970459,39.54333,2.37794,0.06634487956762314,-0.013134527951478958,0.8248845934867859
289,2021-07-21 12:59:25.700308,1.8819716213044462,-35.317899183111834,-19.60091705914759,10.020463943481445,39.54333,2.37794,0.06732425838708878,-0.011544638313353062,0.8252827525138855
290,2021-07-21 12:59:25.749214,1.8885770541721878,-35.32039920760781,-19.60222018857078,10.020463943481445,39.54333,2.37794,0.06855764985084534,-0.009062104858458042,0.8244820237159729
291,2021-07-21 12:59:25.793012,1.8979664072853193,-35.32130952343982,-19.601467314962058,10.020463943481445,39.54333,2.37794,0.06956381350755692,-0.007343742996454239,0.8240492939949036
292,2021-07-21 12:59:25.831526,1.9003312924642737,-35.32213347684375,-19.600826411788297,9.78848648071289,39.54333,2.37794,0.07006588578224182,-0.005698144901543856,0.8221156001091003
293,2021-07-21 12:59:25.913604,1.9020863702045936,-35.32283339354441,-19.599261407598934,9.78848648071289,39.54333,2.37794,0.07157263159751892,-0.003607935970649123,0.8218790888786316
294,2021-07-21 12:59:25.952282,1.9136099415992458,-35.323550325470514,-19.598613649681653,9.969372749328613,39.54333,2.37794,0.07211505621671677,-0.003211529226973653,0.8219768404960632
295,2021-07-21 12:59:25.994052,1.9251218672889503,-35.324333390758035,-19.597925474800206,9.969372749328613,39.54333,2.37794,0.07252607494592667,-0.002917276695370674,0.8220011591911316
296,2021-07-21 12:59:26.034696,1.927749501702732,-35.32512745696143,-19.597255551182446,9.969372749328613,39.54333,2.37794,0.07298346608877182,-0.0016352286329492927,0.8201975226402283
297,2021-07-21 12:59:26.074213,1.9281465613437583,-35.32588405521018,-19.596619592806864,9.734733581542969,39.54333,2.37794,0.07319553941488266,-0.0018511407542973757,0.8203911781311035
298,2021-07-21 12:59:26.115148,1.928110518970318,-35.32674627624203,-19.596587332943823,9.734733581542969,39.54333,2.37794,0.07332944869995117,-0.002196876797825098,0.8205074071884155
299,2021-07-21 12:59:26.147344,1.9279521391551164,-35.32737677316621,-19.5961558777613,9.919683456420898,39.54333,2.37794,0.07322193682193756,-0.003037999849766493,0.8209595680236816
300,2021-07-21 12:59:26.188347,1.9278512214315526,-35.328194714049395,-19.595616298036802,9.909135818481445,39.54333,2.37794,0.07308747619390488,-0.003825716907158494,0.8209764957427979
301,2021-07-21 12:59:26.231076,1.9279539606362384,-35.32905701490015,-19.595072156713986,9.909135818481445,39.54333,2.37794,0.07280441373586655,-0.0049120765179395676,0.8208357095718384
302,2021-07-21 12:59:26.273850,1.9278606276268673,-35.32696920559418,-19.593411994328985,9.684717178344727,39.54333,2.37794,0.07304626703262329,-0.004264677409082651,0.8191085457801819
303,2021-07-21 12:59:26.310086,1.928082650118627,-35.32737027192762,-19.592862866675887,9.880403518676758,39.54333,2.37794,0.07256001234054565,-0.005885285325348377,0.8191508054733276
304,2021-07-21 12:59:26.351641,1.9395297291442057,-35.32783380697603,-19.592246009104493,9.880403518676758,39.54333,2.37794,0.071975938975811,-0.007822920568287373,0.8188492655754089
305,2021-07-21 12:59:26.391597,1.9504878434126784,-35.3282753987837,-19.591670345462923,9.868550300598145,39.54333,2.37794,0.07126189023256302,-0.010095345787703991,0.8184901475906372
306,2021-07-21 12:59:26.472754,1.9529161816357674,-35.326789144651016,-19.58992414722777,9.840206146240234,39.54333,2.37794,0.07041653990745544,-0.012717550620436668,0.81630939245224
307,2021-07-21 12:59:26.513172,1.955114041766566,-35.326937978913065,-19.589328626313964,9.840206146240234,39.54333,2.37794,0.06943249702453613,-0.015785211697220802,0.8156856894493103
308,2021-07-21 12:59:26.554078,1.9678119155747136,-35.32708264516665,-19.588738683883626,9.840206146240234,39.54333,2.37794,0.06834375858306885,-0.019170431420207024,0.8149300217628479
309,2021-07-21 12:59:26.594243,1.976602103535765,-35.32721158342332,-19.588179343481865,9.828134536743164,39.54333,2.37794,0.06725573539733887,-0.02282501943409443,0.8141077756881714
310,2021-07-21 12:59:26.635100,1.9781495579512298,-35.32733043411787,-19.587634034250378,9.828134536743164,39.54333,2.37794,0.06613460183143616,-0.026675263419747353,0.8131644129753113
311,2021-07-21 12:59:26.676076,1.9780951193961238,-35.324993296403115,-19.58490033531009,9.811088562011719,39.54333,2.37794,0.06499411910772324,-0.03071800246834755,0.8121941089630127
312,2021-07-21 12:59:26.708099,1.9778690828912686,-35.32487984197773,-19.58425549033651,9.811088562011719,39.54333,2.37794,0.06474039703607559,-0.0315883532166481,0.8106949925422668
313,2021-07-21 12:59:26.748852,1.9774822970391641,-35.324682023606464,-19.583502954500492,9.811088562011719,39.54333,2.37794,0.06360474228858948,-0.03588712215423584,0.8096606731414795
314,2021-07-21 12:59:26.789431,1.9770903493922294,-35.32446930888933,-19.582765632194967,9.79831600189209,39.54333,2.37794,0.06255517899990082,-0.040166325867176056,0.8086076974868774
315,2021-07-21 12:59:26.830102,1.9766735876144517,-35.32056553689092,-19.578739706292946,9.775235176086426,39.54333,2.37794,0.061621613800525665,-0.04445350915193558,0.8075621724128723
316,2021-07-21 12:59:26.870990,1.9766047852840385,-35.319863898971334,-19.577601330618737,9.775235176086426,39.54333,2.37794,0.06085563451051712,-0.04853086918592453,0.8065004348754883
317,2021-07-21 12:59:26.915259,1.9813271170304885,-35.31908341311835,-19.57635861893726,9.767264366149902,39.54333,2.37794,0.06017510965466499,-0.05249713361263275,0.8053643107414246
318,2021-07-21 12:59:26.952863,1.9951819849344958,-35.31843721377338,-19.57525413398843,9.767264366149902,39.54333,2.37794,0.05970044434070587,-0.054163165390491486,0.8035155534744263
319,2021-07-21 12:59:27.033084,2.0032777062704654,-35.31371884185245,-19.56777854451991,9.767264366149902,39.54333,2.37794,0.05906124413013458,-0.06088435277342796,0.8018519878387451
320,2021-07-21 12:59:27.073971,2.003686741069622,-35.312520824396834,-19.566003822256132,9.754894256591797,39.54333,2.37794,0.05909525975584984,-0.06373660266399384,0.8011158108711243
321,2021-07-21 12:59:27.114605,2.006974630982795,-35.31130265331219,-19.564216717564772,9.754894256591797,39.54333,2.37794,0.059358321130275726,-0.06610002368688583,0.8004743456840515
322,2021-07-21 12:59:27.155293,2.0166456933330066,-35.31009257944835,-19.56237804105313,9.746444702148438,39.54333,2.37794,0.059033509343862534,-0.06786729395389557,0.7985513210296631
323,2021-07-21 12:59:27.195652,2.0216056144736676,-35.306694414403594,-19.554598328943833,9.922730445861816,39.54333,2.37794,0.059654898941516876,-0.06961644440889359,0.7980324625968933
324,2021-07-21 12:59:27.228780,2.0229173585320344,-35.30540760402101,-19.55249448273599,9.922730445861816,39.54333,2.37794,0.06054641306400299,-0.07053418457508087,0.7979497313499451
