,a_nav_status_t,nav_status_D,nav_status_E,nav_status_N,nav_status_alt,nav_status_origin_lat,nav_status_origin_lon,nav_status_pitch,nav_status_roll,nav_status_yaw
0,2021-11-30 12:11:20.730897,3.504376779074339,9.057230023193394,-23.764115335896665,3.9832069873809814,39.543785,2.37884166667,0.3807244896888733,-0.1430089771747589,2.155817747116089
1,2021-11-30 12:11:20.763066,3.506631783498174,9.057740924098885,-23.763059342048297,3.9832069873809814,39.543785,2.37884166667,0.382059246301651,-0.14570041000843048,2.1567821502685547
2,2021-11-30 12:11:20.803747,3.5121658051837357,9.05839839301555,-23.761730286587447,3.9832069873809814,39.543785,2.37884166667,0.3840097188949585,-0.14865466952323914,2.1580286026000977
3,2021-11-30 12:11:20.846939,3.515222220317426,9.057948439253561,-23.758682549813162,3.977510929107666,39.543785,2.37884166667,0.3861101269721985,-0.15140222012996674,2.15934157371521
4,2021-11-30 12:11:20.885418,3.516357686033744,9.058357296500334,-23.757102292697194,3.9777114391326904,39.543785,2.37884166667,0.38785073161125183,-0.15352022647857666,2.160517692565918
5,2021-11-30 12:11:20.927665,3.517098349714728,9.058811134100168,-23.755362282510074,3.9777114391326904,39.543785,2.37884166667,0.38981714844703674,-0.15544192492961884,2.161811590194702
6,2021-11-30 12:11:20.968192,3.5156143015013135,9.063427088014164,-23.756953864463995,3.9726130962371826,39.543785,2.37884166667,0.39270156621932983,-0.15746255218982697,2.1629416942596436
7,2021-11-30 12:11:21.007099,3.5117454511299147,9.064823866748219,-23.75611282605432,3.9746203422546387,39.543785,2.37884166667,0.3943403661251068,-0.1588020771741867,2.1641528606414795
8,2021-11-30 12:11:21.048790,3.5108166255493245,9.066347364677927,-23.75522642556746,3.9714584350585938,39.543785,2.37884166667,0.3960969150066376,-0.15990622341632843,2.165476083755493
9,2021-11-30 12:11:21.087973,3.5111309688246872,9.067804881445896,-23.754407178377768,3.9714584350585938,39.543785,2.37884166667,0.39765021204948425,-0.16056446731090546,2.1667373180389404
10,2021-11-30 12:11:21.130886,3.511622929788602,9.06141894573908,-23.747717460567053,3.9686317443847656,39.543785,2.37884166667,0.39939025044441223,-0.16095708310604095,2.1681761741638184
11,2021-11-30 12:11:21.202354,3.5336539174891306,9.0609702556897,-23.7439195821357,3.9686317443847656,39.543785,2.37884166667,0.40298691391944885,-0.16206815838813782,2.17053484916687
12,2021-11-30 12:11:21.250674,3.539636527139197,9.060647489402172,-23.741322735763283,3.9651596546173096,39.543785,2.37884166667,0.4048931896686554,-0.16174492239952087,2.172252893447876
13,2021-11-30 12:11:21.283226,3.54076672160114,9.063443280824615,-23.741769942139538,3.9643566608428955,39.543785,2.37884166667,0.4057053327560425,-0.160629004240036,2.173537015914917
14,2021-11-30 12:11:21.324405,3.541492567135897,9.063824842807145,-23.74002505275476,3.9643566608428955,39.543785,2.37884166667,0.40698447823524475,-0.15947909653186798,2.175060749053955
15,2021-11-30 12:11:21.367109,3.5355588179026753,9.064219718667301,-23.73820576771887,3.9643566608428955,39.543785,2.37884166667,0.4082670211791992,-0.15808074176311493,2.176621675491333
16,2021-11-30 12:11:21.405548,3.5274352878049675,9.064575335431172,-23.73656650938364,4.004850387573242,39.543785,2.37884166667,0.4104207754135132,-0.15864866971969604,2.1778335571289062
17,2021-11-30 12:11:21.446422,3.5254973156860565,9.060295942800238,-23.731558467100992,4.004850387573242,39.543785,2.37884166667,0.41140300035476685,-0.1568780541419983,2.1793251037597656
18,2021-11-30 12:11:21.486887,3.525380554867332,9.059699758753515,-23.729127689836798,4.004850387573242,39.543785,2.37884166667,0.41224685311317444,-0.15496675670146942,2.1807987689971924
19,2021-11-30 12:11:21.527016,3.5259202637218965,9.05908902891043,-23.72669567321445,4.01883602142334,39.543785,2.37884166667,0.413019597530365,-0.15291064977645874,2.1823196411132812
20,2021-11-30 12:11:21.567462,3.53008165524667,9.061569038830251,-23.726787242246996,4.01883602142334,39.543785,2.37884166667,0.41374191641807556,-0.15078377723693848,2.183847427368164
21,2021-11-30 12:11:21.609048,3.53413457046222,9.061677983754223,-23.7248768270369,4.019160747528076,39.543785,2.37884166667,0.4157899022102356,-0.1508215367794037,2.185229778289795
22,2021-11-30 12:11:21.650442,3.5353311759768804,9.061774989387995,-23.722954195952447,4.0191650390625,39.543785,2.37884166667,0.4163041114807129,-0.14847610890865326,2.1867902278900146
23,2021-11-30 12:11:21.722499,3.5362575534205996,9.065647613907934,-23.72204881286305,4.0191650390625,39.543785,2.37884166667,0.4165516197681427,-0.14392641186714172,2.1896183490753174
24,2021-11-30 12:11:21.770937,3.5413289649196575,9.066800310706773,-23.72047777334319,4.036805152893066,39.543785,2.37884166667,0.41701740026474,-0.141693577170372,2.1915016174316406
25,2021-11-30 12:11:21.808105,3.54429188352234,9.067699893839517,-23.719275823175135,4.036805152893066,39.543785,2.37884166667,0.4168784022331238,-0.1397589147090912,2.192995548248291
26,2021-11-30 12:11:21.844517,3.545159012667597,9.068603148298944,-23.71811457504843,4.033553600311279,39.543785,2.37884166667,0.41821426153182983,-0.13930737972259521,2.1943020820617676
27,2021-11-30 12:11:21.885110,3.5453943886808066,9.073924060236074,-23.718535404643134,4.123711585998535,39.543785,2.37884166667,0.4179377257823944,-0.13747099041938782,2.195988178253174
28,2021-11-30 12:11:21.925956,3.5453458173738044,9.075915013341136,-23.71762515069144,4.123711585998535,39.543785,2.37884166667,0.41749364137649536,-0.13583433628082275,2.1977126598358154
29,2021-11-30 12:11:21.965795,3.5451914049320723,9.077892556516131,-23.71675236928349,4.123711585998535,39.543785,2.37884166667,0.41680195927619934,-0.13450367748737335,2.1994171142578125
30,2021-11-30 12:11:22.006945,3.5450111178845014,9.0799724232027,-23.715867345132132,4.171290397644043,39.543785,2.37884166667,0.416007399559021,-0.13338981568813324,2.201207399368286
31,2021-11-30 12:11:22.049070,3.5448473691802844,9.079261790067084,-23.71963807232765,4.171290397644043,39.543785,2.37884166667,0.4151238203048706,-0.1324031800031662,2.2030868530273438
32,2021-11-30 12:11:22.088115,3.544509422633023,9.080761078316213,-23.719756068916812,4.171290397644043,39.543785,2.37884166667,0.41597670316696167,-0.13190136849880219,2.2046024799346924
33,2021-11-30 12:11:22.128714,3.5450132637434275,9.082331970038275,-23.719905982623956,4.1650285720825195,39.543785,2.37884166667,0.4147603511810303,-0.13115787506103516,2.206467628479004
34,2021-11-30 12:11:22.168904,3.5490309815550933,9.083599925637252,-23.719553614129893,4.1650285720825195,39.543785,2.37884166667,0.41339942812919617,-0.1307234764099121,2.208315849304199
35,2021-11-30 12:11:22.245233,3.5522191092250197,9.08651084911371,-23.719773751822686,4.204905986785889,39.543785,2.37884166667,0.4103505313396454,-0.130553737282753,2.2118453979492188
36,2021-11-30 12:11:22.283018,3.5518392149453937,9.087988882030576,-23.71993233377365,4.199588298797607,39.543785,2.37884166667,0.41071540117263794,-0.1302657574415207,2.213372230529785
37,2021-11-30 12:11:22.323976,3.553315348347685,9.092759092378262,-23.717758089175838,4.199588298797607,39.543785,2.37884166667,0.4089524447917938,-0.13056065142154694,2.2151992321014404
38,2021-11-30 12:11:22.364474,3.5615341118922474,9.095094943985417,-23.717478493877987,4.226961135864258,39.543785,2.37884166667,0.40704676508903503,-0.13113029301166534,2.2169971466064453
39,2021-11-30 12:11:22.404785,3.5671505208602534,9.097452754678478,-23.7172281601782,4.220946788787842,39.543785,2.37884166667,0.4050239622592926,-0.1319848746061325,2.2187793254852295
40,2021-11-30 12:11:22.445451,3.5679326482920137,9.099862856006581,-23.71700111540724,4.220946788787842,39.543785,2.37884166667,0.40296661853790283,-0.13303156197071075,2.2205803394317627
41,2021-11-30 12:11:22.489137,3.5680428100298296,9.098641569145949,-23.719595852735893,4.238434791564941,39.543785,2.37884166667,0.40081164240837097,-0.13433530926704407,2.2224347591400146
42,2021-11-30 12:11:22.526932,3.570280858823672,9.100210691158965,-23.719993793675297,4.238434791564941,39.543785,2.37884166667,0.40059787034988403,-0.13452036678791046,2.22395658493042
43,2021-11-30 12:11:22.567291,3.57895353814338,9.101873014815505,-23.720462799273974,4.238434791564941,39.543785,2.37884166667,0.39814263582229614,-0.1361895054578781,2.225668430328369
44,2021-11-30 12:11:22.607772,3.582765435118138,9.103550540842114,-23.720971615849347,4.244336128234863,39.543785,2.37884166667,0.39570939540863037,-0.13791467249393463,2.2273335456848145
45,2021-11-30 12:11:22.648462,3.583068871228448,9.101293249030153,-23.729345720691892,4.244336128234863,39.543785,2.37884166667,0.3932363986968994,-0.13974466919898987,2.2290008068084717
46,2021-11-30 12:11:22.689931,3.5824654093704997,9.102214396237907,-23.73157938242156,4.244336128234863,39.543785,2.37884166667,0.39071473479270935,-0.14167240262031555,2.230675458908081
47,2021-11-30 12:11:22.729993,3.582052205064491,9.103123312871952,-23.733803378739065,4.233936786651611,39.543785,2.37884166667,0.39008426666259766,-0.142316997051239,2.232250928878784
48,2021-11-30 12:11:22.770319,3.5813603681042823,9.104718254222204,-23.733061188272714,4.233936786651611,39.543785,2.37884166667,0.3874140977859497,-0.14439576864242554,2.233870506286621
49,2021-11-30 12:11:22.810861,3.580531392879841,9.10574273766233,-23.734756074516127,4.232705116271973,39.543785,2.37884166667,0.3846544027328491,-0.14649006724357605,2.235408067703247
50,2021-11-30 12:11:22.843493,3.5798496846774257,9.106551627918194,-23.736159996564318,4.232705116271973,39.543785,2.37884166667,0.3820174038410187,-0.14838656783103943,2.2366552352905273
51,2021-11-30 12:11:22.884299,3.579085510809764,9.107561576610191,-23.737963396892056,4.223147392272949,39.543785,2.37884166667,0.37915685772895813,-0.15044066309928894,2.2381632328033447
52,2021-11-30 12:11:22.926720,3.5830818159673288,9.11226412979626,-23.739256020833583,4.223147392272949,39.543785,2.37884166667,0.37618184089660645,-0.15240532159805298,2.2397141456604004
53,2021-11-30 12:11:22.965875,3.5913703234935888,9.114042686667363,-23.740963730046918,4.220675468444824,39.543785,2.37884166667,0.3749631941318512,-0.15336382389068604,2.241189479827881
54,2021-11-30 12:11:23.006709,3.5937490863515205,9.11586784213765,-23.742791936837154,4.212224006652832,39.543785,2.37884166667,0.37199267745018005,-0.15511269867420197,2.242716073989868
55,2021-11-30 12:11:23.047734,3.593567830293383,9.117709444018384,-23.74467282812379,4.212224006652832,39.543785,2.37884166667,0.36906084418296814,-0.15655645728111267,2.2442209720611572
56,2021-11-30 12:11:23.087876,3.5930096647405128,9.109442078286378,-23.739326707989267,4.212203025817871,39.543785,2.37884166667,0.36617133021354675,-0.15764440596103668,2.245715856552124
57,2021-11-30 12:11:23.160861,3.6166195787890447,9.109593391608332,-23.740561375653748,4.212203025817871,39.543785,2.37884166667,0.3620309829711914,-0.1590343564748764,2.2484145164489746
58,2021-11-30 12:11:23.209135,3.625257138313198,9.109642098641357,-23.74140601329282,4.199374675750732,39.543785,2.37884166667,0.3588154911994934,-0.15939350426197052,2.250217914581299
59,2021-11-30 12:11:23.241717,3.6258433393649123,9.118944163594112,-23.74840937017702,4.199374675750732,39.543785,2.37884166667,0.3562473654747009,-0.15904852747917175,2.2514913082122803
60,2021-11-30 12:11:23.291249,3.625341846782342,9.121031311898168,-23.750809084354398,4.203352451324463,39.543785,2.37884166667,0.3530651032924652,-0.1588813215494156,2.253458261489868
61,2021-11-30 12:11:23.325655,3.6248787737879584,9.122493559129296,-23.752497814548644,4.203352451324463,39.543785,2.37884166667,0.350529283285141,-0.15791112184524536,2.2547860145568848
62,2021-11-30 12:11:23.367062,3.624179324428559,9.11680682276721,-23.75482963039558,4.203352451324463,39.543785,2.37884166667,0.347724974155426,-0.15667381882667542,2.2563600540161133
63,2021-11-30 12:11:23.404982,3.6230044011901352,9.116898677431177,-23.75682335386335,4.172804355621338,39.543785,2.37884166667,0.3461318910121918,-0.15694057941436768,2.2577693462371826
64,2021-11-30 12:11:23.445495,3.622110567037325,9.116983664948233,-23.758945112410466,4.172804355621338,39.543785,2.37884166667,0.34333500266075134,-0.15503184497356415,2.25946044921875
65,2021-11-30 12:11:23.485989,3.6212478926064677,9.117047458815556,-23.761098741805018,4.163549900054932,39.543785,2.37884166667,0.340535968542099,-0.15274153649806976,2.2611539363861084
66,2021-11-30 12:11:23.526400,3.6331459040453917,9.11780226505107,-23.759753605940723,4.143964767456055,39.543785,2.37884166667,0.33771517872810364,-0.14996463060379028,2.262902021408081
67,2021-11-30 12:11:23.567263,3.649754378638823,9.117973579897987,-23.76119984652833,4.143964767456055,39.543785,2.37884166667,0.3348976969718933,-0.1467694193124771,2.264758825302124
68,2021-11-30 12:11:23.609203,3.653968266930216,9.118099704796347,-23.7627646406886,4.137152194976807,39.543785,2.37884166667,0.33291152119636536,-0.14618706703186035,2.2663919925689697
69,2021-11-30 12:11:23.689132,3.6534430473237207,9.117127435322873,-23.7652635651382,4.115078926086426,39.543785,2.37884166667,0.3274767994880676,-0.13869088888168335,2.270324230194092
70,2021-11-30 12:11:23.729698,3.65642249603107,9.116966896006824,-23.766670185343227,4.115078926086426,39.543785,2.37884166667,0.3246835768222809,-0.1347109079360962,2.2724151611328125
71,2021-11-30 12:11:23.763473,3.6592103122433017,9.116820410727252,-23.767843719925555,4.115078926086426,39.543785,2.37884166667,0.3221721351146698,-0.13086052238941193,2.274261474609375
72,2021-11-30 12:11:23.811125,3.659339178900609,9.116570263116483,-23.76953573930933,4.115078926086426,39.543785,2.37884166667,0.3189115524291992,-0.12648428976535797,2.2767584323883057
73,2021-11-30 12:11:23.843357,3.6586148034116235,9.118114516428788,-23.768268654244434,4.092103481292725,39.543785,2.37884166667,0.3172239363193512,-0.1252770721912384,2.27813982963562
74,2021-11-30 12:11:23.883807,3.6583318099438795,9.118214852127572,-23.769203960383273,4.092103481292725,39.543785,2.37884166667,0.3142031133174896,-0.12091050297021866,2.2803962230682373
75,2021-11-30 12:11:23.924237,3.6688752143290158,9.118298745945925,-23.77014804943782,4.092103481292725,39.543785,2.37884166667,0.31112322211265564,-0.11665499210357666,2.28265643119812
76,2021-11-30 12:11:23.965754,3.6791253876993535,9.119561082679862,-23.770147416277364,4.085051536560059,39.543785,2.37884166667,0.3078860938549042,-0.11244628578424454,2.285019636154175
77,2021-11-30 12:11:24.005969,3.6807451125595674,9.119877571932568,-23.770854448574575,4.067287445068359,39.543785,2.37884166667,0.304694265127182,-0.10845751315355301,2.2872965335845947
78,2021-11-30 12:11:24.049125,3.680581552869906,9.120201572461381,-23.771616996697546,4.067287445068359,39.543785,2.37884166667,0.30126243829727173,-0.10450795292854309,2.28973126411438
79,2021-11-30 12:11:24.087493,3.6800886879372134,9.120462478760183,-23.77232912348405,4.062085151672363,39.543785,2.37884166667,0.2989776134490967,-0.10256621241569519,2.291503429412842
80,2021-11-30 12:11:24.128570,3.6830069690591256,9.123203385838993,-23.772331897377903,4.0408782958984375,39.543785,2.37884166667,0.2954752445220947,-0.0988527312874794,2.2938594818115234
81,2021-11-30 12:11:24.209176,3.6841456379658393,9.124798497958006,-23.773422387384667,4.044000148773193,39.543785,2.37884166667,0.28828540444374084,-0.09255393594503403,2.2984185218811035
82,2021-11-30 12:11:24.249824,3.683038555057653,9.125595308762772,-23.77397235230592,4.044000148773193,39.543785,2.37884166667,0.28445419669151306,-0.0900721400976181,2.3006322383880615
83,2021-11-30 12:11:24.290777,3.687844363942925,9.127236234154385,-23.775540785118878,4.021092891693115,39.543785,2.37884166667,0.2816702127456665,-0.08804179728031158,2.3025639057159424
84,2021-11-30 12:11:24.323358,3.7010872442292535,9.128006321724055,-23.776141812733805,4.021092891693115,39.543785,2.37884166667,0.2780982553958893,-0.08645997196435928,2.304354429244995
85,2021-11-30 12:11:24.363643,3.7117723608229394,9.128959386439044,-23.77690206468892,4.021092891693115,39.543785,2.37884166667,0.2739267349243164,-0.08497045934200287,2.306403636932373
86,2021-11-30 12:11:24.404009,3.7128681869847577,9.12991249691542,-23.777670426098858,3.99808931350708,39.543785,2.37884166667,0.26967719197273254,-0.08392082154750824,2.3083994388580322
87,2021-11-30 12:11:24.444552,3.711874603931499,9.136201452297366,-23.780422709796355,3.99808931350708,39.543785,2.37884166667,0.2652836740016937,-0.08332835137844086,2.3103554248809814
88,2021-11-30 12:11:24.488269,3.711610042234042,9.138412393710688,-23.781720527680463,3.99808931350708,39.543785,2.37884166667,0.2605309784412384,-0.0829881876707077,2.312379837036133
89,2021-11-30 12:11:24.525901,3.7140329652636486,9.14035118288,-23.782859612249425,3.994246482849121,39.543785,2.37884166667,0.25756460428237915,-0.08175164461135864,2.3140804767608643
90,2021-11-30 12:11:24.566954,3.715004008792446,9.13764166989772,-23.7827255008642,3.994246482849121,39.543785,2.37884166667,0.2527671456336975,-0.0820009857416153,2.3158881664276123
91,2021-11-30 12:11:24.607326,3.7138421882787203,9.138612333869025,-23.783631809938196,3.9939942359924316,39.543785,2.37884166667,0.2480096071958542,-0.08241274952888489,2.3176145553588867
92,2021-11-30 12:11:24.648484,3.7122364286031444,9.139601432747888,-23.784567747072035,3.9910945892333984,39.543785,2.37884166667,0.24309620261192322,-0.08302973210811615,2.3193483352661133
93,2021-11-30 12:11:24.729460,3.7026797030426066,9.136730045582215,-23.78450058659775,3.9910945892333984,39.543785,2.37884166667,0.23472411930561066,-0.08317846059799194,2.322709321975708
94,2021-11-30 12:11:24.761645,3.698860652929134,9.136650606453605,-23.784899400862482,3.92254638671875,39.543785,2.37884166667,0.23045547306537628,-0.08457010239362717,2.3239564895629883
95,2021-11-30 12:11:24.802215,3.696360153701228,9.136539696018836,-23.78540230215017,3.92254638671875,39.543785,2.37884166667,0.2254733145236969,-0.08606849610805511,2.3254921436309814
96,2021-11-30 12:11:24.843159,3.6945209624333524,9.136408437378256,-23.785910163599617,3.9254367351531982,39.543785,2.37884166667,0.22052066028118134,-0.08764439076185226,2.327021837234497
97,2021-11-30 12:11:24.891631,3.701701319453403,9.137257741743475,-23.78638613954851,3.908665180206299,39.543785,2.37884166667,0.21490097045898438,-0.08928023278713226,2.328861951828003
98,2021-11-30 12:11:24.927485,3.7164132340599982,9.137298463932131,-23.786811514863142,3.908665180206299,39.543785,2.37884166667,0.21049855649471283,-0.09101945906877518,2.330190420150757
99,2021-11-30 12:11:24.965026,3.7235346135396195,9.13733995768812,-23.78725774030333,3.908665180206299,39.543785,2.37884166667,0.20694896578788757,-0.09102801233530045,2.331676483154297
100,2021-11-30 12:11:25.005146,3.7237174288276127,9.137360474542184,-23.78773863197813,3.914109468460083,39.543785,2.37884166667,0.20234952867031097,-0.0928557813167572,2.3331186771392822
101,2021-11-30 12:11:25.045750,3.7225292509466072,9.137367468961557,-23.788226523822935,3.914109468460083,39.543785,2.37884166667,0.19779708981513977,-0.09450804442167282,2.3346095085144043
102,2021-11-30 12:11:25.087028,3.72109499230646,9.137361646942159,-23.788723405122635,3.916412591934204,39.543785,2.37884166667,0.19328312575817108,-0.09603553265333176,2.336158037185669
103,2021-11-30 12:11:25.127109,3.7197324760884882,9.137342701603918,-23.78920721444899,3.9217376708984375,39.543785,2.37884166667,0.18899710476398468,-0.09733226150274277,2.3376705646514893
104,2021-11-30 12:11:25.159988,3.7186188656200567,9.137323209943588,-23.789602127910683,3.9217376708984375,39.543785,2.37884166667,0.18587402999401093,-0.09757159650325775,2.338933229446411
105,2021-11-30 12:11:25.208779,3.7169203014304424,9.134760063117396,-23.785499463079738,3.892051935195923,39.543785,2.37884166667,0.18086962401866913,-0.09885020554065704,2.3407604694366455
106,2021-11-30 12:11:25.289772,3.7236440468506626,9.133854183932595,-23.785008682749464,3.8968582153320312,39.543785,2.37884166667,0.17287087440490723,-0.10041972994804382,2.343742609024048
107,2021-11-30 12:11:25.330472,3.735320302994543,9.133375508836464,-23.784751173931447,3.8968582153320312,39.543785,2.37884166667,0.1690797358751297,-0.10073796659708023,2.3452658653259277
108,2021-11-30 12:11:25.365940,3.737909763698526,9.132940049406097,-23.78451328740226,3.8968582153320312,39.543785,2.37884166667,0.1658344566822052,-0.10085978358983994,2.3465678691864014
109,2021-11-30 12:11:25.404332,3.7374799901378233,9.132456020366817,-23.784237448157597,3.8968582153320312,39.543785,2.37884166667,0.1622694581747055,-0.10104040801525116,2.3480019569396973
110,2021-11-30 12:11:25.444542,3.736267269313456,9.131925082930266,-23.78393717261257,3.9033772945404053,39.543785,2.37884166667,0.15870662033557892,-0.10085253417491913,2.349482297897339
111,2021-11-30 12:11:25.485524,3.734875343501831,9.131780072988516,-23.781277874546728,3.9033772945404053,39.543785,2.37884166667,0.1552131623029709,-0.10044101625680923,2.3510212898254395
112,2021-11-30 12:11:25.526250,3.733659779663676,9.131275303176821,-23.780577675335433,3.871202230453491,39.543785,2.37884166667,0.15181927382946014,-0.09978210180997849,2.3525800704956055
113,2021-11-30 12:11:25.566125,3.732558014375073,9.130765730442334,-23.779872673896698,3.871202230453491,39.543785,2.37884166667,0.1486019790172577,-0.098951555788517,2.3540968894958496
114,2021-11-30 12:11:25.607606,3.731564819824962,9.130226087787719,-23.779115614033547,3.878901481628418,39.543785,2.37884166667,0.14488764107227325,-0.0988369807600975,2.3556387424468994
115,2021-11-30 12:11:25.647455,3.7303127063450465,9.129686455330608,-23.778372014996894,3.878901481628418,39.543785,2.37884166667,0.14186665415763855,-0.09775551408529282,2.357201337814331
116,2021-11-30 12:11:25.689432,3.732335978961055,9.129103667396448,-23.7775728925147,3.878901481628418,39.543785,2.37884166667,0.13874025642871857,-0.09652034938335419,2.3588082790374756
117,2021-11-30 12:11:25.769592,3.735699160193498,9.1279444218279,-23.775997173147722,3.887334108352661,39.543785,2.37884166667,0.1331842690706253,-0.09353088587522507,2.361994504928589
118,2021-11-30 12:11:25.809924,3.7349311881057283,9.130975925435319,-23.77694843222687,3.8491129875183105,39.543785,2.37884166667,0.13056018948554993,-0.09178359806537628,2.3635976314544678
119,2021-11-30 12:11:25.842843,3.7342236525708117,9.130901965847515,-23.77647034748655,3.8491129875183105,39.543785,2.37884166667,0.1278175562620163,-0.09132950752973557,2.364835500717163
120,2021-11-30 12:11:25.883613,3.7299721720546044,9.130795704117164,-23.775871132979955,3.8491129875183105,39.543785,2.37884166667,0.12533850967884064,-0.08932686597108841,2.3664166927337646
121,2021-11-30 12:11:25.923810,3.7246587474022648,9.13068601653045,-23.775268354964428,3.8491129875183105,39.543785,2.37884166667,0.12292806804180145,-0.08721166104078293,2.3679897785186768
122,2021-11-30 12:11:25.964411,3.722526834767636,9.130570474767461,-23.774649686877932,3.859330892562866,39.543785,2.37884166667,0.12059669196605682,-0.08499214053153992,2.3695566654205322
123,2021-11-30 12:11:26.005171,3.721448792244126,9.130449940820347,-23.7740188832369,3.859330892562866,39.543785,2.37884166667,0.11833615601062775,-0.08271786570549011,2.3711209297180176
124,2021-11-30 12:11:26.048293,3.7215018873652492,9.130318439080348,-23.7733427948552,3.859330892562866,39.543785,2.37884166667,0.11595142632722855,-0.08034579455852509,2.3727610111236572
125,2021-11-30 12:11:26.086195,3.7322505220500504,9.130213416523963,-23.772763000516516,3.8686723709106445,39.543785,2.37884166667,0.11310641467571259,-0.07940922677516937,2.3741700649261475
126,2021-11-30 12:11:26.127187,3.7427421957369127,9.134657365766783,-23.776025476261935,3.832364797592163,39.543785,2.37884166667,0.11099450290203094,-0.07706525176763535,2.375676155090332
127,2021-11-30 12:11:26.167480,3.7444834148084913,9.135158336699535,-23.775920729960568,3.832364797592163,39.543785,2.37884166667,0.10896754264831543,-0.0747721940279007,2.3771519660949707
128,2021-11-30 12:11:26.248816,3.7426854325989987,9.13619763095446,-23.775715733725463,3.8393545150756836,39.543785,2.37884166667,0.10490038245916367,-0.0703435018658638,2.3799071311950684
129,2021-11-30 12:11:26.282241,3.7386754025085254,9.136643942465058,-23.775631519808673,3.8393545150756836,39.543785,2.37884166667,0.10253269225358963,-0.06932620704174042,2.381094217300415
130,2021-11-30 12:11:26.330550,3.733607355943706,9.137288549334432,-23.7755126378735,3.8393545150756836,39.543785,2.37884166667,0.1000657007098198,-0.06698454171419144,2.3826732635498047
131,2021-11-30 12:11:26.363086,3.732246990830375,9.137726972458939,-23.775436244155387,3.847683906555176,39.543785,2.37884166667,0.0987122505903244,-0.06528380513191223,2.3836402893066406
132,2021-11-30 12:11:26.407394,3.731245730636912,9.140823921816756,-23.778578519773006,3.8135077953338623,39.543785,2.37884166667,0.09652704745531082,-0.06335677206516266,2.3849425315856934
133,2021-11-30 12:11:26.444197,3.7305550994485968,9.141684238400869,-23.77895351179973,3.8135077953338623,39.543785,2.37884166667,0.09485584497451782,-0.06179188936948776,2.3859593868255615
134,2021-11-30 12:11:26.486749,3.7298175654189905,9.1426984291141,-23.779401280396012,3.8135077953338623,39.543785,2.37884166667,0.09280486404895782,-0.06022685393691063,2.387078285217285
135,2021-11-30 12:11:26.525428,3.7289472689400918,9.14364181460991,-23.779825450906834,3.8213846683502197,39.543785,2.37884166667,0.09025729447603226,-0.059058744460344315,2.388314723968506
136,2021-11-30 12:11:26.565928,3.7280638632054233,9.144640867680678,-23.780279469487404,3.8213846683502197,39.543785,2.37884166667,0.08841463923454285,-0.05778196454048157,2.389317274093628
137,2021-11-30 12:11:26.607420,3.7272020821239624,9.145682839184898,-23.780759577758342,3.8213846683502197,39.543785,2.37884166667,0.08652051538228989,-0.0566224679350853,2.3903303146362305
138,2021-11-30 12:11:26.647642,3.726410972044398,9.14671072143247,-23.781239218177443,3.829285144805908,39.543785,2.37884166667,0.08472167700529099,-0.05566238984465599,2.391277313232422
139,2021-11-30 12:11:26.687883,3.7256669703741347,9.14775657661509,-23.78173394923955,3.829285144805908,39.543785,2.37884166667,0.08290831744670868,-0.054790835827589035,2.392195701599121
140,2021-11-30 12:11:26.761158,3.7243526458822984,9.151935841008203,-23.78573285948088,3.79866361618042,39.543785,2.37884166667,0.07910492271184921,-0.053167276084423065,2.3940062522888184
141,2021-11-30 12:11:26.810285,3.7234298513899846,9.153638277930622,-23.786893077766607,3.806797981262207,39.543785,2.37884166667,0.07680831104516983,-0.05228032171726227,2.3951523303985596
142,2021-11-30 12:11:26.850447,3.725656844205344,9.15505622125477,-23.78786680444768,3.806797981262207,39.543785,2.37884166667,0.07503757625818253,-0.05178187042474747,2.396028995513916
143,2021-11-30 12:11:26.883388,3.7324881174679376,9.156237215027485,-23.788684286380782,3.812739849090576,39.543785,2.37884166667,0.07370053231716156,-0.05154695734381676,2.3966944217681885
144,2021-11-30 12:11:26.925503,3.737963029973061,9.157769596088553,-23.789755345027192,3.812739849090576,39.543785,2.37884166667,0.07187561690807343,-0.051171496510505676,2.397641181945801
145,2021-11-30 12:11:26.964371,3.738541408956878,9.159205829609299,-23.79077182022422,3.812739849090576,39.543785,2.37884166667,0.06961056590080261,-0.05039359629154205,2.39865779876709
146,2021-11-30 12:11:27.004766,3.7380396584278626,9.160720911057199,-23.79184320638718,3.8201358318328857,39.543785,2.37884166667,0.06800644099712372,-0.05016624927520752,2.399545907974243
147,2021-11-30 12:11:27.045385,3.734200765810613,9.16429690050796,-23.79386278163025,3.8201358318328857,39.543785,2.37884166667,0.06641758233308792,-0.05001688376069069,2.4004337787628174
148,2021-11-30 12:11:27.086207,3.7241109699010573,9.166170645103357,-23.79512572419363,3.7899458408355713,39.543785,2.37884166667,0.06496045738458633,-0.04990382492542267,2.40140700340271
149,2021-11-30 12:11:27.126804,3.7190094658972304,9.168064414063235,-23.796409205112994,3.797412633895874,39.543785,2.37884166667,0.0634884312748909,-0.04987967759370804,2.4024205207824707
150,2021-11-30 12:11:27.169122,3.7174484589564285,9.17007115234503,-23.797776635841004,3.797412633895874,39.543785,2.37884166667,0.06191756948828697,-0.04999270290136337,2.4034829139709473
151,2021-11-30 12:11:27.248705,3.7182351213511957,9.17393362968227,-23.800438792243902,3.797412633895874,39.543785,2.37884166667,0.05839070305228233,-0.04979931563138962,2.40553617477417
152,2021-11-30 12:11:27.289531,3.722297334968429,9.17596142769384,-23.801845666544306,3.8057196140289307,39.543785,2.37884166667,0.056937944144010544,-0.05016672611236572,2.4065937995910645
153,2021-11-30 12:11:27.329472,3.723322625949677,9.177973922205917,-23.803247726856956,3.8057196140289307,39.543785,2.37884166667,0.05567663908004761,-0.05066181719303131,2.407681941986084
154,2021-11-30 12:11:27.370271,3.723082462823907,9.181616779752243,-23.80387589230722,3.7757301330566406,39.543785,2.37884166667,0.05436788871884346,-0.05128726735711098,2.4087975025177
155,2021-11-30 12:11:27.410937,3.7227398385807957,9.183942740045058,-23.805250260530904,3.7757301330566406,39.543785,2.37884166667,0.05236233025789261,-0.051009539514780045,2.4098620414733887
156,2021-11-30 12:11:27.444334,3.715126131154641,9.185881017597238,-23.806384928394902,3.7757301330566406,39.543785,2.37884166667,0.05155520141124725,-0.05199658125638962,2.4107983112335205
157,2021-11-30 12:11:27.484424,3.700614603098501,9.188238256744654,-23.807769123058126,3.785768508911133,39.543785,2.37884166667,0.05055177956819534,-0.053075529634952545,2.4119560718536377
158,2021-11-30 12:11:27.524633,3.6951210181927516,9.1906411044536,-23.809181780653923,3.785768508911133,39.543785,2.37884166667,0.04940575361251831,-0.05439453199505806,2.413123369216919
159,2021-11-30 12:11:27.565165,3.6935958990651128,9.193100563004087,-23.810631429848364,3.785768508911133,39.543785,2.37884166667,0.04824276641011238,-0.055827610194683075,2.41432785987854
160,2021-11-30 12:11:27.608248,3.6928641039541557,9.195755197191215,-23.812200666506207,3.7951269149780273,39.543785,2.37884166667,0.046980924904346466,-0.057344142347574234,2.4155476093292236
161,2021-11-30 12:11:27.647198,3.692445998253561,9.199707850795878,-23.81274333947484,3.7738170623779297,39.543785,2.37884166667,0.04526018723845482,-0.05755706503987312,2.416612386703491
162,2021-11-30 12:11:27.687534,3.6919372252477474,9.202498048064363,-23.814122626124657,3.7738170623779297,39.543785,2.37884166667,0.04422870650887489,-0.059276752173900604,2.417786121368408
163,2021-11-30 12:11:27.729193,3.6914868159731262,9.205421725307813,-23.815570509090005,3.781024694442749,39.543785,2.37884166667,0.0432872548699379,-0.06103001534938812,2.419055461883545
164,2021-11-30 12:11:27.769478,3.691116387467967,9.208291742514552,-23.816991431670246,3.781024694442749,39.543785,2.37884166667,0.04244093596935272,-0.06293487548828125,2.42022705078125
165,2021-11-30 12:11:27.850154,3.677918400478605,9.214151558090048,-23.81991619350221,3.781024694442749,39.543785,2.37884166667,0.04026895761489868,-0.065439872443676,2.4225704669952393
166,2021-11-30 12:11:27.882564,3.6674810752841562,9.216555406440593,-23.821099797873334,3.790393829345703,39.543785,2.37884166667,0.0400293804705143,-0.06731817871332169,2.4235401153564453
167,2021-11-30 12:11:27.922830,3.6635432605429914,9.21958036290163,-23.822596705848476,3.790393829345703,39.543785,2.37884166667,0.03943205997347832,-0.0693073496222496,2.4247312545776367
168,2021-11-30 12:11:27.963255,3.662735012776893,9.224270170801216,-23.825355904797128,3.790393829345703,39.543785,2.37884166667,0.03882128745317459,-0.07143818587064743,2.4259605407714844
169,2021-11-30 12:11:28.004545,3.6622878707578352,9.227700387348474,-23.82713267194853,3.7770700454711914,39.543785,2.37884166667,0.038218773901462555,-0.07361294329166412,2.4271938800811768
170,2021-11-30 12:11:28.047853,3.655460018042386,9.231346390888213,-23.829026168997803,3.7770700454711914,39.543785,2.37884166667,0.03774568811058998,-0.0758063942193985,2.4284896850585938
171,2021-11-30 12:11:28.085555,3.646686992243106,11.709604122744821,-34.011186017905594,3.785243034362793,39.543785,2.37884166667,0.03548145666718483,-0.07611812651157379,2.4311509132385254
172,2021-11-30 12:11:28.126144,3.644025613866847,11.713195507292408,-34.01335393638741,3.785243034362793,39.543785,2.37884166667,0.035267423838377,-0.07843703031539917,2.432100296020508
173,2021-11-30 12:11:28.166611,3.6433443835936012,11.71682270745169,-34.01554087780016,3.785243034362793,39.543785,2.37884166667,0.03509270399808884,-0.08069723844528198,2.4330456256866455
174,2021-11-30 12:11:28.207306,3.643113522530239,11.720516262624875,-34.01776573802327,3.793706178665161,39.543785,2.37884166667,0.035009048879146576,-0.08292271941900253,2.433983087539673
175,2021-11-30 12:11:28.248712,3.642994050396308,11.724321156413161,-34.020056602647415,3.7843785285949707,39.543785,2.37884166667,0.03499646112322807,-0.08508118242025375,2.4349305629730225
176,2021-11-30 12:11:28.329548,3.6429365432438803,11.731569495334584,-34.022636594148764,3.7843785285949707,39.543785,2.37884166667,0.03406882658600807,-0.08841351419687271,2.4369091987609863
177,2021-11-30 12:11:28.361957,3.6429470468431098,11.734619716553897,-34.02425740478703,3.7843785285949707,39.543785,2.37884166667,0.03451109305024147,-0.09015040844678879,2.4375197887420654
178,2021-11-30 12:11:28.402725,3.6423841289539207,11.738495682650537,-34.02631917255759,3.7843785285949707,39.543785,2.37884166667,0.0348447822034359,-0.09192153811454773,2.4382660388946533
179,2021-11-30 12:11:28.443582,3.6346921334225795,11.74242253597166,-34.0284014165372,3.7942850589752197,39.543785,2.37884166667,0.03544986620545387,-0.09340057522058487,2.4388787746429443
180,2021-11-30 12:11:28.487214,3.627047802968325,11.74666642609938,-34.030645064969235,3.7942850589752197,39.543785,2.37884166667,0.03608333319425583,-0.09483125060796738,2.4395101070404053
181,2021-11-30 12:11:28.524373,3.6256633897494135,11.750323767002204,-34.032592417748624,3.7942850589752197,39.543785,2.37884166667,0.03547313064336777,-0.0959155485033989,2.440392255783081
182,2021-11-30 12:11:28.565108,3.6255626995558643,11.75437152754154,-34.03472459662718,3.803086996078491,39.543785,2.37884166667,0.03620302677154541,-0.0969647541642189,2.4408373832702637
183,2021-11-30 12:11:28.605386,3.6224751889305358,11.758861929942928,-34.037620035550624,3.7980329990386963,39.543785,2.37884166667,0.03709392249584198,-0.09781719744205475,2.441197395324707
184,2021-11-30 12:11:28.646026,3.6053089546965094,11.763041877099049,-34.03988903290863,3.7980329990386963,39.543785,2.37884166667,0.03846321627497673,-0.09813037514686584,2.4413840770721436
185,2021-11-30 12:11:28.686954,3.593311651449138,11.767297274094938,-34.04219328497859,3.805197238922119,39.543785,2.37884166667,0.03979236260056496,-0.09817305952310562,2.441497325897217
186,2021-11-30 12:11:28.730150,3.5908706914982313,11.77183917093233,-34.044649377005214,3.805197238922119,39.543785,2.37884166667,0.04093870520591736,-0.09805072844028473,2.4415948390960693
187,2021-11-30 12:11:28.809400,3.5883145542113373,11.780306617366977,-34.04923011508466,3.805197238922119,39.543785,2.37884166667,0.04214267060160637,-0.0981065183877945,2.4421756267547607
188,2021-11-30 12:11:28.850029,3.579406872154898,11.784699771319929,-34.05159176407689,3.8140039443969727,39.543785,2.37884166667,0.04388079419732094,-0.09700611978769302,2.4421041011810303
189,2021-11-30 12:11:28.889861,3.575622730454264,11.789987054462852,-34.055556478025885,3.8140039443969727,39.543785,2.37884166667,0.04561261087656021,-0.0956125259399414,2.441969871520996
190,2021-11-30 12:11:28.930623,3.575237163266937,11.794614778717031,-34.05822359666723,3.8140039443969727,39.543785,2.37884166667,0.04740719869732857,-0.09392429888248444,2.441856861114502
191,2021-11-30 12:11:28.963595,3.575530151836953,11.798412374975294,-34.06041138875498,3.812966823577881,39.543785,2.37884166667,0.047529272735118866,-0.0940428227186203,2.4422266483306885
192,2021-11-30 12:11:29.003983,3.5763022413207795,11.80307102817544,-34.06309971589068,3.820939779281616,39.543785,2.37884166667,0.04955831915140152,-0.09185564517974854,2.442059278488159
193,2021-11-30 12:11:29.044636,3.5770707492025777,11.807798944945642,-34.06583365140466,3.820939779281616,39.543785,2.37884166667,0.051700443029403687,-0.08938508480787277,2.4419608116149902
194,2021-11-30 12:11:29.084981,3.5778782705744554,11.812527615326742,-34.06857484246226,3.820939779281616,39.543785,2.37884166667,0.053990352898836136,-0.08666802942752838,2.4419310092926025
195,2021-11-30 12:11:29.125795,3.5786641424328947,13.215380533840499,-39.64306788962363,3.829073905944824,39.543785,2.37884166667,0.055382050573825836,-0.08333196491003036,2.443525791168213
196,2021-11-30 12:11:29.168245,3.579209901826559,13.220558785647274,-39.64646292069936,3.829073905944824,39.543785,2.37884166667,0.058052852749824524,-0.08029082417488098,2.443384885787964
197,2021-11-30 12:11:29.206984,3.5742997123907037,13.22568701498539,-39.64827196052089,3.8278117179870605,39.543785,2.37884166667,0.05891982093453407,-0.07951714098453522,2.4437177181243896
198,2021-11-30 12:11:29.248032,3.556414572266898,13.230827012869389,-39.65137159290801,3.8278117179870605,39.543785,2.37884166667,0.062320563942193985,-0.07609227299690247,2.4436686038970947
199,2021-11-30 12:11:29.329131,3.547399723753427,13.2411061314538,-39.65758430813751,3.8278117179870605,39.543785,2.37884166667,0.06815831363201141,-0.06946513056755066,2.4439592361450195
200,2021-11-30 12:11:29.365212,3.5473150088687864,13.245727217160447,-39.66038357702927,3.835623025894165,39.543785,2.37884166667,0.07079381495714188,-0.0665307566523552,2.444183588027954
201,2021-11-30 12:11:29.402435,3.5484488108574452,13.250563737351388,-39.66330068074978,3.835623025894165,39.543785,2.37884166667,0.07177355885505676,-0.06537751108407974,2.444545269012451
202,2021-11-30 12:11:29.450727,3.549572505003271,13.256852105793762,-39.667113269238044,3.835623025894165,39.543785,2.37884166667,0.07481557875871658,-0.06221947446465492,2.444993495941162
203,2021-11-30 12:11:29.483504,3.5503646992318987,13.26114175776743,-39.66972108153789,3.8425133228302,39.543785,2.37884166667,0.07736708968877792,-0.05985161289572716,2.445326089859009
204,2021-11-30 12:11:29.523810,3.55131551512286,13.26650603601809,-39.67133798415777,3.8425133228302,39.543785,2.37884166667,0.0801086276769638,-0.057542428374290466,2.4458014965057373
205,2021-11-30 12:11:29.564729,3.552095508090391,13.271964663541253,-39.67439516536551,3.842097759246826,39.543785,2.37884166667,0.08279134333133698,-0.05557079613208771,2.4463562965393066
206,2021-11-30 12:11:29.608377,3.5455900461307013,13.277836370065152,-39.67767588857767,3.846635341644287,39.543785,2.37884166667,0.08574796468019485,-0.05370808765292168,2.446955680847168
207,2021-11-30 12:11:29.646387,3.532657494270994,13.283006213836925,-39.680552399276564,3.846635341644287,39.543785,2.37884166667,0.08752112835645676,-0.05237259715795517,2.4474146366119385
208,2021-11-30 12:11:29.686587,3.5285845553690995,13.288496942239453,-39.683609726470515,3.846635341644287,39.543785,2.37884166667,0.09015068411827087,-0.05108203366398811,2.447976589202881
209,2021-11-30 12:11:29.728139,3.5282762439180875,13.294221702347121,-39.686792343049774,3.852350950241089,39.543785,2.37884166667,0.0925946831703186,-0.05012687295675278,2.448556423187256
210,2021-11-30 12:11:29.804043,3.5289387547044804,13.304807987593486,-39.692654402781265,3.852350950241089,39.543785,2.37884166667,0.0969826877117157,-0.04960810765624046,2.4494590759277344
211,2021-11-30 12:11:29.849563,3.530051330641177,13.311138793541497,-39.69946800528834,3.852350950241089,39.543785,2.37884166667,0.09865681827068329,-0.04861019551753998,2.4500105381011963
212,2021-11-30 12:11:29.890606,3.5307850141663546,13.31697282102804,-39.70315071566631,3.8565261363983154,39.543785,2.37884166667,0.10083094239234924,-0.04897432029247284,2.4504199028015137
213,2021-11-30 12:11:29.930835,3.531499485923259,13.322740587166555,-39.706786349094784,3.8565261363983154,39.543785,2.37884166667,0.10289550572633743,-0.049742989242076874,2.4508016109466553
214,2021-11-30 12:11:29.962642,3.532027319537529,13.327337628399752,-39.709675714373454,3.8614556789398193,39.543785,2.37884166667,0.10453157126903534,-0.05093056708574295,2.4510533809661865
215,2021-11-30 12:11:30.003327,3.5229163378621706,13.333255957416258,-39.71339312555358,3.8614556789398193,39.543785,2.37884166667,0.10670258104801178,-0.05224597826600075,2.451331377029419
216,2021-11-30 12:11:30.048598,3.510002678452819,13.339897089571801,-39.717555877240414,3.8614556789398193,39.543785,2.37884166667,0.10901656001806259,-0.053866662085056305,2.451646089553833
217,2021-11-30 12:11:30.085153,3.5072592543812315,13.345293247752421,-39.720960700459784,3.8666443824768066,39.543785,2.37884166667,0.11046762764453888,-0.05375256389379501,2.4520087242126465
218,2021-11-30 12:11:30.125960,3.5070449464751894,13.35138812506879,-39.72477033392897,3.874666929244995,39.543785,2.37884166667,0.11202597618103027,-0.05585198476910591,2.452195405960083
219,2021-11-30 12:11:30.165870,3.5075191516569917,13.355966582953606,-39.73156254740115,3.874666929244995,39.543785,2.37884166667,0.11351142823696136,-0.05823317915201187,2.4523675441741943
220,2021-11-30 12:11:30.206546,3.5015509893391337,13.361936759021223,-39.73583683933243,3.874666929244995,39.543785,2.37884166667,0.11521708220243454,-0.06067465990781784,2.4525277614593506
221,2021-11-30 12:11:30.247479,3.493319201349646,13.367990200245426,-39.74017091915874,3.880276918411255,39.543785,2.37884166667,0.11692894250154495,-0.06328995525836945,2.4526772499084473
222,2021-11-30 12:11:30.289488,3.491241791275242,13.374227628796163,-39.7446779336049,3.880276918411255,39.543785,2.37884166667,0.11849161237478256,-0.06384573876857758,2.4529950618743896
223,2021-11-30 12:11:30.370099,3.491701094741442,13.386398874730006,-39.75339527211775,3.880276918411255,39.543785,2.37884166667,0.12098097056150436,-0.06960564851760864,2.4532697200775146
224,2021-11-30 12:11:30.410260,3.492227257877143,13.392531958666574,-39.7577912376809,3.885404348373413,39.543785,2.37884166667,0.12222377955913544,-0.0725361630320549,2.4533743858337402
225,2021-11-30 12:11:30.450213,3.4927635437732056,13.398678155321694,-39.76220045073545,3.885404348373413,39.543785,2.37884166667,0.12349638342857361,-0.0754183679819107,2.4534912109375
226,2021-11-30 12:11:30.485761,3.4928865657343233,13.40243761978074,-39.76618861947237,3.8492255210876465,39.543785,2.37884166667,0.12467915564775467,-0.07797788083553314,2.4536123275756836
227,2021-11-30 12:11:30.523429,3.4936805332749503,13.408059521973932,-39.770425910220105,3.8492255210876465,39.543785,2.37884166667,0.12591643631458282,-0.079022116959095,2.4538276195526123
228,2021-11-30 12:11:30.564959,3.493374968039634,13.414318690087047,-39.775115952966964,3.8492255210876465,39.543785,2.37884166667,0.12736131250858307,-0.08170230686664581,2.4539742469787598
229,2021-11-30 12:11:30.605043,3.482355119247363,14.124432776602003,-43.17499305271832,3.855025291442871,39.543785,2.37884166667,0.12833036482334137,-0.08382091671228409,2.4558322429656982
230,2021-11-30 12:11:30.645774,3.47155817478556,14.130677754535496,-43.17986787414852,3.855025291442871,39.543785,2.37884166667,0.13028155267238617,-0.08606802672147751,2.4557478427886963
231,2021-11-30 12:11:30.685896,3.4694639433032877,14.136873642319937,-43.18471266961926,3.855025291442871,39.543785,2.37884166667,0.13185860216617584,-0.08810486644506454,2.455761671066284
232,2021-11-30 12:11:30.727237,3.469359493599887,14.143283830478394,-43.18976161718917,3.8825132846832275,39.543785,2.37884166667,0.13326378166675568,-0.08936633169651031,2.455976724624634
233,2021-11-30 12:11:30.767810,3.4676903195788094,14.147639804332368,-43.192552749770144,3.8825132846832275,39.543785,2.37884166667,0.13501010835170746,-0.09108011424541473,2.4560298919677734
234,2021-11-30 12:11:30.809129,3.4552142962851735,14.153798915241971,-43.197298506550915,3.8825132846832275,39.543785,2.37884166667,0.137203648686409,-0.09255275875329971,2.456155776977539
235,2021-11-30 12:11:30.849350,3.4467726243788617,14.15982652320631,-43.20194847698243,3.8865771293640137,39.543785,2.37884166667,0.13914920389652252,-0.09373464435338974,2.456252336502075
236,2021-11-30 12:11:30.929586,3.445807051308292,14.171612621873313,-43.21159778728387,3.8865771293640137,39.543785,2.37884166667,0.14245039224624634,-0.09540242701768875,2.456587076187134
237,2021-11-30 12:11:30.962865,3.4462287042580564,14.176625743427934,-43.215566643923225,3.910778045654297,39.543785,2.37884166667,0.14364510774612427,-0.0962139219045639,2.4567618370056152
238,2021-11-30 12:11:31.003420,3.446990533262848,14.18276038886232,-43.22042799483664,3.910778045654297,39.543785,2.37884166667,0.14533229172229767,-0.0966358557343483,2.4569215774536133
239,2021-11-30 12:11:31.044049,3.4477094698915436,14.189263308599195,-43.2250433579402,3.9141387939453125,39.543785,2.37884166667,0.14707334339618683,-0.0969027578830719,2.4570884704589844
240,2021-11-30 12:11:31.084206,3.448423560056523,14.195461709417597,-43.22985665606036,3.946475028991699,39.543785,2.37884166667,0.14887046813964844,-0.0969386100769043,2.457270622253418
241,2021-11-30 12:11:31.125118,3.4490825919802792,14.201805283201667,-43.234790899168814,3.9493532180786133,39.543785,2.37884166667,0.1507156491279602,-0.09679649770259857,2.4574248790740967
242,2021-11-30 12:11:31.167103,3.4465908953348894,14.20834342627601,-43.23988379966821,3.9493532180786133,39.543785,2.37884166667,0.15277259051799774,-0.09642134606838226,2.457564115524292
243,2021-11-30 12:11:31.205972,3.4381506116404448,14.215187651869204,-43.24617055548505,3.974985122680664,39.543785,2.37884166667,0.15467852354049683,-0.09687336534261703,2.45774507522583
244,2021-11-30 12:11:31.247329,3.4343786595276184,14.221858684519217,-43.25160042317483,3.974985122680664,39.543785,2.37884166667,0.1567021608352661,-0.09627584367990494,2.4578373432159424
245,2021-11-30 12:11:31.289536,3.4341364356133295,14.228704521851663,-43.25718471019016,3.974985122680664,39.543785,2.37884166667,0.15862759947776794,-0.09554216265678406,2.4579219818115234
246,2021-11-30 12:11:31.369202,3.433900991125962,14.24155053397172,-43.268472450017576,3.9984054565429688,39.543785,2.37884166667,0.16240079700946808,-0.09365736693143845,2.4579966068267822
247,2021-11-30 12:11:31.409684,3.429802341795084,14.248184445436468,-43.274076694410404,3.9984054565429688,39.543785,2.37884166667,0.16422007977962494,-0.09379730373620987,2.4581382274627686
248,2021-11-30 12:11:31.442141,3.4285069911780917,14.253519107301104,-43.27859809053092,3.9984054565429688,39.543785,2.37884166667,0.16586020588874817,-0.0926223024725914,2.4581315517425537
249,2021-11-30 12:11:31.482666,3.4285935547649187,14.260213106802782,-43.28428206335033,4.0004496574401855,39.543785,2.37884166667,0.16771917045116425,-0.09141727536916733,2.4581072330474854
250,2021-11-30 12:11:31.523059,3.429286029867492,14.268202941219808,-43.29043063617874,4.0004496574401855,39.543785,2.37884166667,0.16957806050777435,-0.09022783488035202,2.458115339279175
251,2021-11-30 12:11:31.563615,3.428373908714237,14.27524182905381,-43.29629841370322,4.021887302398682,39.543785,2.37884166667,0.17144210636615753,-0.08906180411577225,2.458113193511963
252,2021-11-30 12:11:31.605678,3.4241010806954746,14.282582608007491,-43.30242564111082,4.022479057312012,39.543785,2.37884166667,0.17344610393047333,-0.08791354298591614,2.458091974258423
253,2021-11-30 12:11:31.646058,3.4226401553486614,14.288467952310441,-43.30806781454671,4.022479057312012,39.543785,2.37884166667,0.17515720427036285,-0.08772581070661545,2.458185911178589
254,2021-11-30 12:11:31.685778,3.422868682951966,14.295195125120372,-43.313875059904845,4.041638374328613,39.543785,2.37884166667,0.17675049602985382,-0.0866703912615776,2.4581501483917236
255,2021-11-30 12:11:31.726440,3.4234038569284544,14.302115662052417,-43.31986192900974,4.041871547698975,39.543785,2.37884166667,0.1783609390258789,-0.08571065217256546,2.4581401348114014
256,2021-11-30 12:11:31.766964,3.419342867675965,14.30904320198008,-43.32586554905539,4.041871547698975,39.543785,2.37884166667,0.18015694618225098,-0.08490302413702011,2.458141803741455
257,2021-11-30 12:11:31.801836,3.411876571762732,14.315663268277431,-43.32949113785274,4.056728839874268,39.543785,2.37884166667,0.18182741105556488,-0.0842730775475502,2.4581432342529297
258,2021-11-30 12:11:31.889294,3.4076690914479544,14.331128621977127,-43.34187777601353,4.056728839874268,39.543785,2.37884166667,0.18520168960094452,-0.08355651795864105,2.4582695960998535
259,2021-11-30 12:11:31.929983,3.4080281428044548,14.338384612698047,-43.34769859838736,4.056728839874268,39.543785,2.37884166667,0.18644118309020996,-0.0833241268992424,2.458327293395996
260,2021-11-30 12:11:31.962169,3.406248099305914,14.34597379845005,-43.35413685128556,4.073523998260498,39.543785,2.37884166667,0.1874879151582718,-0.08324812352657318,2.4583520889282227
261,2021-11-30 12:11:32.010661,3.4015433283091676,14.355196066842094,-43.361643835842294,4.073523998260498,39.543785,2.37884166667,0.18912893533706665,-0.0833384320139885,2.4584341049194336
262,2021-11-30 12:11:32.046360,3.400539959350545,14.362031059937163,-43.36721421003573,4.073523998260498,39.543785,2.37884166667,0.19003541767597198,-0.08369194716215134,2.458479404449463
263,2021-11-30 12:11:32.084002,3.4007643039499125,14.369278422081718,-43.37312198124516,4.07086706161499,39.543785,2.37884166667,0.19136248528957367,-0.08368255943059921,2.4585444927215576
264,2021-11-30 12:11:32.124837,3.4012031702070953,14.376112483125134,-43.3806242513749,4.085734844207764,39.543785,2.37884166667,0.19228431582450867,-0.08429894596338272,2.4586446285247803
265,2021-11-30 12:11:32.164919,3.401603712244554,14.38369899507405,-43.38723140524876,4.085734844207764,39.543785,2.37884166667,0.19312715530395508,-0.08518018573522568,2.4587297439575195
266,2021-11-30 12:11:32.205934,3.401897938615382,14.39150403498967,-43.39404508507152,4.033544063568115,39.543785,2.37884166667,0.1939404457807541,-0.08622432500123978,2.4588756561279297
267,2021-11-30 12:11:32.246542,3.4022232465418916,14.398729590622652,-43.40155099972344,4.05601167678833,39.543785,2.37884166667,0.19466494023799896,-0.08753800392150879,2.4590277671813965
268,2021-11-30 12:11:32.328521,3.402082766869248,14.414276236218509,-43.41578177522414,4.05601167678833,39.543785,2.37884166667,0.19658918678760529,-0.0894542783498764,2.4593021869659424
269,2021-11-30 12:11:32.368488,3.3946205211590814,14.421904897973576,-43.422802818896145,4.052779674530029,39.543785,2.37884166667,0.19755513966083527,-0.09113913774490356,2.459500551223755
270,2021-11-30 12:11:32.408844,3.387354004060039,14.429066302961681,-43.43052321309409,4.052779674530029,39.543785,2.37884166667,0.19841551780700684,-0.09297159314155579,2.4597222805023193
271,2021-11-30 12:11:32.449351,3.3857620516844413,14.43674632651145,-43.4378931565549,4.0755109786987305,39.543785,2.37884166667,0.19878172874450684,-0.09491544216871262,2.4599618911743164
272,2021-11-30 12:11:32.485495,3.385437310518323,14.443626978507897,-43.44452347705674,4.0755109786987305,39.543785,2.37884166667,0.19894428551197052,-0.09684619307518005,2.4602279663085938
273,2021-11-30 12:11:32.522826,3.385600873170358,14.450770294368281,-43.45140567377128,4.0755109786987305,39.543785,2.37884166667,0.19990526139736176,-0.09760209172964096,2.46032977104187
274,2021-11-30 12:11:32.563440,3.3825387583870468,14.459015172716343,-43.458046523285866,4.09466028213501,39.543785,2.37884166667,0.2002885639667511,-0.09970229864120483,2.4606525897979736
275,2021-11-30 12:11:32.604172,3.378374983849964,14.466963299662133,-43.46548963969149,4.09466028213501,39.543785,2.37884166667,0.2006985992193222,-0.1018819734454155,2.4609830379486084
276,2021-11-30 12:11:32.644787,3.3773316429632025,14.474926421872345,-43.47296980201555,4.09466028213501,39.543785,2.37884166667,0.20090220868587494,-0.10399577766656876,2.4613139629364014
277,2021-11-30 12:11:32.684984,3.3772328232886464,14.482842963125018,-43.48043102208992,4.089216232299805,39.543785,2.37884166667,0.20100021362304688,-0.10606956481933594,2.461667537689209
278,2021-11-30 12:11:32.728834,3.377253544709091,14.491648134947622,-43.48624216523757,4.115893840789795,39.543785,2.37884166667,0.20117807388305664,-0.10815487056970596,2.462052345275879
279,2021-11-30 12:11:32.766981,3.377444963174792,14.499263612062222,-43.4929564559633,4.115893840789795,39.543785,2.37884166667,0.20197084546089172,-0.1092148944735527,2.4622066020965576
280,2021-11-30 12:11:32.848158,3.3777474667859857,14.516347978480043,-43.5068797590774,4.111214637756348,39.543785,2.37884166667,0.2021310031414032,-0.11297280341386795,2.4630517959594727
281,2021-11-30 12:11:32.888760,3.377870111556494,14.52473710281232,-43.51405732701996,4.132993221282959,39.543785,2.37884166667,0.2021879106760025,-0.11467830091714859,2.463496685028076
282,2021-11-30 12:11:32.929352,3.376342120272648,14.533162840070162,-43.521277648079106,4.132993221282959,39.543785,2.37884166667,0.20234546065330505,-0.1163022592663765,2.4639687538146973
283,2021-11-30 12:11:32.961990,3.3696989558508537,14.5399727289726,-43.527098086087726,4.12867546081543,39.543785,2.37884166667,0.20335882902145386,-0.11718215048313141,2.4641504287719727
284,2021-11-30 12:11:33.002848,3.362180472567963,14.544879725930576,-43.534804092799405,4.148764133453369,39.543785,2.37884166667,0.20376022160053253,-0.11865604668855667,2.46463680267334
285,2021-11-30 12:11:33.043072,3.360525664097613,14.552507009495786,-43.542157227604385,4.148764133453369,39.543785,2.37884166667,0.20376645028591156,-0.12006846070289612,2.4650847911834717
286,2021-11-30 12:11:33.083582,3.360246733936689,14.560210532621346,-43.54960755786354,4.080021381378174,39.543785,2.37884166667,0.20367401838302612,-0.12136418372392654,2.465535879135132
287,2021-11-30 12:11:33.124374,3.3610862831604447,14.56799075697823,-43.5571555040171,4.080021381378174,39.543785,2.37884166667,0.20359177887439728,-0.12249179184436798,2.4659390449523926
288,2021-11-30 12:11:33.167101,3.365489344209666,14.575470631476602,-43.564704174315175,4.080021381378174,39.543785,2.37884166667,0.20339424908161163,-0.12350694835186005,2.466360092163086
289,2021-11-30 12:11:33.205716,3.368748060953392,14.582739123804734,-43.57184676717654,4.107699871063232,39.543785,2.37884166667,0.20375029742717743,-0.12453751266002655,2.4666032791137695
290,2021-11-30 12:11:33.247129,3.369550187934314,14.590549302652098,-43.579555915031534,4.101959228515625,39.543785,2.37884166667,0.20379653573036194,-0.12518632411956787,2.4669692516326904
291,2021-11-30 12:11:33.287420,3.369837992076465,14.598168003902453,-43.58709716866081,4.101959228515625,39.543785,2.37884166667,0.20390859246253967,-0.1255279779434204,2.467318296432495
292,2021-11-30 12:11:33.367841,3.3515640859927665,14.611274339705178,-43.60209365346914,4.131250381469727,39.543785,2.37884166667,0.205234557390213,-0.12543712556362152,2.4678142070770264
293,2021-11-30 12:11:33.401259,3.3455316282681995,14.617329009848977,-43.608419152022364,4.125375747680664,39.543785,2.37884166667,0.20604850351810455,-0.12601792812347412,2.467998743057251
294,2021-11-30 12:11:33.449452,3.3436412255313677,17.2178060215018,-47.3986000882063,4.125375747680664,39.543785,2.37884166667,0.205966517329216,-0.12585119903087616,2.4693188667297363
295,2021-11-30 12:11:33.490472,3.34349615216349,17.225099195711145,-47.40626796911074,4.1443352699279785,39.543785,2.37884166667,0.20603056252002716,-0.12518930435180664,2.4693832397460938
296,2021-11-30 12:11:33.530871,3.3435892206995406,17.23229022225661,-47.41385186316726,4.1443352699279785,39.543785,2.37884166667,0.20610468089580536,-0.12434786558151245,2.469437837600708
297,2021-11-30 12:11:33.562942,3.3436843477168208,17.238008386771742,-47.41989199609388,4.139402866363525,39.543785,2.37884166667,0.20608796179294586,-0.12324076890945435,2.4694292545318604
298,2021-11-30 12:11:33.607155,3.343745755414244,17.245557010830154,-47.42804528617324,4.1606855392456055,39.543785,2.37884166667,0.2062457650899887,-0.12209568172693253,2.4694619178771973
299,2021-11-30 12:11:33.644230,3.3439239052816525,17.252091208086657,-47.435052830525734,4.1606855392456055,39.543785,2.37884166667,0.2066703587770462,-0.12226817011833191,2.469611167907715
300,2021-11-30 12:11:33.684580,3.3440734578379807,17.259226518471795,-47.44269321694218,4.1606855392456055,39.543785,2.37884166667,0.20679521560668945,-0.12086974084377289,2.4696054458618164
301,2021-11-30 12:11:33.725635,3.345723330439892,17.26649382709924,-47.450499450532696,4.1759419441223145,39.543785,2.37884166667,0.20682789385318756,-0.11938317120075226,2.469602108001709
302,2021-11-30 12:11:33.765987,3.350398109411565,17.27085763913914,-47.45749686771288,4.1759419441223145,39.543785,2.37884166667,0.20665845274925232,-0.1177956610918045,2.4696199893951416
303,2021-11-30 12:11:33.807959,3.352768849834031,17.277671942165963,-47.46537590545123,4.1759419441223145,39.543785,2.37884166667,0.2066711038351059,-0.11613401025533676,2.4696404933929443
304,2021-11-30 12:11:33.848499,3.3533138760595738,17.284231285885728,-47.47302804790318,4.169804573059082,39.543785,2.37884166667,0.20704735815525055,-0.11591071635484695,2.469750165939331
305,2021-11-30 12:11:33.929061,3.3511971870601,17.296693372900574,-47.486540259614344,4.169804573059082,39.543785,2.37884166667,0.20734909176826477,-0.11225098371505737,2.469726085662842
306,2021-11-30 12:11:33.970304,3.3465934774566137,17.303241696048254,-47.49402615347869,4.186779022216797,39.543785,2.37884166667,0.20766091346740723,-0.1104050800204277,2.4697439670562744
307,2021-11-30 12:11:34.009814,3.344990734600072,17.30950676160152,-47.50121527282796,4.186779022216797,39.543785,2.37884166667,0.20769226551055908,-0.10849101096391678,2.46974778175354
308,2021-11-30 12:11:34.046127,3.3447107317206783,17.31560495410736,-47.50895578224043,4.181639671325684,39.543785,2.37884166667,0.20761878788471222,-0.10663411021232605,2.4697206020355225
309,2021-11-30 12:11:34.083303,3.344649889102141,17.321547970650908,-47.51600786126602,4.195298194885254,39.543785,2.37884166667,0.2079060822725296,-0.10605564713478088,2.469780445098877
310,2021-11-30 12:11:34.124040,3.3492952088603163,17.32807127685398,-47.52374618509643,4.195298194885254,39.543785,2.37884166667,0.20754177868366241,-0.10401928424835205,2.4697341918945312
311,2021-11-30 12:11:34.164109,3.358607841795286,17.334481463365623,-47.53138725104447,4.1901350021362305,39.543785,2.37884166667,0.20693713426589966,-0.1020413488149643,2.4697282314300537
312,2021-11-30 12:11:34.205348,3.361955941038921,17.342663652593316,-47.53877412498346,4.201415538787842,39.543785,2.37884166667,0.20672714710235596,-0.10010448843240738,2.469738483428955
313,2021-11-30 12:11:34.245559,3.36263533339081,17.34943699662098,-47.54637776444014,4.201415538787842,39.543785,2.37884166667,0.2066298872232437,-0.09818113595247269,2.4697494506835938
314,2021-11-30 12:11:34.288446,3.3627656708506355,17.35666196760423,-47.554511738370415,4.201415538787842,39.543785,2.37884166667,0.20657308399677277,-0.09617860615253448,2.469808578491211
315,2021-11-30 12:11:34.327610,3.356311992894477,17.363251743839502,-47.56196465197502,4.20794677734375,39.543785,2.37884166667,0.2071652114391327,-0.0952722430229187,2.469851016998291
316,2021-11-30 12:11:34.368596,3.347605961823087,17.369072883579516,-47.570867904621586,4.20794677734375,39.543785,2.37884166667,0.20746847987174988,-0.09330397844314575,2.4699296951293945
317,2021-11-30 12:11:34.408221,3.345160108458589,17.375531947595,-47.57866858717044,4.20794677734375,39.543785,2.37884166667,0.20731337368488312,-0.09140843898057938,2.470015048980713
