,a_nav_status_t,nav_status_D,nav_status_E,nav_status_N,nav_status_alt,nav_status_origin_lat,nav_status_origin_lon,nav_status_pitch,nav_status_roll,nav_status_yaw
0,2021-11-30 11:47:30.846241,4.393292571918506,30.624885771764564,-59.70294413468888,6.258792400360107,39.543785,2.37884166667,0.12634900212287903,-0.06013776361942291,-1.239115595817566
1,2021-11-30 11:47:30.886515,4.393513333290118,30.62534680776563,-59.70179886314693,6.256841659545898,39.543785,2.37884166667,0.12698893249034882,-0.060442227870225906,-1.2395007610321045
2,2021-11-30 11:47:30.927204,4.393699957901664,30.62672593554568,-59.70078334144283,6.25712251663208,39.543785,2.37884166667,0.12758438289165497,-0.06086448207497597,-1.2398669719696045
3,2021-11-30 11:47:30.967862,4.393878033523148,30.62740231922641,-59.69967375184002,6.25712251663208,39.543785,2.37884166667,0.1281246691942215,-0.061452820897102356,-1.2401903867721558
4,2021-11-30 11:47:31.008674,4.3940343594138,30.62808549306761,-59.69856803448583,6.25712251663208,39.543785,2.37884166667,0.12862366437911987,-0.062153879553079605,-1.2405424118041992
5,2021-11-30 11:47:31.049452,4.3941575961242325,30.62877390534189,-59.69747300362379,6.254899024963379,39.543785,2.37884166667,0.1293046772480011,-0.06213252246379852,-1.2405774593353271
6,2021-11-30 11:47:31.089635,4.394254956286653,30.62942117070925,-59.69622110080653,6.254899024963379,39.543785,2.37884166667,0.1297421008348465,-0.06303184479475021,-1.240897297859192
7,2021-11-30 11:47:31.131230,4.394368557364289,30.630124972032277,-59.69508049240002,6.2541399002075195,39.543785,2.37884166667,0.1301015168428421,-0.06403366476297379,-1.2411937713623047
8,2021-11-30 11:47:31.204581,4.394567575660834,30.631376175282448,-59.69308736685148,6.2541399002075195,39.543785,2.37884166667,0.13063356280326843,-0.06618271768093109,-1.2418665885925293
9,2021-11-30 11:47:31.245689,4.39467806647704,30.632092661009334,-59.691899327439195,6.252810478210449,39.543785,2.37884166667,0.13092133402824402,-0.06742071360349655,-1.242216944694519
10,2021-11-30 11:47:31.284707,4.394784296045618,30.632770450381475,-59.69083947950076,6.253956317901611,39.543785,2.37884166667,0.13147181272506714,-0.0677354633808136,-1.2422282695770264
11,2021-11-30 11:47:31.325584,4.394884056028006,30.63348341496949,-59.68973409323157,6.253956317901611,39.543785,2.37884166667,0.13169638812541962,-0.06910635530948639,-1.2425963878631592
12,2021-11-30 11:47:31.365716,4.394977280359909,30.634187740485274,-59.68865578256446,6.252800464630127,39.543785,2.37884166667,0.1318996697664261,-0.0704323947429657,-1.2428784370422363
13,2021-11-30 11:47:31.406346,4.395014020510619,30.634813888435968,-59.687442899379725,6.2559428215026855,39.543785,2.37884166667,0.1320759356021881,-0.07174703478813171,-1.243129849433899
14,2021-11-30 11:47:31.447572,4.39507699590175,30.635526579460073,-59.68632198659028,6.2559428215026855,39.543785,2.37884166667,0.1322350949048996,-0.07308365404605865,-1.2434486150741577
15,2021-11-30 11:47:31.489864,4.39513053356346,30.636261643403106,-59.68517898649306,6.2559428215026855,39.543785,2.37884166667,0.13240548968315125,-0.07441388815641403,-1.2437540292739868
16,2021-11-30 11:47:31.528978,4.395209081029501,30.636946211208002,-59.68412941229515,6.254823684692383,39.543785,2.37884166667,0.13285693526268005,-0.07497473061084747,-1.2437502145767212
17,2021-11-30 11:47:31.569992,4.3952626738460285,30.637917357007463,-59.68314648614841,6.254823684692383,39.543785,2.37884166667,0.1329633593559265,-0.07624276727437973,-1.2440812587738037
18,2021-11-30 11:47:31.609798,4.395341975955266,30.63867440508988,-59.682114186033836,6.255831241607666,39.543785,2.37884166667,0.1330912858247757,-0.07744169235229492,-1.2443883419036865
19,2021-11-30 11:47:31.687867,4.3954790886640005,30.640172421015926,-59.68010870469095,6.255092144012451,39.543785,2.37884166667,0.1333317756652832,-0.07945852726697922,-1.24507474899292
20,2021-11-30 11:47:31.723589,4.395584898304113,30.6422220262696,-59.67887452917686,6.255092144012451,39.543785,2.37884166667,0.13369204103946686,-0.08002075552940369,-1.2450695037841797
21,2021-11-30 11:47:31.764343,4.395685660333245,30.643324158913163,-59.677769089820224,6.257831573486328,39.543785,2.37884166667,0.13384011387825012,-0.0808946043252945,-1.2454794645309448
22,2021-11-30 11:47:31.805130,4.395784829538796,30.87998688587923,-59.79590011861622,6.257831573486328,39.543785,2.37884166667,0.13399815559387207,-0.08163942396640778,-1.2458187341690063
23,2021-11-30 11:47:31.845693,4.395899343926363,30.88111859290565,-59.794815445079756,6.257831573486328,39.543785,2.37884166667,0.13420988619327545,-0.0822564885020256,-1.2462087869644165
24,2021-11-30 11:47:31.886132,4.395987183396892,30.881611998436153,-59.7946630014123,6.256893157958984,39.543785,2.37884166667,0.13443614542484283,-0.08268347382545471,-1.2466356754302979
25,2021-11-30 11:47:31.929460,4.396092882741637,30.882682067168236,-59.793753300873185,6.256893157958984,39.543785,2.37884166667,0.13471215963363647,-0.0830124095082283,-1.2470273971557617
26,2021-11-30 11:47:31.967533,4.396245426166268,30.883632415977115,-59.79296547006763,6.264392375946045,39.543785,2.37884166667,0.13507439196109772,-0.08348651975393295,-1.2470377683639526
27,2021-11-30 11:47:32.008018,4.396400603394116,30.88464846137134,-59.792134825450155,6.264392375946045,39.543785,2.37884166667,0.1353481560945511,-0.08351309597492218,-1.2474528551101685
28,2021-11-30 11:47:32.048723,4.396479906625865,30.88412503269761,-59.791585308227695,6.264392375946045,39.543785,2.37884166667,0.1356455385684967,-0.08337833732366562,-1.2478708028793335
29,2021-11-30 11:47:32.089546,4.39662248722106,30.884814082478517,-59.79083325275487,6.2673468589782715,39.543785,2.37884166667,0.13595721125602722,-0.08311104774475098,-1.2482969760894775
30,2021-11-30 11:47:32.129655,4.393553876490714,30.885491861570458,-59.79010595211944,6.26740026473999,39.543785,2.37884166667,0.13628020882606506,-0.08269718289375305,-1.248714804649353
31,2021-11-30 11:47:32.170769,4.389331111706449,30.88619069120712,-59.789376188373105,6.26740026473999,39.543785,2.37884166667,0.13666503131389618,-0.08296933770179749,-1.24873685836792
32,2021-11-30 11:47:32.203799,4.388440549976154,30.88763638027905,-59.78644964347914,6.26771354675293,39.543785,2.37884166667,0.1369488388299942,-0.08225655555725098,-1.2491455078125
33,2021-11-30 11:47:32.284510,4.38831579257054,30.889407896303783,-59.78397884466997,6.26771354675293,39.543785,2.37884166667,0.13762283325195312,-0.08063652366399765,-1.2499754428863525
34,2021-11-30 11:47:32.325103,4.388447938161289,30.89030582709584,-59.78273467026112,6.26771354675293,39.543785,2.37884166667,0.13800419867038727,-0.07969160377979279,-1.2503949403762817
35,2021-11-30 11:47:32.369273,4.3884928670336265,30.891623294528152,-59.781903264163695,6.267414569854736,39.543785,2.37884166667,0.13839730620384216,-0.07865196466445923,-1.250836730003357
36,2021-11-30 11:47:32.406479,4.38866444762983,30.89252863923229,-59.78087278394859,6.267414569854736,39.543785,2.37884166667,0.1387595534324646,-0.07854358851909637,-1.250866174697876
37,2021-11-30 11:47:32.447190,4.388815053058806,30.893522429856834,-59.77974267258212,6.268177032470703,39.543785,2.37884166667,0.13910187780857086,-0.07738842815160751,-1.2513164281845093
38,2021-11-30 11:47:32.487974,4.389258642866256,30.894524735630693,-59.77861175535805,6.268560886383057,39.543785,2.37884166667,0.13945364952087402,-0.07618506252765656,-1.2517507076263428
39,2021-11-30 11:47:32.528394,4.393223123902059,30.895745738057293,-59.777683765730735,6.268560886383057,39.543785,2.37884166667,0.13980723917484283,-0.07489613443613052,-1.2521620988845825
40,2021-11-30 11:47:32.568969,4.3971327160523455,30.896806719175743,-59.77660458951503,6.26707124710083,39.543785,2.37884166667,0.14017710089683533,-0.07359231263399124,-1.2525711059570312
41,2021-11-30 11:47:32.610299,4.398138765053789,30.897898383360612,-59.7755122726082,6.26707124710083,39.543785,2.37884166667,0.14057594537734985,-0.0732106938958168,-1.2526204586029053
42,2021-11-30 11:47:32.650492,4.398510180446177,30.89896479233908,-59.77444735398059,6.26707124710083,39.543785,2.37884166667,0.14095096290111542,-0.07179033011198044,-1.253017544746399
43,2021-11-30 11:47:32.683858,4.398406522827907,30.898504922142916,-59.77313927403105,6.26790189743042,39.543785,2.37884166667,0.1412091702222824,-0.07045689225196838,-1.2534146308898926
44,2021-11-30 11:47:32.724604,4.394676924544294,30.899289715020487,-59.7719657222144,6.266077041625977,39.543785,2.37884166667,0.1415581852197647,-0.06907027959823608,-1.2537890672683716
45,2021-11-30 11:47:32.807639,4.390240923818957,30.900892410268025,-59.769576711836535,6.266077041625977,39.543785,2.37884166667,0.14219661056995392,-0.06632799655199051,-1.254557728767395
46,2021-11-30 11:47:32.845531,4.390140690855573,30.901230442836745,-59.767945342478164,6.266130447387695,39.543785,2.37884166667,0.14254584908485413,-0.06575682014226913,-1.254608392715454
47,2021-11-30 11:47:32.886199,4.389370258457347,30.901929333667574,-59.76665406928612,6.265159606933594,39.543785,2.37884166667,0.14280913770198822,-0.06441710144281387,-1.2549227476119995
48,2021-11-30 11:47:32.926756,4.385112970255724,30.90262562556276,-59.76536470810672,6.265159606933594,39.543785,2.37884166667,0.14308032393455505,-0.06324110925197601,-1.2552114725112915
49,2021-11-30 11:47:32.967338,4.3821119812369815,30.903321799568744,-59.764072804615374,6.265623569488525,39.543785,2.37884166667,0.1432948112487793,-0.06215674802660942,-1.2555279731750488
50,2021-11-30 11:47:33.008850,4.381508707306026,30.90388244252015,-59.762263465612314,6.264736175537109,39.543785,2.37884166667,0.14345236122608185,-0.061112575232982635,-1.255847692489624
51,2021-11-30 11:47:33.049285,4.3813986051256455,30.90454292298946,-59.76086639508884,6.264736175537109,39.543785,2.37884166667,0.14377878606319427,-0.0604577399790287,-1.2558828592300415
52,2021-11-30 11:47:33.089168,4.383083821684994,30.905189470136254,-59.759480504801,6.264736175537109,39.543785,2.37884166667,0.14392299950122833,-0.059496086090803146,-1.2561779022216797
53,2021-11-30 11:47:33.130139,4.391855018292097,30.90584963595739,-59.75804986011196,6.265504360198975,39.543785,2.37884166667,0.1440647840499878,-0.05859464406967163,-1.2565124034881592
54,2021-11-30 11:47:33.170451,4.398059249956437,30.90448268814238,-59.75625611194348,6.265504360198975,39.543785,2.37884166667,0.14411908388137817,-0.05786824971437454,-1.2568466663360596
55,2021-11-30 11:47:33.211049,4.399343924825612,30.904685188324862,-59.754744886289366,6.266186714172363,39.543785,2.37884166667,0.14415323734283447,-0.057303670793771744,-1.257164716720581
56,2021-11-30 11:47:33.244736,4.39958328373191,30.904843344007965,-59.75348600954917,6.266324996948242,39.543785,2.37884166667,0.1441025584936142,-0.05695655196905136,-1.2574728727340698
57,2021-11-30 11:47:33.324898,4.3996446476117566,30.906134985975616,-59.74960084745169,6.266324996948242,39.543785,2.37884166667,0.14422449469566345,-0.056179970502853394,-1.25783371925354
58,2021-11-30 11:47:33.364980,4.399595778543996,30.90650022585454,-59.74788824873889,6.267018795013428,39.543785,2.37884166667,0.14409294724464417,-0.05602357164025307,-1.2581591606140137
59,2021-11-30 11:47:33.405627,4.399520069662782,30.90686321273889,-59.746140855024,6.267018795013428,39.543785,2.37884166667,0.14388608932495117,-0.05598871037364006,-1.2585076093673706
60,2021-11-30 11:47:33.446475,4.39943698368887,30.90722057950089,-59.744373922321124,6.267018795013428,39.543785,2.37884166667,0.14366762340068817,-0.056049495935440063,-1.258838415145874
61,2021-11-30 11:47:33.488378,4.3963347178766945,30.90718055596914,-59.742540325204395,6.267077922821045,39.543785,2.37884166667,0.14335402846336365,-0.05620630830526352,-1.2591419219970703
62,2021-11-30 11:47:33.527727,4.3867625110915585,30.907427877044203,-59.74081588637174,6.267077922821045,39.543785,2.37884166667,0.14347156882286072,-0.055968381464481354,-1.2591453790664673
63,2021-11-30 11:47:33.568167,4.382083686118661,30.907669542185303,-59.73903333460922,6.269687652587891,39.543785,2.37884166667,0.1430530995130539,-0.05640782415866852,-1.2594780921936035
64,2021-11-30 11:47:33.609040,4.380959595660412,30.907904588890666,-59.73722103677481,6.269932270050049,39.543785,2.37884166667,0.14261820912361145,-0.0569249726831913,-1.2597832679748535
65,2021-11-30 11:47:33.649537,4.3806010384817275,30.909458664858906,-59.73586186839144,6.269932270050049,39.543785,2.37884166667,0.1420879364013672,-0.05753616243600845,-1.2600836753845215
66,2021-11-30 11:47:33.690655,4.385044328065721,30.90997652278533,-59.73411782988423,6.27542781829834,39.543785,2.37884166667,0.14156177639961243,-0.05824676528573036,-1.2603726387023926
67,2021-11-30 11:47:33.723228,4.39270249306461,30.910387078018132,-59.732729008427064,6.27542781829834,39.543785,2.37884166667,0.14153319597244263,-0.05813179537653923,-1.260360836982727
68,2021-11-30 11:47:33.763781,4.396962637656726,30.910891203986992,-59.73099230060556,6.27542781829834,39.543785,2.37884166667,0.14091242849826813,-0.0590159073472023,-1.2606838941574097
69,2021-11-30 11:47:33.805040,4.39777126696498,30.910155899503444,-59.72892718781734,6.274567127227783,39.543785,2.37884166667,0.1403258740901947,-0.059929750859737396,-1.2609531879425049
70,2021-11-30 11:47:33.886408,4.399976856315843,30.910574338251074,-59.72526055625061,6.274567127227783,39.543785,2.37884166667,0.1390550136566162,-0.06215604767203331,-1.2614753246307373
71,2021-11-30 11:47:33.929879,4.404475908653852,30.91078239980774,-59.72328411342108,6.274567127227783,39.543785,2.37884166667,0.13836276531219482,-0.06334365904331207,-1.2617281675338745
72,2021-11-30 11:47:33.967252,4.405927650887722,30.910707446285393,-59.71981405260028,6.274445056915283,39.543785,2.37884166667,0.13819114863872528,-0.06358850002288818,-1.2616904973983765
73,2021-11-30 11:47:34.007727,4.406041594715726,30.910826136669936,-59.71755453681596,6.274445056915283,39.543785,2.37884166667,0.13749462366104126,-0.06492543965578079,-1.2619065046310425
74,2021-11-30 11:47:34.048547,4.405891792281832,30.910935933225517,-59.71525625361976,6.271366119384766,39.543785,2.37884166667,0.1368027925491333,-0.06636254489421844,-1.2621347904205322
75,2021-11-30 11:47:34.088580,4.402469918772205,30.911034754340044,-59.71298384191575,6.270760536193848,39.543785,2.37884166667,0.13610951602458954,-0.0678371787071228,-1.2623759508132935
76,2021-11-30 11:47:34.129339,4.397933587293899,30.91150261868209,-59.71121370684579,6.270760536193848,39.543785,2.37884166667,0.13539458811283112,-0.06928618252277374,-1.2626456022262573
77,2021-11-30 11:47:34.161845,4.396657149575661,30.911637618965578,-59.70944049872247,6.268655300140381,39.543785,2.37884166667,0.13517209887504578,-0.06971801072359085,-1.262597680091858
78,2021-11-30 11:47:34.210757,4.395951390669157,30.91182799505605,-59.706752623434795,6.268655300140381,39.543785,2.37884166667,0.13432227075099945,-0.0713215097784996,-1.2628304958343506
79,2021-11-30 11:47:34.243362,4.395653725529575,30.911947527440656,-59.704947607169736,6.268655300140381,39.543785,2.37884166667,0.13357321918010712,-0.07275774329900742,-1.2630668878555298
80,2021-11-30 11:47:34.283957,4.400021867723459,30.911164123926767,-59.702399203860686,6.268238067626953,39.543785,2.37884166667,0.13274921476840973,-0.0742671862244606,-1.263354778289795
81,2021-11-30 11:47:34.325290,4.409138858708023,30.91108165995577,-59.70001109203497,6.270483493804932,39.543785,2.37884166667,0.13192611932754517,-0.07563258707523346,-1.2636544704437256
82,2021-11-30 11:47:34.367552,4.4122137938786175,30.910983393383656,-59.697549436170014,6.270483493804932,39.543785,2.37884166667,0.13111428916454315,-0.07705627381801605,-1.2639254331588745
83,2021-11-30 11:47:34.446342,4.412512082988295,30.91027657463144,-59.69234639964615,6.269985675811768,39.543785,2.37884166667,0.12994813919067383,-0.07906423509120941,-1.264151930809021
84,2021-11-30 11:47:34.488640,4.412278288962672,30.910020744602928,-59.689692080240505,6.267771244049072,39.543785,2.37884166667,0.12913520634174347,-0.08044105768203735,-1.2644338607788086
85,2021-11-30 11:47:34.527387,4.412020925533363,30.909771395903537,-59.6872408212486,6.267771244049072,39.543785,2.37884166667,0.12835033237934113,-0.08161567896604538,-1.2646816968917847
86,2021-11-30 11:47:34.567914,4.411786983656633,30.909495414486845,-59.68465667907632,6.272671699523926,39.543785,2.37884166667,0.12760420143604279,-0.08280716836452484,-1.2649595737457275
87,2021-11-30 11:47:34.608912,4.411624421688413,30.909853619998692,-59.681907117838904,6.271454334259033,39.543785,2.37884166667,0.12714165449142456,-0.08360660821199417,-1.2648824453353882
88,2021-11-30 11:47:34.650280,4.411352142378651,30.909687728693527,-59.67919951615514,6.271454334259033,39.543785,2.37884166667,0.1263590306043625,-0.08469393104314804,-1.2651636600494385
89,2021-11-30 11:47:34.690561,4.411097686522619,30.909513920917632,-59.67654148229084,6.271454334259033,39.543785,2.37884166667,0.1256220042705536,-0.0856810212135315,-1.2654086351394653
90,2021-11-30 11:47:34.730797,4.4108699121482715,30.909328108340627,-59.6738654605301,6.270304203033447,39.543785,2.37884166667,0.1249309703707695,-0.08657966554164886,-1.265673041343689
91,2021-11-30 11:47:34.770849,4.410620131340548,30.91006539557145,-59.672164324110746,6.270304203033447,39.543785,2.37884166667,0.12424399703741074,-0.08732841163873672,-1.265932559967041
92,2021-11-30 11:47:34.806610,4.410509085156672,30.91006251371486,-59.66994422946685,6.270341873168945,39.543785,2.37884166667,0.12363944202661514,-0.08788412809371948,-1.26621413230896
93,2021-11-30 11:47:34.845421,4.41119259108653,30.910058985722166,-59.66751967427222,6.269780158996582,39.543785,2.37884166667,0.12316504120826721,-0.08855954557657242,-1.2661293745040894
94,2021-11-30 11:47:34.928040,4.433746155221305,30.909800684740198,-59.662334489192034,6.269780158996582,39.543785,2.37884166667,0.12173748016357422,-0.0890120416879654,-1.2666871547698975
95,2021-11-30 11:47:34.966425,4.436153633357056,30.909722359157744,-59.65989507775558,6.267523288726807,39.543785,2.37884166667,0.12116866558790207,-0.08908416330814362,-1.2669581174850464
96,2021-11-30 11:47:35.007342,4.436561512235646,30.909630487883046,-59.65727872521754,6.267523288726807,39.543785,2.37884166667,0.12063658237457275,-0.08903373032808304,-1.2671962976455688
97,2021-11-30 11:47:35.048541,4.435715017831608,30.909536518912855,-59.65462663800615,6.267523288726807,39.543785,2.37884166667,0.12014327198266983,-0.08954843133687973,-1.2670962810516357
98,2021-11-30 11:47:35.088429,4.431187927418105,30.91084457472466,-59.65308931205563,6.26632833480835,39.543785,2.37884166667,0.11973056942224503,-0.08928894251585007,-1.2672957181930542
99,2021-11-30 11:47:35.129643,4.4279532028205395,30.911051672235097,-59.6506482090923,6.26632833480835,39.543785,2.37884166667,0.11928373575210571,-0.08885461091995239,-1.267537236213684
100,2021-11-30 11:47:35.169693,4.427164573078712,30.911251237883324,-59.648265216519725,6.2673187255859375,39.543785,2.37884166667,0.11886228621006012,-0.08830496668815613,-1.2677342891693115
101,2021-11-30 11:47:35.210120,4.426901665374692,30.911450824396443,-59.64584890174898,6.267033100128174,39.543785,2.37884166667,0.11846483498811722,-0.08763881027698517,-1.267987847328186
102,2021-11-30 11:47:35.250751,4.426819903141178,30.91105452655597,-59.64303093797223,6.267033100128174,39.543785,2.37884166667,0.11807727068662643,-0.08697766810655594,-1.2682111263275146
103,2021-11-30 11:47:35.283404,4.426726793821617,30.911111264354812,-59.64099194924537,6.265243053436279,39.543785,2.37884166667,0.11772159487009048,-0.08709237724542618,-1.2681148052215576
104,2021-11-30 11:47:35.325191,4.426572021157016,30.91117160284502,-59.638371540837426,6.264441967010498,39.543785,2.37884166667,0.1173136830329895,-0.08634898066520691,-1.2683247327804565
105,2021-11-30 11:47:35.364814,4.426402242243521,30.911223828257665,-59.63587449623418,6.264441967010498,39.543785,2.37884166667,0.11689968407154083,-0.08557304739952087,-1.2685494422912598
106,2021-11-30 11:47:35.405082,4.426233575678518,30.911412191470784,-59.634054953941636,6.265338897705078,39.543785,2.37884166667,0.11654502898454666,-0.08486048877239227,-1.2687268257141113
107,2021-11-30 11:47:35.489734,4.431197074408136,30.91157078013732,-59.62901061565086,6.265338897705078,39.543785,2.37884166667,0.11572732031345367,-0.0834021344780922,-1.2691541910171509
108,2021-11-30 11:47:35.527272,4.434083927893043,30.91164141550669,-59.62676000554313,6.265338897705078,39.543785,2.37884166667,0.11532703787088394,-0.083308644592762,-1.2690434455871582
109,2021-11-30 11:47:35.567687,4.43459571683782,30.912685380071117,-59.6249234789845,6.264535903930664,39.543785,2.37884166667,0.11494369059801102,-0.08264502882957458,-1.2692447900772095
110,2021-11-30 11:47:35.608626,4.434571418735762,30.912972538811417,-59.622588379125276,6.264535903930664,39.543785,2.37884166667,0.11454189568758011,-0.08204708248376846,-1.2694734334945679
111,2021-11-30 11:47:35.648760,4.4329283242821145,30.91325554890115,-59.62029348569008,6.26541805267334,39.543785,2.37884166667,0.11413966864347458,-0.0815620869398117,-1.2696831226348877
112,2021-11-30 11:47:35.689752,4.428051487945739,30.913546951514668,-59.6179445208203,6.264533996582031,39.543785,2.37884166667,0.11370532214641571,-0.08128764480352402,-1.269952654838562
113,2021-11-30 11:47:35.730387,4.425639385886793,30.91631727647119,-59.61408078666255,6.263460636138916,39.543785,2.37884166667,0.1132885217666626,-0.08121537417173386,-1.2698498964309692
114,2021-11-30 11:47:35.762815,4.425011625185469,30.916991767649158,-59.611939231649956,6.263460636138916,39.543785,2.37884166667,0.11289849877357483,-0.08100120723247528,-1.2701209783554077
115,2021-11-30 11:47:35.803508,4.424671019915434,30.917852387110777,-59.6092391890794,6.263460636138916,39.543785,2.37884166667,0.11242560297250748,-0.08087152242660522,-1.2703680992126465
116,2021-11-30 11:47:35.844425,4.424457454860713,30.918731997967573,-59.60651009183735,6.2624664306640625,39.543785,2.37884166667,0.11195416003465652,-0.08086151629686356,-1.2706120014190674
117,2021-11-30 11:47:35.885890,4.424296491758439,30.920066182047517,-59.60485725742448,6.2624664306640625,39.543785,2.37884166667,0.11145921796560287,-0.08092129975557327,-1.2708138227462769
118,2021-11-30 11:47:35.966126,4.4239022201642655,30.922063958545202,-59.59995685567497,6.261971950531006,39.543785,2.37884166667,0.11050454527139664,-0.08119028061628342,-1.270957589149475
119,2021-11-30 11:47:36.006807,4.4236769915647205,30.923098618470256,-59.59745967345495,6.261181831359863,39.543785,2.37884166667,0.10997593402862549,-0.08155417442321777,-1.2711842060089111
120,2021-11-30 11:47:36.048201,4.4234997928722395,30.923052666366292,-59.5972415520203,6.261181831359863,39.543785,2.37884166667,0.10942018032073975,-0.08204134553670883,-1.271432638168335
121,2021-11-30 11:47:36.087735,4.423286696455283,30.9238416439576,-59.59531597049334,6.260698318481445,39.543785,2.37884166667,0.1088685691356659,-0.0825510323047638,-1.271689772605896
122,2021-11-30 11:47:36.129030,4.423094275164008,30.924676829159683,-59.59330860467068,6.260698318481445,39.543785,2.37884166667,0.10831984877586365,-0.08317746222019196,-1.2719695568084717
123,2021-11-30 11:47:36.161316,4.422941479334462,30.92534133709191,-59.59174376143596,6.259913921356201,39.543785,2.37884166667,0.10794927924871445,-0.0833430364727974,-1.2719039916992188
124,2021-11-30 11:47:36.210433,4.422701139796028,30.925879855549326,-59.58921461314254,6.255570411682129,39.543785,2.37884166667,0.10732606798410416,-0.08409830182790756,-1.272154450416565
125,2021-11-30 11:47:36.250729,4.425730016577983,30.92661710569886,-59.587232877338465,6.255570411682129,39.543785,2.37884166667,0.10680877417325974,-0.0848485603928566,-1.2724558115005493
126,2021-11-30 11:47:36.290881,4.429850395673783,30.92735927496276,-59.585260859094035,6.260308742523193,39.543785,2.37884166667,0.10630010068416595,-0.08558495342731476,-1.2727969884872437
127,2021-11-30 11:47:36.324078,4.430806865762486,30.92797813830224,-59.58363209068689,6.259236812591553,39.543785,2.37884166667,0.10584957152605057,-0.08632423728704453,-1.2731451988220215
128,2021-11-30 11:47:36.367561,4.431010619463257,30.928798612504227,-59.58150261175307,6.259236812591553,39.543785,2.37884166667,0.10526777803897858,-0.08713776618242264,-1.273467779159546
129,2021-11-30 11:47:36.405288,4.4307958541138595,30.9307864086427,-59.57986768630927,6.2534990310668945,39.543785,2.37884166667,0.1048257127404213,-0.08749664574861526,-1.273412823677063
130,2021-11-30 11:47:36.486436,4.430431316215098,30.932857989814714,-59.575992287299,6.252790451049805,39.543785,2.37884166667,0.10382498055696487,-0.08916366100311279,-1.2741479873657227
131,2021-11-30 11:47:36.530514,4.430238504799407,30.934406377896664,-59.573520632277194,6.252790451049805,39.543785,2.37884166667,0.10330049693584442,-0.09002019464969635,-1.2745307683944702
132,2021-11-30 11:47:36.566965,4.430011554499471,30.935450407380543,-59.571712784645825,6.250166416168213,39.543785,2.37884166667,0.10286150872707367,-0.09067263454198837,-1.2749083042144775
133,2021-11-30 11:47:36.608244,4.429899479978709,30.93665325397467,-59.56967082810743,6.250166416168213,39.543785,2.37884166667,0.10238586366176605,-0.09113970398902893,-1.2748748064041138
134,2021-11-30 11:47:36.649222,4.429720320193188,30.937858124965206,-59.56764275616769,6.250166416168213,39.543785,2.37884166667,0.10192409157752991,-0.09180064499378204,-1.275275468826294
135,2021-11-30 11:47:36.690745,4.429477355731014,30.939267784402062,-59.56580870988658,6.249501705169678,39.543785,2.37884166667,0.1015084907412529,-0.09232567995786667,-1.2756603956222534
136,2021-11-30 11:47:36.721400,4.429342361544303,30.940221203949413,-59.56433454704936,6.249501705169678,39.543785,2.37884166667,0.10120649635791779,-0.0926070362329483,-1.2760716676712036
137,2021-11-30 11:47:36.762482,4.429219230726103,30.94151526795482,-59.56236283786838,6.249852657318115,39.543785,2.37884166667,0.10085713863372803,-0.0928584486246109,-1.2764796018600464
138,2021-11-30 11:47:36.810835,4.428497979112753,30.943060587692056,-59.56004704372892,6.24998140335083,39.543785,2.37884166667,0.10046850144863129,-0.0930287316441536,-1.2768642902374268
139,2021-11-30 11:47:36.843683,4.4225842636259545,30.94412872978502,-59.55848062459596,6.24998140335083,39.543785,2.37884166667,0.10010383278131485,-0.09337370097637177,-1.2768551111221313
140,2021-11-30 11:47:36.884337,4.413823472582391,30.9465554653833,-59.557182572445384,6.250268936157227,39.543785,2.37884166667,0.09984160214662552,-0.09332616627216339,-1.2772375345230103
141,2021-11-30 11:47:36.925711,4.411333088982286,30.948148501472673,-59.55534279541579,6.250268936157227,39.543785,2.37884166667,0.0996631607413292,-0.09295687824487686,-1.277607798576355
142,2021-11-30 11:47:36.965604,4.410808129852572,30.94970509893719,-59.55357431960874,6.250268936157227,39.543785,2.37884166667,0.09959053248167038,-0.0923117995262146,-1.277970552444458
143,2021-11-30 11:47:37.006302,4.411009628083875,30.95131406102107,-59.5517753727043,6.251058101654053,39.543785,2.37884166667,0.09957879781723022,-0.0914727970957756,-1.278354287147522
144,2021-11-30 11:47:37.087608,4.418621406391496,30.95282973848829,-59.547841567103774,6.251058101654053,39.543785,2.37884166667,0.09937882423400879,-0.09034237265586853,-1.2786900997161865
145,2021-11-30 11:47:37.128352,4.419604263540901,30.95420790839677,-59.5459969516719,6.251058101654053,39.543785,2.37884166667,0.09955676645040512,-0.08898026496171951,-1.279070258140564
146,2021-11-30 11:47:37.168630,4.419904216958363,30.955584723282797,-59.54417702121631,6.252281188964844,39.543785,2.37884166667,0.09979536384344101,-0.08743870258331299,-1.2794525623321533
147,2021-11-30 11:47:37.209514,4.418399702866258,30.957014213006502,-59.54224375249891,6.252281188964844,39.543785,2.37884166667,0.1001008152961731,-0.08574417978525162,-1.2798010110855103
148,2021-11-30 11:47:37.250484,4.409819734219566,30.958448472004033,-59.54038375635821,6.251882553100586,39.543785,2.37884166667,0.10047353059053421,-0.08393460512161255,-1.2801815271377563
149,2021-11-30 11:47:37.282527,4.404441577731657,30.95958475677668,-59.53893751219434,6.2527241706848145,39.543785,2.37884166667,0.10034500807523727,-0.08360268175601959,-1.2801783084869385
150,2021-11-30 11:47:37.323186,4.402860282037955,30.96103534458661,-59.53709768093376,6.26050329208374,39.543785,2.37884166667,0.10082338005304337,-0.08145761489868164,-1.2805845737457275
151,2021-11-30 11:47:37.364048,4.402721667695367,30.96108487259346,-59.53590051852713,6.26050329208374,39.543785,2.37884166667,0.10137607902288437,-0.07916013151407242,-1.2810072898864746
152,2021-11-30 11:47:37.404365,4.402036655522755,30.962271216363806,-59.534209891652935,6.26050329208374,39.543785,2.37884166667,0.1019897386431694,-0.07677938789129257,-1.2814174890518188
153,2021-11-30 11:47:37.445558,4.397870371497858,30.963492623372325,-59.53248992818126,6.26050329208374,39.543785,2.37884166667,0.10263435542583466,-0.07431045919656754,-1.2818139791488647
154,2021-11-30 11:47:37.487001,4.3949805281946865,30.964731028067696,-59.530766288679786,6.261513710021973,39.543785,2.37884166667,0.10331562906503677,-0.07172388583421707,-1.2822107076644897
155,2021-11-30 11:47:37.526847,4.394580149869462,30.964442059671764,-59.52851207041108,6.261276721954346,39.543785,2.37884166667,0.10339474678039551,-0.07070212066173553,-1.2822266817092896
156,2021-11-30 11:47:37.607695,4.395715694959842,30.966309596961427,-59.52493641442515,6.261276721954346,39.543785,2.37884166667,0.10483255982398987,-0.0653560608625412,-1.2829766273498535
157,2021-11-30 11:47:37.648113,4.400284655506861,30.96724562321548,-59.523151815020775,6.2621750831604,39.543785,2.37884166667,0.1055804044008255,-0.06262370198965073,-1.2833597660064697
158,2021-11-30 11:47:37.689214,4.4035608854330635,30.967735998254646,-59.521388736121324,6.261943340301514,39.543785,2.37884166667,0.1063392385840416,-0.05999983847141266,-1.2837014198303223
159,2021-11-30 11:47:37.730339,4.404399227589632,30.96860540351121,-59.519598005364664,6.261943340301514,39.543785,2.37884166667,0.10655179619789124,-0.058622874319553375,-1.2837114334106445
160,2021-11-30 11:47:37.770114,4.404785097107162,30.96944277279492,-59.517863031409625,6.261943340301514,39.543785,2.37884166667,0.10730165243148804,-0.056154314428567886,-1.2840783596038818
161,2021-11-30 11:47:37.810479,4.405024941888454,30.970292513841986,-59.51610626625751,6.256441593170166,39.543785,2.37884166667,0.1080014556646347,-0.05381922051310539,-1.2844605445861816
162,2021-11-30 11:47:37.843659,4.405212193666456,30.96995309838897,-59.51457771408642,6.256441593170166,39.543785,2.37884166667,0.10860322415828705,-0.05194521322846413,-1.2848048210144043
163,2021-11-30 11:47:37.883703,4.405364209226027,30.97059033369151,-59.512825543196854,6.256441593170166,39.543785,2.37884166667,0.10919222235679626,-0.050016675144433975,-1.2851735353469849
164,2021-11-30 11:47:37.926334,4.405463069584276,30.971263945424575,-59.51096492354986,6.2569780349731445,39.543785,2.37884166667,0.10975486040115356,-0.04824494197964668,-1.2855640649795532
165,2021-11-30 11:47:37.965237,4.405628058012329,30.971877923005344,-59.509273464487826,6.2569780349731445,39.543785,2.37884166667,0.11002106964588165,-0.046917397528886795,-1.2855809926986694
166,2021-11-30 11:47:38.005777,4.402738321022476,30.972010657271113,-59.50797762408239,6.2556352615356445,39.543785,2.37884166667,0.11050170660018921,-0.045606810599565506,-1.2859470844268799
167,2021-11-30 11:47:38.046994,4.393361478801967,30.972547184558547,-59.50628595629925,6.255985260009766,39.543785,2.37884166667,0.11088886857032776,-0.04457644000649452,-1.2863366603851318
168,2021-11-30 11:47:38.087628,4.388912456484501,30.97307030840538,-59.504625098613296,6.255985260009766,39.543785,2.37884166667,0.11121999472379684,-0.043833859264850616,-1.2866976261138916
169,2021-11-30 11:47:38.127728,4.387993042638071,30.973579915455247,-59.502992316839986,6.259279727935791,39.543785,2.37884166667,0.11144755780696869,-0.04338838532567024,-1.2871142625808716
170,2021-11-30 11:47:38.209194,4.387763174731316,30.974313884033585,-59.49945376940142,6.259279727935791,39.543785,2.37884166667,0.11183243244886398,-0.04227619245648384,-1.287545084953308
171,2021-11-30 11:47:38.249996,4.387728501566387,30.97476317939544,-59.49777099515124,6.259279727935791,39.543785,2.37884166667,0.11192842572927475,-0.04250549525022507,-1.2879514694213867
172,2021-11-30 11:47:38.290263,4.387688569494182,30.97519882737791,-59.496116266803185,6.25974178314209,39.543785,2.37884166667,0.1119561716914177,-0.04305816814303398,-1.2883837223052979
173,2021-11-30 11:47:38.322706,4.387733971883298,30.975422154872383,-59.49577848714019,6.25974178314209,39.543785,2.37884166667,0.11190628260374069,-0.04398422688245773,-1.2887877225875854
174,2021-11-30 11:47:38.366899,4.387675568619356,30.975857264980473,-59.49419010639982,6.255784034729004,39.543785,2.37884166667,0.11187411099672318,-0.04493987187743187,-1.2892193794250488
175,2021-11-30 11:47:38.404380,4.385305895594605,30.976222513356046,-59.49285100907564,6.255850791931152,39.543785,2.37884166667,0.1120096743106842,-0.04455137997865677,-1.2892613410949707
176,2021-11-30 11:47:38.445306,4.380566924516162,30.976610841396607,-59.49140151696674,6.255850791931152,39.543785,2.37884166667,0.11189127713441849,-0.04594181850552559,-1.2896403074264526
177,2021-11-30 11:47:38.485650,4.378990041832348,30.976277002876152,-59.48946714771423,6.25431489944458,39.543785,2.37884166667,0.11174898594617844,-0.04741986468434334,-1.290021300315857
178,2021-11-30 11:47:38.525721,4.378573854145582,30.976498586840755,-59.487962211756695,6.25431489944458,39.543785,2.37884166667,0.1115831807255745,-0.048987168818712234,-1.2904131412506104
179,2021-11-30 11:47:38.566382,4.378429565276678,30.976712749817427,-59.48644241018368,6.25431489944458,39.543785,2.37884166667,0.11137609928846359,-0.05065230652689934,-1.2907886505126953
180,2021-11-30 11:47:38.609998,4.381579450937615,30.97692951486656,-59.48481962537898,6.253367900848389,39.543785,2.37884166667,0.11115292459726334,-0.052451517432928085,-1.2911429405212402
181,2021-11-30 11:47:38.648046,4.385901527081915,30.977593176440593,-59.48403456986409,6.250588893890381,39.543785,2.37884166667,0.11119258403778076,-0.052601251751184464,-1.291183352470398
182,2021-11-30 11:47:38.689134,4.38702543411291,30.97787070145081,-59.4826422523848,6.250588893890381,39.543785,2.37884166667,0.11095257103443146,-0.05449668690562248,-1.2914552688598633
183,2021-11-30 11:47:38.770303,4.387151174872954,30.978393782304032,-59.479920225501424,6.2492995262146,39.543785,2.37884166667,0.11040933430194855,-0.058387983590364456,-1.292044758796692
184,2021-11-30 11:47:38.810513,4.383910543107781,30.977982612915998,-59.4784840325824,6.2491230964660645,39.543785,2.37884166667,0.11016278713941574,-0.060177989304065704,-1.2923129796981812
185,2021-11-30 11:47:38.843677,4.380085598883208,30.97807500756605,-59.47737381859106,6.2491230964660645,39.543785,2.37884166667,0.11015728861093521,-0.06063034385442734,-1.2923284769058228
186,2021-11-30 11:47:38.884552,4.378362879703424,30.978177773576306,-59.476013278778076,6.247854709625244,39.543785,2.37884166667,0.10988512635231018,-0.06247778609395027,-1.2925431728363037
187,2021-11-30 11:47:38.924577,4.37794247688689,30.978267410604687,-59.474690241817086,6.247854709625244,39.543785,2.37884166667,0.10962449014186859,-0.06423180550336838,-1.2927192449569702
188,2021-11-30 11:47:38.964705,4.37781050871629,30.979140403737134,-59.474342879418224,6.247820854187012,39.543785,2.37884166667,0.10934159904718399,-0.06586633622646332,-1.2929130792617798
189,2021-11-30 11:47:39.005616,4.377726237995213,30.97936989717865,-59.47320530248782,6.247820854187012,39.543785,2.37884166667,0.10909117758274078,-0.06741100549697876,-1.293068289756775
190,2021-11-30 11:47:39.049159,4.377701722695403,30.979605351417575,-59.47201012883935,6.247820854187012,39.543785,2.37884166667,0.10886889696121216,-0.0688047707080841,-1.293209195137024
191,2021-11-30 11:47:39.086795,4.377619270939204,30.979802275541008,-59.47099078073252,6.246124267578125,39.543785,2.37884166667,0.10881559550762177,-0.06944888085126877,-1.2931740283966064
192,2021-11-30 11:47:39.126948,4.377557845248099,30.980167794412687,-59.46992604647042,6.246793746948242,39.543785,2.37884166667,0.10858811438083649,-0.0707721933722496,-1.2932966947555542
193,2021-11-30 11:47:39.168101,4.377502562777371,30.980399978209665,-59.46883975146626,6.246793746948242,39.543785,2.37884166667,0.10836593061685562,-0.0720222145318985,-1.2934259176254272
194,2021-11-30 11:47:39.208620,4.37745348892196,30.980621396868663,-59.46778423048938,6.245433807373047,39.543785,2.37884166667,0.10815485566854477,-0.07313340157270432,-1.2935423851013184
195,2021-11-30 11:47:39.290277,4.377378337446117,30.98083711709907,-59.46564807290313,6.245874881744385,39.543785,2.37884166667,0.10786482691764832,-0.07488815486431122,-1.293599247932434
196,2021-11-30 11:47:39.331155,4.3773303258112275,30.980996601169423,-59.46461417826341,6.245874881744385,39.543785,2.37884166667,0.107676200568676,-0.07583116739988327,-1.2937414646148682
197,2021-11-30 11:47:39.362992,4.377577466722396,30.981114741900093,-59.46381836843683,6.245874881744385,39.543785,2.37884166667,0.10749312490224838,-0.07655157148838043,-1.293944001197815
198,2021-11-30 11:47:39.403655,4.381407190945954,31.372074701060356,-59.66224695432895,6.2437825202941895,39.543785,2.37884166667,0.10730083286762238,-0.07728862017393112,-1.2940984964370728
199,2021-11-30 11:47:39.444068,4.38507430706694,31.37184623150627,-59.66249087498251,6.2437825202941895,39.543785,2.37884166667,0.10713904350996017,-0.07792221754789352,-1.294331431388855
200,2021-11-30 11:47:39.487763,4.385961604723371,31.371909285576418,-59.66175602900677,6.247189998626709,39.543785,2.37884166667,0.1069980263710022,-0.07848339527845383,-1.2945692539215088
201,2021-11-30 11:47:39.525661,4.386092517023328,31.371956038599812,-59.66113741591327,6.245983600616455,39.543785,2.37884166667,0.10692134499549866,-0.07905443757772446,-1.294505000114441
202,2021-11-30 11:47:39.566407,4.385263909760112,31.371995153773632,-59.660492361482255,6.245983600616455,39.543785,2.37884166667,0.10677601397037506,-0.07946991175413132,-1.294789433479309
203,2021-11-30 11:47:39.606930,4.380843118251921,31.372291484044787,-59.660656270630724,6.248635292053223,39.543785,2.37884166667,0.10665859282016754,-0.07980748265981674,-1.2950921058654785
204,2021-11-30 11:47:39.647747,4.377748181647956,31.3723681162587,-59.66021918173544,6.247880935668945,39.543785,2.37884166667,0.10654851794242859,-0.08000195026397705,-1.2954529523849487
205,2021-11-30 11:47:39.688843,4.377081280746288,31.37243644007964,-59.65980380866595,6.247880935668945,39.543785,2.37884166667,0.10644201934337616,-0.08009679615497589,-1.295784592628479
206,2021-11-30 11:47:39.769633,4.378315106020994,31.373562219159744,-59.659157003726904,6.2463507652282715,39.543785,2.37884166667,0.1062927097082138,-0.08048170804977417,-1.2961599826812744
207,2021-11-30 11:47:39.810577,4.383026807370393,31.373813031668686,-59.658838096639464,6.2463507652282715,39.543785,2.37884166667,0.10625097900629044,-0.08038337528705597,-1.2965713739395142
208,2021-11-30 11:47:39.850545,4.385240962676918,31.37405361833231,-59.65855027574737,6.2463507652282715,39.543785,2.37884166667,0.10618502646684647,-0.0801931694149971,-1.2969850301742554
209,2021-11-30 11:47:39.890817,4.385714567483048,31.374292065572448,-59.65828411073312,6.246053695678711,39.543785,2.37884166667,0.10615947097539902,-0.07992232590913773,-1.297399640083313
210,2021-11-30 11:47:39.926356,4.38569255229633,31.375056705544036,-59.65927390030065,6.246053695678711,39.543785,2.37884166667,0.10613816231489182,-0.07952910661697388,-1.2978911399841309
211,2021-11-30 11:47:39.964780,4.3857183119426,31.37538889173981,-59.659297231762736,6.2535080909729,39.543785,2.37884166667,0.10608610510826111,-0.07975294440984726,-1.2979066371917725
212,2021-11-30 11:47:40.005398,4.385758267196188,31.375737461269534,-59.65935119366382,6.253962993621826,39.543785,2.37884166667,0.1061304360628128,-0.07921347767114639,-1.298378825187683
213,2021-11-30 11:47:40.045522,4.385773579506563,31.37608071258056,-59.65943357258663,6.253962993621826,39.543785,2.37884166667,0.10614260286092758,-0.07860952615737915,-1.2988454103469849
214,2021-11-30 11:47:40.086295,4.385828332668169,31.376461325025925,-59.65849381520713,6.249207973480225,39.543785,2.37884166667,0.10621215403079987,-0.07784493267536163,-1.2992364168167114
215,2021-11-30 11:47:40.127128,4.385864868522292,31.376813923377885,-59.658421035273534,6.249207973480225,39.543785,2.37884166667,0.1062796488404274,-0.07694369554519653,-1.299616813659668
216,2021-11-30 11:47:40.160053,4.386725383748485,31.377097747986607,-59.65838086652887,6.249207973480225,39.543785,2.37884166667,0.10626626014709473,-0.07692970335483551,-1.2996418476104736
217,2021-11-30 11:47:40.249343,4.394385956583511,31.376732540737358,-59.65831120025598,6.249362945556641,39.543785,2.37884166667,0.10646574944257736,-0.0746256485581398,-1.3004111051559448
218,2021-11-30 11:47:40.289987,4.394935213199788,31.37685307254421,-59.658331492245686,6.247659683227539,39.543785,2.37884166667,0.1066194549202919,-0.07337398827075958,-1.3007944822311401
219,2021-11-30 11:47:40.322021,4.395075774179991,31.376943675457937,-59.65836480913214,6.247659683227539,39.543785,2.37884166667,0.10677241533994675,-0.07207367569208145,-1.3011112213134766
220,2021-11-30 11:47:40.371161,4.390521019722535,31.37707641217095,-59.658447898286575,6.2481303215026855,39.543785,2.37884166667,0.10695021599531174,-0.07059699296951294,-1.3014148473739624
221,2021-11-30 11:47:40.403270,4.382761333181243,31.37769409710515,-59.65778543629373,6.2466936111450195,39.543785,2.37884166667,0.10697128623723984,-0.07029171288013458,-1.3014334440231323
222,2021-11-30 11:47:40.443916,4.378321682353642,31.377903412919167,-59.65774880635941,6.2466936111450195,39.543785,2.37884166667,0.10713942348957062,-0.0687469020485878,-1.301734209060669
223,2021-11-30 11:47:40.484409,4.377434142166515,31.378108681064255,-59.65773339715108,6.2466936111450195,39.543785,2.37884166667,0.10731665045022964,-0.0672154426574707,-1.3020470142364502
224,2021-11-30 11:47:40.517098,4.377294418477257,31.378271944510303,-59.65773591770612,6.24610710144043,39.543785,2.37884166667,0.10749021172523499,-0.06574474275112152,-1.3023761510849
225,2021-11-30 11:47:40.565611,4.38191362082983,31.378564595484747,-59.65674116126317,6.24610710144043,39.543785,2.37884166667,0.1076713502407074,-0.06413005292415619,-1.3026899099349976
226,2021-11-30 11:47:40.609407,4.391301932900465,31.37878713464728,-59.656566916277164,6.24610710144043,39.543785,2.37884166667,0.10781829804182053,-0.06268223375082016,-1.3030179738998413
227,2021-11-30 11:47:40.647339,4.394589526554544,31.37897598722995,-59.65643222151237,6.247086048126221,39.543785,2.37884166667,0.10788275301456451,-0.06206832453608513,-1.3030387163162231
228,2021-11-30 11:47:40.688815,4.395293682186842,31.379179086011145,-59.6563000617001,6.247086048126221,39.543785,2.37884166667,0.10798193514347076,-0.06064619496464729,-1.3033677339553833
229,2021-11-30 11:47:40.769824,4.398737066167658,31.379654989782697,-59.65315789494856,6.247617721557617,39.543785,2.37884166667,0.10815700888633728,-0.05804608762264252,-1.304015040397644
230,2021-11-30 11:47:40.809979,4.403059943355119,31.379854631691657,-59.652580075513086,6.2525634765625,39.543785,2.37884166667,0.10822217911481857,-0.056845080107450485,-1.3043538331985474
231,2021-11-30 11:47:40.850462,4.404280355104102,31.870990201775626,-59.86365400087875,6.2525634765625,39.543785,2.37884166667,0.10829760879278183,-0.05611665919423103,-1.304343819618225
232,2021-11-30 11:47:40.882700,4.404503085467569,31.87059921182383,-59.86198958054948,6.250332832336426,39.543785,2.37884166667,0.10831599682569504,-0.05515867844223976,-1.304695963859558
233,2021-11-30 11:47:40.923229,4.404565792406249,31.8706846518139,-59.86114573454966,6.250332832336426,39.543785,2.37884166667,0.10832640528678894,-0.054100535809993744,-1.3050520420074463
234,2021-11-30 11:47:40.963735,4.401350929516118,31.870763932793906,-59.86030214201159,6.250332832336426,39.543785,2.37884166667,0.1083000972867012,-0.05313858762383461,-1.3054614067077637
235,2021-11-30 11:47:41.004792,4.396971931760678,31.870838846669887,-59.859447269044495,6.250875473022461,39.543785,2.37884166667,0.10824903100728989,-0.05226437374949455,-1.30583918094635
236,2021-11-30 11:47:41.048194,4.395670210901736,31.872075592930976,-59.85816864094472,6.250875473022461,39.543785,2.37884166667,0.10818657279014587,-0.05141036584973335,-1.3062278032302856
237,2021-11-30 11:47:41.085700,4.395391700317024,31.87236290027438,-59.857313233342474,6.248973369598389,39.543785,2.37884166667,0.10821190476417542,-0.05075906589627266,-1.3062447309494019
238,2021-11-30 11:47:41.126271,4.39528353007591,31.872671288883655,-59.85638472790891,6.249902248382568,39.543785,2.37884166667,0.10811135172843933,-0.050085511058568954,-1.306664228439331
239,2021-11-30 11:47:41.167980,4.398421435692911,31.872986721853813,-59.85542665993545,6.249902248382568,39.543785,2.37884166667,0.10794256627559662,-0.049514397978782654,-1.3070497512817383
240,2021-11-30 11:47:41.207590,4.402613469336426,31.87356946861674,-59.85337525088347,6.250205039978027,39.543785,2.37884166667,0.10775849223136902,-0.04903702437877655,-1.3074430227279663
241,2021-11-30 11:47:41.289450,4.403938488102391,31.874307209297672,-59.85100346837229,6.250205039978027,39.543785,2.37884166667,0.10754241049289703,-0.048029884696006775,-1.3079081773757935
242,2021-11-30 11:47:41.330961,4.403896916329004,31.874680682335608,-59.84978837282545,6.250205039978027,39.543785,2.37884166667,0.10732942819595337,-0.04776036739349365,-1.3083235025405884
243,2021-11-30 11:47:41.370571,4.403884973036762,31.875352177584443,-59.84749828874619,6.24719762802124,39.543785,2.37884166667,0.107088603079319,-0.047628674656152725,-1.3087373971939087
244,2021-11-30 11:47:41.402496,4.403800499678619,31.875687619679844,-59.846373468305956,6.24719762802124,39.543785,2.37884166667,0.10681694000959396,-0.047674570232629776,-1.3091349601745605
245,2021-11-30 11:47:41.443410,4.403689882398776,31.876119929204012,-59.84492035004079,6.24719762802124,39.543785,2.37884166667,0.10650500655174255,-0.04771709069609642,-1.3095382452011108
246,2021-11-30 11:47:41.487191,4.40356350447034,31.876584820570997,-59.843350989948256,6.247905731201172,39.543785,2.37884166667,0.10618481785058975,-0.0478147491812706,-1.309923768043518
247,2021-11-30 11:47:41.524575,4.404468246580855,31.875789284227896,-59.841427169447385,6.247905731201172,39.543785,2.37884166667,0.10609909892082214,-0.04746166989207268,-1.309950828552246
248,2021-11-30 11:47:41.565514,4.415965824295632,31.875973427688937,-59.83981194813551,6.244119644165039,39.543785,2.37884166667,0.10574042797088623,-0.04760921001434326,-1.310373067855835
249,2021-11-30 11:47:41.606028,4.427171644064719,31.876150656646292,-59.838196965865826,6.244037628173828,39.543785,2.37884166667,0.10536328703165054,-0.04784630239009857,-1.3107417821884155
250,2021-11-30 11:47:41.646883,4.429716760204119,31.876325665320042,-59.836552587748315,6.249081611633301,39.543785,2.37884166667,0.1050046905875206,-0.04812398552894592,-1.31107497215271
251,2021-11-30 11:47:41.687047,4.430241205934099,31.877336384092274,-59.83367486722751,6.249081611633301,39.543785,2.37884166667,0.10463618487119675,-0.048436231911182404,-1.311395525932312
252,2021-11-30 11:47:41.729434,4.428578161694577,31.877691700473477,-59.831668240002415,6.249081611633301,39.543785,2.37884166667,0.10448608547449112,-0.048227448016405106,-1.311407208442688
253,2021-11-30 11:47:41.810007,4.41350666163306,31.878364882127098,-59.82779197358807,6.2481513023376465,39.543785,2.37884166667,0.1037471741437912,-0.048970308154821396,-1.3120523691177368
254,2021-11-30 11:47:41.850264,4.412186561537038,31.878524873338538,-59.82507067700185,6.2481513023376465,39.543785,2.37884166667,0.10335409641265869,-0.049257613718509674,-1.312323808670044
255,2021-11-30 11:47:41.890729,4.41178441856074,32.03574655520683,-59.91632523951479,6.248208045959473,39.543785,2.37884166667,0.10295543074607849,-0.04952459782361984,-1.3125371932983398
256,2021-11-30 11:47:41.925283,4.413326102356283,32.036007072846225,-59.91446906830832,6.248208045959473,39.543785,2.37884166667,0.10256673395633698,-0.04983099177479744,-1.3128081560134888
257,2021-11-30 11:47:41.963191,4.421827637861459,32.03629330919139,-59.91241145091179,6.246809005737305,39.543785,2.37884166667,0.10236866772174835,-0.04964759945869446,-1.312778115272522
258,2021-11-30 11:47:42.004518,4.427898367460369,32.0381557472256,-59.909961574534066,6.24696683883667,39.543785,2.37884166667,0.1019100621342659,-0.05005382373929024,-1.3130356073379517
259,2021-11-30 11:47:42.045246,4.429011268765696,32.03880517365388,-59.90765952639265,6.24696683883667,39.543785,2.37884166667,0.10141386836767197,-0.05058346688747406,-1.3132761716842651
260,2021-11-30 11:47:42.085207,4.429084707885677,32.039449944766154,-59.905375143235126,6.24696683883667,39.543785,2.37884166667,0.10088405758142471,-0.05124799534678459,-1.3134950399398804
261,2021-11-30 11:47:42.126607,4.428956362945461,32.04012578143429,-59.90298190472908,6.245635509490967,39.543785,2.37884166667,0.10032689571380615,-0.0519886240363121,-1.3137295246124268
262,2021-11-30 11:47:42.170067,4.428901958543641,32.041567857940606,-59.90008889623989,6.245635509490967,39.543785,2.37884166667,0.0997074767947197,-0.05282289907336235,-1.3139057159423828
263,2021-11-30 11:47:42.207256,4.428607154495703,32.04232759873476,-59.89782478493976,6.245635509490967,39.543785,2.37884166667,0.09944101423025131,-0.05294842645525932,-1.3138338327407837
264,2021-11-30 11:47:42.289303,4.428114779087791,32.04403441945529,-59.89274153880145,6.243310928344727,39.543785,2.37884166667,0.09812774509191513,-0.05503978207707405,-1.3141756057739258
265,2021-11-30 11:47:42.329406,4.430891411049785,32.045574767129004,-59.89066849855805,6.243310928344727,39.543785,2.37884166667,0.09741505980491638,-0.056197669357061386,-1.3143538236618042
266,2021-11-30 11:47:42.366614,4.4382118373982316,32.046503557865734,-59.88838443967063,6.2443108558654785,39.543785,2.37884166667,0.09667738527059555,-0.05741305276751518,-1.3145240545272827
267,2021-11-30 11:47:42.402805,4.443898094963151,32.04741906748799,-59.8861454411811,6.242395877838135,39.543785,2.37884166667,0.09634365141391754,-0.057696957141160965,-1.3144218921661377
268,2021-11-30 11:47:42.443214,4.444836068090638,32.0484551627204,-59.883616018213665,6.242395877838135,39.543785,2.37884166667,0.09547272324562073,-0.059184812009334564,-1.3146005868911743
269,2021-11-30 11:47:42.483516,4.444730079531047,32.04975925995884,-59.881194548966576,6.241373062133789,39.543785,2.37884166667,0.09458515048027039,-0.06076104938983917,-1.3147611618041992
270,2021-11-30 11:47:42.524271,4.44144556639641,32.05088946079616,-59.87861846482176,6.241373062133789,39.543785,2.37884166667,0.0936598852276802,-0.06250885874032974,-1.3149449825286865
271,2021-11-30 11:47:42.565056,4.431717494256596,32.05203874633074,-59.87601482598372,6.241373062133789,39.543785,2.37884166667,0.09267132729291916,-0.06440450996160507,-1.315116047859192
272,2021-11-30 11:47:42.609513,4.42696680704999,32.053310290983084,-59.87314938345824,6.238983154296875,39.543785,2.37884166667,0.09161697328090668,-0.06635628640651703,-1.31529700756073
273,2021-11-30 11:47:42.646396,4.4255444699840325,32.05441425642551,-59.87079350995602,6.237180233001709,39.543785,2.37884166667,0.09112419188022614,-0.06708166748285294,-1.3151884078979492
274,2021-11-30 11:47:42.687788,4.424933220333706,32.05563701383229,-59.868082374389374,6.237180233001709,39.543785,2.37884166667,0.09005531668663025,-0.06903951615095139,-1.31538987159729
275,2021-11-30 11:47:42.768066,4.4450693236767505,32.05805114463394,-59.86274667639971,6.235380172729492,39.543785,2.37884166667,0.08800940960645676,-0.07280115783214569,-1.315827488899231
276,2021-11-30 11:47:42.809284,4.449636917047661,32.0590845198257,-59.860109627393456,6.23402738571167,39.543785,2.37884166667,0.08695485442876816,-0.07479235529899597,-1.3160532712936401
277,2021-11-30 11:47:42.850181,4.4503863162478865,32.06031073442825,-59.85736295766764,6.23402738571167,39.543785,2.37884166667,0.08631154894828796,-0.07583274692296982,-1.3159520626068115
278,2021-11-30 11:47:42.882135,4.450213220690355,32.061278547603365,-59.85519286190123,6.23402738571167,39.543785,2.37884166667,0.085393026471138,-0.0777445137500763,-1.3162600994110107
279,2021-11-30 11:47:42.923244,4.445254580830508,32.062539519242414,-59.8523808060309,6.23402738571167,39.543785,2.37884166667,0.08429902046918869,-0.07994329929351807,-1.3165243864059448
280,2021-11-30 11:47:42.963023,4.435603770727207,32.064037513972764,-59.85152183715383,6.231951713562012,39.543785,2.37884166667,0.08328591287136078,-0.08205710351467133,-1.3167942762374878
281,2021-11-30 11:47:43.004039,4.432026111457063,32.06538068375763,-59.84906758143129,6.2296037673950195,39.543785,2.37884166667,0.08227470517158508,-0.08401762694120407,-1.3171072006225586
282,2021-11-30 11:47:43.046456,4.431098661017668,32.066787100106495,-59.84651356703606,6.2296037673950195,39.543785,2.37884166667,0.08131155371665955,-0.0858127549290657,-1.3173757791519165
283,2021-11-30 11:47:43.085027,4.430593825970958,32.068084052043204,-59.844180424831976,6.227826118469238,39.543785,2.37884166667,0.08064032346010208,-0.08698121458292007,-1.3173240423202515
284,2021-11-30 11:47:43.125943,4.433456928931495,32.06826227857443,-59.84004449001238,6.225983142852783,39.543785,2.37884166667,0.07976865023374557,-0.08854158222675323,-1.3176066875457764
285,2021-11-30 11:47:43.166556,4.437505675506567,32.06940039569622,-59.837206678773214,6.225983142852783,39.543785,2.37884166667,0.07895071059465408,-0.08994361013174057,-1.3179166316986084
286,2021-11-30 11:47:43.206862,4.438484033953853,32.07053957641815,-59.83436709581904,6.224609375,39.543785,2.37884166667,0.07820761948823929,-0.0911211371421814,-1.3182059526443481
287,2021-11-30 11:47:43.290100,4.437673878310409,32.071991672584765,-59.8309206646528,6.2278289794921875,39.543785,2.37884166667,0.07685739547014236,-0.09293647855520248,-1.3188773393630981
288,2021-11-30 11:47:43.329659,4.429678654575263,32.370685802474,-59.95635119850211,6.2278289794921875,39.543785,2.37884166667,0.0761617049574852,-0.09407389163970947,-1.318703293800354
289,2021-11-30 11:47:43.370345,4.42197808776855,32.37169104802671,-59.95393385967722,6.2278289794921875,39.543785,2.37884166667,0.07562930881977081,-0.09458954632282257,-1.3190789222717285
290,2021-11-30 11:47:43.409841,4.420096298234177,32.37267107646439,-59.95157722374969,6.2278289794921875,39.543785,2.37884166667,0.07523312419652939,-0.09476778656244278,-1.319453239440918
291,2021-11-30 11:47:43.450528,4.419555822905212,32.37287738263768,-59.95008727075879,6.227509021759033,39.543785,2.37884166667,0.07487516105175018,-0.09470552206039429,-1.319841742515564
292,2021-11-30 11:47:43.485429,4.419434321911017,32.373598318939244,-59.948167672950966,6.2301411628723145,39.543785,2.37884166667,0.07468340545892715,-0.09425707906484604,-1.3202112913131714
293,2021-11-30 11:47:43.524824,4.422588038057389,32.3744210549015,-59.94599664467405,6.2301411628723145,39.543785,2.37884166667,0.07414593547582626,-0.09488692134618759,-1.3201968669891357
294,2021-11-30 11:47:43.564569,4.426860937733164,32.37524412809407,-59.943797225857296,6.230323791503906,39.543785,2.37884166667,0.07401930540800095,-0.09411486238241196,-1.3205608129501343
295,2021-11-30 11:47:43.604982,4.427985578250796,32.374379556783644,-59.94364545984452,6.232632637023926,39.543785,2.37884166667,0.07399410754442215,-0.09320961683988571,-1.3209251165390015
296,2021-11-30 11:47:43.645743,4.42827773219997,32.37485544570146,-59.94183962735713,6.232632637023926,39.543785,2.37884166667,0.07402206212282181,-0.09209687262773514,-1.3212536573410034
297,2021-11-30 11:47:43.686837,4.428074963447469,32.375328466597544,-59.94002260192167,6.232632637023926,39.543785,2.37884166667,0.07411980628967285,-0.09083815664052963,-1.3215954303741455
298,2021-11-30 11:47:43.727732,4.4242393720059905,32.37579911818326,-59.93822129241872,6.233798503875732,39.543785,2.37884166667,0.07371854037046432,-0.09107506275177002,-1.321576714515686
299,2021-11-30 11:47:43.768999,4.420609877395002,32.37535823098785,-59.93806466512202,6.233798503875732,39.543785,2.37884166667,0.0739520937204361,-0.08960471302270889,-1.3219417333602905
300,2021-11-30 11:47:43.849497,4.419769434592844,32.37585516473032,-59.935235564919736,6.234877109527588,39.543785,2.37884166667,0.07456234842538834,-0.08627298474311829,-1.3225945234298706
301,2021-11-30 11:47:43.889609,4.419039781709553,32.376087017799925,-59.933842996282735,6.235534191131592,39.543785,2.37884166667,0.07495889067649841,-0.08450623601675034,-1.322965145111084
302,2021-11-30 11:47:43.923742,4.4156672905379075,32.37642933171794,-59.932561184718004,6.235534191131592,39.543785,2.37884166667,0.07542707026004791,-0.08264957368373871,-1.3233647346496582
303,2021-11-30 11:47:43.963081,4.41204911595466,32.37667577356913,-59.931197827159174,6.234813213348389,39.543785,2.37884166667,0.07525473088026047,-0.08234059810638428,-1.3233602046966553
304,2021-11-30 11:47:44.003918,4.411355198017004,32.376917517439004,-59.929790051588306,6.23578405380249,39.543785,2.37884166667,0.07579983025789261,-0.0803012102842331,-1.3237605094909668
305,2021-11-30 11:47:44.051997,4.411381340293191,32.377190031125245,-59.92814640752105,6.23578405380249,39.543785,2.37884166667,0.0763658806681633,-0.07812118530273438,-1.3241586685180664
306,2021-11-30 11:47:44.084300,4.411486935993153,32.37626620846749,-59.928036399038994,6.235164642333984,39.543785,2.37884166667,0.07700100541114807,-0.07618597149848938,-1.324532151222229
307,2021-11-30 11:47:44.126227,4.411650920965197,32.37624008932506,-59.9268450506518,6.235164642333984,39.543785,2.37884166667,0.07762452960014343,-0.07413199543952942,-1.3249303102493286
308,2021-11-30 11:47:44.167838,4.41178728267418,32.37619845373324,-59.92567905390534,6.235164642333984,39.543785,2.37884166667,0.07829809933900833,-0.07217498123645782,-1.3253488540649414
309,2021-11-30 11:47:44.206452,4.412053384402124,32.376147582751535,-59.9246142075965,6.236770153045654,39.543785,2.37884166667,0.07832802832126617,-0.0714740976691246,-1.3253707885742188
310,2021-11-30 11:47:44.247003,4.412226995240928,32.37635452295197,-59.92373919773803,6.241833209991455,39.543785,2.37884166667,0.07906824350357056,-0.06946703046560287,-1.3258038759231567
311,2021-11-30 11:47:44.288839,4.410911999804046,32.376329799780734,-59.92266614017904,6.241833209991455,39.543785,2.37884166667,0.07983172684907913,-0.06756839901208878,-1.3262476921081543
312,2021-11-30 11:47:44.369561,4.40440023021146,32.632477855969995,-60.020357396626096,6.243546009063721,39.543785,2.37884166667,0.08138824999332428,-0.06406509876251221,-1.3270938396453857
313,2021-11-30 11:47:44.410282,4.404134334098166,32.63238943763932,-60.018740826923995,6.24324893951416,39.543785,2.37884166667,0.08156798034906387,-0.06317579746246338,-1.3271433115005493
314,2021-11-30 11:47:44.442738,4.404296267161778,32.632333736736484,-60.01784776762662,6.24324893951416,39.543785,2.37884166667,0.0823497474193573,-0.0617218092083931,-1.3276116847991943
315,2021-11-30 11:47:44.482961,4.403022946356345,32.632252970806384,-60.0167537818635,6.24324893951416,39.543785,2.37884166667,0.08318468183279037,-0.06026220694184303,-1.3280785083770752
