,a_nav_status_t,nav_status_D,nav_status_E,nav_status_N,nav_status_alt,nav_status_origin_lat,nav_status_origin_lon,nav_status_pitch,nav_status_roll,nav_status_yaw
0,2021-06-09 12:02:28.382766,0.0710040807304207,5.934771439078846,52.21544194796898,3.7325000762939453,39.54333,2.37794,0.11342728137969971,-0.03943938389420509,-1.53999662399292
1,2021-06-09 12:02:28.415484,0.0710040807304207,5.934771439078846,52.21544194796898,3.7325000762939453,39.54333,2.37794,0.11342728137969971,-0.03943938389420509,-1.53999662399292
2,2021-06-09 12:02:28.465140,0.06974042503789193,5.9110366802769665,52.21739189942109,3.737499952316284,39.54333,2.37794,0.11310134083032608,-0.04124167189002037,-1.539674997329712
3,2021-06-09 12:02:28.540934,0.0744939100647863,5.919228458272399,52.21236399859713,3.737499952316284,39.54333,2.37794,0.11190776526927948,-0.04395374283194542,-1.537107229232788
4,2021-06-09 12:02:28.586161,0.07844694465951012,5.922259663571591,52.22916359591114,3.737499952316284,39.54333,2.37794,0.11117509752511978,-0.044903434813022614,-1.5350031852722168
5,2021-06-09 12:02:28.623535,0.07922872099501406,5.9263642636704255,52.22961108545772,3.737499952316284,39.54333,2.37794,0.11027998477220535,-0.04552135244011879,-1.532558560371399
6,2021-06-09 12:02:28.654484,0.07922872099501406,5.9263642636704255,52.22961108545772,3.737499952316284,39.54333,2.37794,0.11027998477220535,-0.04552135244011879,-1.532558560371399
7,2021-06-09 12:02:28.700519,0.07960279676333948,5.929437215241248,52.229454816460425,3.737499952316284,39.54333,2.37794,0.10938470810651779,-0.046009812504053116,-1.5294421911239624
8,2021-06-09 12:02:28.739849,0.07610745154356616,5.931025724526306,52.229599701492724,3.737499952316284,39.54333,2.37794,0.10815873742103577,-0.04605911672115326,-1.5275790691375732
9,2021-06-09 12:02:28.782989,0.0718501354900949,5.9346240524803475,52.2299626412117,3.737499952316284,39.54333,2.37794,0.10716595500707626,-0.046000298112630844,-1.525406002998352
10,2021-06-09 12:02:28.821293,0.07061315642214884,5.938330530748617,52.23034578439456,3.737499952316284,39.54333,2.37794,0.10635267943143845,-0.04577014222741127,-1.5234791040420532
11,2021-06-09 12:02:28.862816,0.07051673276086962,5.941434894249246,52.23914963140327,3.7437500953674316,39.54333,2.37794,0.10574253648519516,-0.04534028843045235,-1.5218656063079834
12,2021-06-09 12:02:28.894421,0.07051673276086962,5.941434894249246,52.23914963140327,3.7437500953674316,39.54333,2.37794,0.10574253648519516,-0.04534028843045235,-1.5218656063079834
13,2021-06-09 12:02:28.940371,0.07058273018867658,5.94491468182812,52.24077455856264,3.7437500953674316,39.54333,2.37794,0.10541630536317825,-0.04477372393012047,-1.520727276802063
14,2021-06-09 12:02:28.981858,0.07086982526772861,5.948481303888831,52.24246960900099,3.75,39.54333,2.37794,0.10540973395109177,-0.04411818087100983,-1.5198322534561157
15,2021-06-09 12:02:29.025719,0.0710761333294317,5.960857970063779,52.250404691261885,3.75,39.54333,2.37794,0.10573279112577438,-0.04340402036905289,-1.519120454788208
16,2021-06-09 12:02:29.094308,0.07173141197324669,5.9657606606530535,52.25307993911187,3.7512500286102295,39.54333,2.37794,0.10639708489179611,-0.04263674467802048,-1.5186129808425903
17,2021-06-09 12:02:29.140508,0.07676575350690067,5.960192576729367,52.26278236944475,3.7512500286102295,39.54333,2.37794,0.10746249556541443,-0.04167739301919937,-1.5176018476486206
18,2021-06-09 12:02:29.177762,0.0809882957902905,5.960705400247556,52.26346005236036,3.7512500286102295,39.54333,2.37794,0.10859879106283188,-0.04121723398566246,-1.5179096460342407
19,2021-06-09 12:02:29.222252,0.08320705147545208,5.963515403571703,52.26720384671165,3.7512500286102295,39.54333,2.37794,0.10981544852256775,-0.040709469467401505,-1.5176423788070679
20,2021-06-09 12:02:29.263587,0.08416794225805972,5.966339410946288,52.27105447127437,3.7512500286102295,39.54333,2.37794,0.11092208325862885,-0.04042821377515793,-1.5173909664154053
21,2021-06-09 12:02:29.304005,0.08484674612904229,5.983628751237891,52.25971397609051,3.75,39.54333,2.37794,0.11181415617465973,-0.04041660577058792,-1.5171524286270142
22,2021-06-09 12:02:29.334507,0.08484674612904229,5.983628751237891,52.25971397609051,3.75,39.54333,2.37794,0.11181415617465973,-0.04041660577058792,-1.5171524286270142
23,2021-06-09 12:02:29.378457,0.0849880130687495,5.988768598193976,52.26126790756364,3.7487499713897705,39.54333,2.37794,0.11242116987705231,-0.04057835787534714,-1.5169010162353516
24,2021-06-09 12:02:29.422161,0.08463729691217863,5.993911781801395,52.26283332602629,3.7487499713897705,39.54333,2.37794,0.11267639696598053,-0.04095055162906647,-1.516674518585205
25,2021-06-09 12:02:29.462458,0.08446404557011529,5.975073419297576,52.241861434432586,3.75,39.54333,2.37794,0.1124638095498085,-0.041490085422992706,-1.5164633989334106
26,2021-06-09 12:02:29.501766,0.08694131666296241,5.979381126259894,52.239596391840166,3.75,39.54333,2.37794,0.11195147037506104,-0.042058542370796204,-1.5162997245788574
27,2021-06-09 12:02:29.534429,0.08694131666296241,5.979381126259894,52.239596391840166,3.75,39.54333,2.37794,0.11195147037506104,-0.042058542370796204,-1.5162997245788574
28,2021-06-09 12:02:29.578243,0.08988965745496626,5.983573323939505,52.23734539010562,3.7512500286102295,39.54333,2.37794,0.11109083145856857,-0.0425618439912796,-1.516259789466858
29,2021-06-09 12:02:29.661914,0.09057978267294739,5.996080802288279,52.226281218751495,3.7512500286102295,39.54333,2.37794,0.1085304394364357,-0.0429467149078846,-1.516279697418213
30,2021-06-09 12:02:29.703423,0.08352096461535978,6.001002904792333,52.222861465360346,3.7512500286102295,39.54333,2.37794,0.10714351385831833,-0.04258136823773384,-1.5162138938903809
31,2021-06-09 12:02:29.743598,0.07397015209991657,6.00615672303689,52.21921550762172,3.7512500286102295,39.54333,2.37794,0.10600293427705765,-0.04190914332866669,-1.5160269737243652
32,2021-06-09 12:02:29.776084,0.07407245690014097,5.994667293638554,52.2325360399262,3.7487499713897705,39.54333,2.37794,0.10599076747894287,-0.04194387048482895,-1.5160077810287476
33,2021-06-09 12:02:29.818981,0.07276380992971315,5.997420693971646,52.231304927965525,3.7487499713897705,39.54333,2.37794,0.10560549050569534,-0.04108511283993721,-1.5156863927841187
34,2021-06-09 12:02:29.859019,0.07277746110045215,6.000446886251931,52.22991078636206,3.747499942779541,39.54333,2.37794,0.10588211566209793,-0.040117815136909485,-1.5152040719985962
35,2021-06-09 12:02:29.900989,0.07450784641982447,5.9947283459051155,52.23350869201038,3.747499942779541,39.54333,2.37794,0.10680091381072998,-0.039158254861831665,-1.5145468711853027
36,2021-06-09 12:02:29.941771,0.07516724352750995,5.995936230354212,52.23301569092751,3.747499942779541,39.54333,2.37794,0.10845489054918289,-0.03837723657488823,-1.513968825340271
37,2021-06-09 12:02:29.983352,0.07657093831095367,5.997327284738373,52.23242414872827,3.7437500953674316,39.54333,2.37794,0.11067166179418564,-0.037876956164836884,-1.5133827924728394
38,2021-06-09 12:02:30.014352,0.07657093831095367,5.997327284738373,52.23242414872827,3.7437500953674316,39.54333,2.37794,0.11067166179418564,-0.037876956164836884,-1.5133827924728394
39,2021-06-09 12:02:30.060159,0.07928929207516924,6.002302302336025,52.2295072451077,3.740000009536743,39.54333,2.37794,0.11339979618787766,-0.03753722831606865,-1.5127720832824707
40,2021-06-09 12:02:30.141894,0.08850082704108747,6.005432373331781,52.22784115884069,3.740000009536743,39.54333,2.37794,0.11884399503469467,-0.03860434517264366,-1.5122997760772705
41,2021-06-09 12:02:30.182843,0.09078931352202432,6.007358986513808,52.22676814700875,3.7362499237060547,39.54333,2.37794,0.12157508730888367,-0.039549075067043304,-1.5121699571609497
42,2021-06-09 12:02:30.214263,0.09078931352202432,6.007358986513808,52.22676814700875,3.7362499237060547,39.54333,2.37794,0.12157508730888367,-0.039549075067043304,-1.5121699571609497
43,2021-06-09 12:02:30.258628,0.09131353701274193,6.0022608742966295,52.23217351831593,3.7362499237060547,39.54333,2.37794,0.12382906675338745,-0.04094434157013893,-1.5122175216674805
44,2021-06-09 12:02:30.298044,0.09131141499458567,6.002970018967773,52.23212210119733,3.731250047683716,39.54333,2.37794,0.12570786476135254,-0.04248962551355362,-1.5123265981674194
45,2021-06-09 12:02:30.342698,0.09099615488992799,6.00361704824124,52.232078533894736,3.731250047683716,39.54333,2.37794,0.12705565989017487,-0.044173914939165115,-1.5125318765640259
46,2021-06-09 12:02:30.387429,0.08943476341436794,6.005006805340001,52.24676251881471,3.7300000190734863,39.54333,2.37794,0.12791502475738525,-0.04587755352258682,-1.512770414352417
47,2021-06-09 12:02:30.426000,0.08893792165699708,5.996643096827508,52.250204139194295,3.7300000190734863,39.54333,2.37794,0.12814129889011383,-0.047435224056243896,-1.5129297971725464
48,2021-06-09 12:02:30.454491,0.08893792165699708,5.996643096827508,52.250204139194295,3.728749990463257,39.54333,2.37794,0.12814129889011383,-0.047435224056243896,-1.5129297971725464
49,2021-06-09 12:02:30.500193,0.08514499950866458,6.001240284804464,52.247426230931914,3.728749990463257,39.54333,2.37794,0.12824784219264984,-0.04851065203547478,-1.512863278388977
50,2021-06-09 12:02:30.540415,0.08011678196414455,6.001901933939786,52.248053116735335,3.728749990463257,39.54333,2.37794,0.12730057537555695,-0.04971505329012871,-1.5126817226409912
51,2021-06-09 12:02:30.580332,0.07806055784880356,6.003154789493304,52.249271065181176,3.728749990463257,39.54333,2.37794,0.12645097076892853,-0.05028904229402542,-1.5121028423309326
52,2021-06-09 12:02:30.654450,0.07736199054745571,6.0043658028344655,52.25050632602608,3.728749990463257,39.54333,2.37794,0.125477597117424,-0.05054331570863724,-1.5112314224243164
53,2021-06-09 12:02:30.703269,0.07713526338663212,6.007581877179239,52.23843967039215,3.728749990463257,39.54333,2.37794,0.1244676411151886,-0.05054326727986336,-1.5100473165512085
54,2021-06-09 12:02:30.738873,0.07686100720257034,6.0091023107523345,52.23757354180708,3.728749990463257,39.54333,2.37794,0.12348072230815887,-0.050288502126932144,-1.5085995197296143
55,2021-06-09 12:02:30.780241,0.07672968354644658,6.010462999210979,52.23675936994223,3.7325000762939453,39.54333,2.37794,0.12264014035463333,-0.04983557015657425,-1.5070451498031616
56,2021-06-09 12:02:30.825758,0.07641184199274306,6.013636826374035,52.231394952502086,3.7325000762939453,39.54333,2.37794,0.12195134907960892,-0.049321383237838745,-1.5053662061691284
57,2021-06-09 12:02:30.864419,0.08093432750046624,6.015403427021892,52.2296648055748,3.7325000762939453,39.54333,2.37794,0.12140829861164093,-0.04880085960030556,-1.5036486387252808
58,2021-06-09 12:02:30.894587,0.08093432750046624,6.015403427021892,52.2296648055748,3.733750104904175,39.54333,2.37794,0.12140829861164093,-0.04880085960030556,-1.5036486387252808
59,2021-06-09 12:02:30.941478,0.08871144887385747,6.017841381331836,52.22925390056536,3.733750104904175,39.54333,2.37794,0.1208755373954773,-0.04831846430897713,-1.501462459564209
60,2021-06-09 12:02:30.982092,0.09336497336771755,6.018271430927425,52.228886047696655,3.737499952316284,39.54333,2.37794,0.1208031177520752,-0.047889262437820435,-1.5007375478744507
61,2021-06-09 12:02:31.020191,0.09416275954474368,6.019852993801846,52.22751311766834,3.737499952316284,39.54333,2.37794,0.12056180834770203,-0.04741760715842247,-1.4995651245117188
62,2021-06-09 12:02:31.063446,0.09202256976593715,6.021411301596989,52.226111146094205,3.740000009536743,39.54333,2.37794,0.12035574018955231,-0.04693493992090225,-1.4987282752990723
63,2021-06-09 12:02:31.094600,0.09202256976593715,6.021411301596989,52.226111146094205,3.740000009536743,39.54333,2.37794,0.12035574018955231,-0.04693493992090225,-1.4987282752990723
64,2021-06-09 12:02:31.142555,0.08810256471532496,6.030201867654409,52.23156472364327,3.7350001335144043,39.54333,2.37794,0.12014666944742203,-0.04639565944671631,-1.4983298778533936
65,2021-06-09 12:02:31.219845,0.0855728595526559,6.035622555543227,52.23087910097866,3.7350001335144043,39.54333,2.37794,0.11986713856458664,-0.045053400099277496,-1.498645305633545
66,2021-06-09 12:02:31.263980,0.08571474216512372,6.040357404947782,52.249022469624705,3.7350001335144043,39.54333,2.37794,0.11984645575284958,-0.04418358579277992,-1.499261736869812
67,2021-06-09 12:02:31.303423,0.08605029430695628,6.043395706788901,52.25168144970606,3.7300000190734863,39.54333,2.37794,0.11995559930801392,-0.043156709522008896,-1.5000158548355103
68,2021-06-09 12:02:31.334226,0.08605029430695628,6.043395706788901,52.25168144970606,3.7300000190734863,39.54333,2.37794,0.11995559930801392,-0.043156709522008896,-1.5000158548355103
69,2021-06-09 12:02:31.378226,0.08625138614791208,6.0464212838562625,52.25439441077696,3.726249933242798,39.54333,2.37794,0.12020682543516159,-0.04198664054274559,-1.5007184743881226
70,2021-06-09 12:02:31.425448,0.08756201046192587,6.044568445538786,52.25381098404897,3.726249933242798,39.54333,2.37794,0.12062297761440277,-0.04073032736778259,-1.5012553930282593
71,2021-06-09 12:02:31.462904,0.08822472690063685,6.034959107823626,52.25680384052115,3.7225000858306885,39.54333,2.37794,0.12122936546802521,-0.03940363973379135,-1.5014262199401855
72,2021-06-09 12:02:31.502349,0.08887745428854814,6.037298000347744,52.259290054295526,3.7225000858306885,39.54333,2.37794,0.12195997685194016,-0.03801451623439789,-1.5010071992874146
73,2021-06-09 12:02:31.540989,0.08951589426518687,6.0394350354056785,52.26161042201123,3.7225000858306885,39.54333,2.37794,0.12275057286024094,-0.03668244183063507,-1.499881386756897
74,2021-06-09 12:02:31.574668,0.08951589426518687,6.0394350354056785,52.26161042201123,3.71875,39.54333,2.37794,0.12275057286024094,-0.03668244183063507,-1.499881386756897
75,2021-06-09 12:02:31.624887,0.09091809321224135,6.046384060738362,52.23382847177212,3.71875,39.54333,2.37794,0.1234094575047493,-0.03539522737264633,-1.4978777170181274
76,2021-06-09 12:02:31.660698,0.09127798460951062,6.049339757164541,52.23177601069556,3.7174999713897705,39.54333,2.37794,0.12393270432949066,-0.03409886360168457,-1.4950135946273804
77,2021-06-09 12:02:31.703349,0.09108676157503758,6.052741750190932,52.23100956331433,3.7174999713897705,39.54333,2.37794,0.12415037304162979,-0.0328119620680809,-1.4911906719207764
78,2021-06-09 12:02:31.774427,0.09086300493217317,6.0557091566207015,52.22909539965416,3.713750123977661,39.54333,2.37794,0.12413381785154343,-0.031727783381938934,-1.4868444204330444
79,2021-06-09 12:02:31.819097,0.09039253261004368,6.05848296360834,52.22725092554562,3.713750123977661,39.54333,2.37794,0.12379726767539978,-0.030916713178157806,-1.482377529144287
80,2021-06-09 12:02:31.861536,0.09052788944441159,6.062062232752251,52.22886512171509,3.713750123977661,39.54333,2.37794,0.12284711003303528,-0.030324088409543037,-1.4774341583251953
81,2021-06-09 12:02:31.904624,0.09451398186792187,6.06455825486805,52.227680348779735,3.7125000953674316,39.54333,2.37794,0.1219589114189148,-0.03008236736059189,-1.4737226963043213
82,2021-06-09 12:02:31.943385,0.09469729533655723,6.067639375026834,52.22619407358343,3.7125000953674316,39.54333,2.37794,0.12054631859064102,-0.029966959729790688,-1.4703905582427979
83,2021-06-09 12:02:31.984029,0.09338440655309735,6.070732028589594,52.224676582055864,3.7150001525878906,39.54333,2.37794,0.11895212531089783,-0.029979227110743523,-1.4681804180145264
84,2021-06-09 12:02:32.014420,0.09338440655309735,6.070732028589594,52.224676582055864,3.7150001525878906,39.54333,2.37794,0.11895212531089783,-0.029979227110743523,-1.4681804180145264
85,2021-06-09 12:02:32.062203,0.09355899744636047,6.077128091063286,52.233024616722744,3.716249942779541,39.54333,2.37794,0.11754698306322098,-0.03002595342695713,-1.4673091173171997
86,2021-06-09 12:02:32.100657,0.09772454304594684,6.080787901642382,52.23293762734168,3.716249942779541,39.54333,2.37794,0.11640512943267822,-0.030083952471613884,-1.4677363634109497
87,2021-06-09 12:02:32.140564,0.09897043523338737,6.084462110240467,52.23287045610816,3.716249942779541,39.54333,2.37794,0.11568266898393631,-0.0300926361232996,-1.4694631099700928
88,2021-06-09 12:02:32.215038,0.09986008854780143,6.090511936511658,52.232131006416836,3.740000009536743,39.54333,2.37794,0.11553645133972168,-0.03006235510110855,-1.4722766876220703
89,2021-06-09 12:02:32.260426,0.09716837754608139,6.094222563031911,52.23202073357619,3.740000009536743,39.54333,2.37794,0.11611536890268326,-0.029852963984012604,-1.4756684303283691
90,2021-06-09 12:02:32.303409,0.0897003584902248,6.093295410583605,52.24263562052533,3.7637500762939453,39.54333,2.37794,0.11743393540382385,-0.02982257679104805,-1.4795790910720825
91,2021-06-09 12:02:32.340032,0.08688635959449204,6.095139329878973,52.24368843513141,3.7637500762939453,39.54333,2.37794,0.11936862021684647,-0.02972431294620037,-1.4827982187271118
92,2021-06-09 12:02:32.385746,0.08788111607707888,6.09813784044798,52.24542292306695,3.762500047683716,39.54333,2.37794,0.12207627296447754,-0.029957756400108337,-1.4857361316680908
93,2021-06-09 12:02:32.427491,0.08646679098506427,6.085302240942421,52.24889869979026,3.762500047683716,39.54333,2.37794,0.125047504901886,-0.030534688383340836,-1.487768530845642
94,2021-06-09 12:02:32.455177,0.08646679098506427,6.085302240942421,52.24889869979026,3.7562501430511475,39.54333,2.37794,0.125047504901886,-0.030534688383340836,-1.487768530845642
95,2021-06-09 12:02:32.501664,0.07902487359548986,6.081395870051217,52.24937064056528,3.7562501430511475,39.54333,2.37794,0.12790647149085999,-0.03155484423041344,-1.4887596368789673
96,2021-06-09 12:02:32.543452,0.07593286413161739,6.083247783979221,52.25103220821503,3.7562501430511475,39.54333,2.37794,0.13061311841011047,-0.03292323276400566,-1.4886988401412964
97,2021-06-09 12:02:32.581229,0.0756533277670073,6.085074052665708,52.252734090099224,3.75,39.54333,2.37794,0.1328752636909485,-0.03466616943478584,-1.4875996112823486
98,2021-06-09 12:02:32.622940,0.07981516925175133,6.090895489169206,52.26874573303698,3.75,39.54333,2.37794,0.13449275493621826,-0.03679940849542618,-1.4857101440429688
99,2021-06-09 12:02:32.698178,0.09639658622081493,6.093268547394499,52.272849615175936,3.75,39.54333,2.37794,0.13551843166351318,-0.039048753678798676,-1.4833794832229614
100,2021-06-09 12:02:32.739946,0.10826001541719452,6.08466101882272,52.245848818616516,3.75,39.54333,2.37794,0.1364600658416748,-0.041382815688848495,-1.4802751541137695
101,2021-06-09 12:02:32.782487,0.10832435835636912,6.084850820337211,52.2454287656778,3.75,39.54333,2.37794,0.13533464074134827,-0.04430007189512253,-1.4785414934158325
102,2021-06-09 12:02:32.819896,0.10564860464613397,6.085225603522748,52.244314231965824,3.75,39.54333,2.37794,0.13434255123138428,-0.04698881879448891,-1.4767943620681763
103,2021-06-09 12:02:32.862323,0.09334331070701256,6.085559592903716,52.24313689639357,3.75,39.54333,2.37794,0.13300499320030212,-0.04950866475701332,-1.4758052825927734
104,2021-06-09 12:02:32.894359,0.09334331070701256,6.085559592903716,52.24313689639357,3.75,39.54333,2.37794,0.13300499320030212,-0.04950866475701332,-1.4758052825927734
105,2021-06-09 12:02:32.939945,0.08746636704269872,6.108913874364926,52.2584525385426,3.75,39.54333,2.37794,0.13159118592739105,-0.05169116333127022,-1.475720763206482
106,2021-06-09 12:02:32.981211,0.08520367179521676,6.112634444353887,52.25960846479617,3.7462501525878906,39.54333,2.37794,0.1302640438079834,-0.05349024757742882,-1.4764806032180786
107,2021-06-09 12:02:33.023182,0.08466460203191188,6.116356288185943,52.26078546224017,3.7462501525878906,39.54333,2.37794,0.12929560244083405,-0.05477960407733917,-1.4779518842697144
108,2021-06-09 12:02:33.062206,0.08481716136863751,6.133895378262433,52.24642058801446,3.742500066757202,39.54333,2.37794,0.12889473140239716,-0.055619124323129654,-1.4797742366790771
109,2021-06-09 12:02:33.094394,0.08481716136863751,6.133895378262433,52.24642058801446,3.742500066757202,39.54333,2.37794,0.12889473140239716,-0.055619124323129654,-1.4797742366790771
110,2021-06-09 12:02:33.177644,0.08719758843469509,6.145307330708973,52.24443653596743,3.740000009536743,39.54333,2.37794,0.13004817068576813,-0.05610057711601257,-1.483109474182129
111,2021-06-09 12:02:33.219443,0.08991754339795525,6.153059337605871,52.24557379882101,3.740000009536743,39.54333,2.37794,0.1316119134426117,-0.055982839316129684,-1.484001874923706
112,2021-06-09 12:02:33.258911,0.0972463671324214,6.159257630392083,52.24480454887594,3.740000009536743,39.54333,2.37794,0.13351862132549286,-0.0557478591799736,-1.4840569496154785
113,2021-06-09 12:02:33.303185,0.10151244279152628,6.1657483130710204,52.24397440217994,3.7150001525878906,39.54333,2.37794,0.13550609350204468,-0.055344484746456146,-1.4832979440689087
114,2021-06-09 12:02:33.334281,0.10151244279152628,6.1657483130710204,52.24397440217994,3.7150001525878906,39.54333,2.37794,0.13550609350204468,-0.055344484746456146,-1.4832979440689087
115,2021-06-09 12:02:33.378745,0.10435452097757679,6.15096075434413,52.24202184231225,3.690000057220459,39.54333,2.37794,0.13708336651325226,-0.0549469031393528,-1.4817699193954468
116,2021-06-09 12:02:33.426193,0.10585569258012223,6.154527099913506,52.24098181859595,3.690000057220459,39.54333,2.37794,0.13859108090400696,-0.05437760427594185,-1.4795385599136353
117,2021-06-09 12:02:33.461418,0.10669671942123714,6.138006569126313,52.24309422410814,3.690000057220459,39.54333,2.37794,0.13965612649917603,-0.053783368319272995,-1.476892113685608
118,2021-06-09 12:02:33.504917,0.10571295450143418,6.119271726062395,52.238547854519005,3.690000057220459,39.54333,2.37794,0.14045201241970062,-0.05303150415420532,-1.4738627672195435
119,2021-06-09 12:02:33.542838,0.10555179231024134,6.119578921443188,52.236974061225716,3.690000057220459,39.54333,2.37794,0.14058361947536469,-0.05227745324373245,-1.470885992050171
120,2021-06-09 12:02:33.574289,0.10555179231024134,6.119578921443188,52.236974061225716,3.695000171661377,39.54333,2.37794,0.14058361947536469,-0.05227745324373245,-1.470885992050171
121,2021-06-09 12:02:33.621166,0.10450361599744885,6.1198351233205255,52.235270145322,3.695000171661377,39.54333,2.37794,0.14020372927188873,-0.05145704001188278,-1.4679893255233765
122,2021-06-09 12:02:33.663850,0.09858571487948065,6.118033265427325,52.21303677670084,3.700000047683716,39.54333,2.37794,0.13936834037303925,-0.05052189901471138,-1.4654468297958374
123,2021-06-09 12:02:33.742208,0.09242056650575707,6.117593444672122,52.20400879580519,3.700000047683716,39.54333,2.37794,0.136921226978302,-0.048811014741659164,-1.4628760814666748
124,2021-06-09 12:02:33.774388,0.09242056650575707,6.117593444672122,52.20400879580519,3.700000047683716,39.54333,2.37794,0.136921226978302,-0.048811014741659164,-1.4628760814666748
125,2021-06-09 12:02:33.822553,0.09118408180881697,6.120107809643695,52.20685051710028,3.700000047683716,39.54333,2.37794,0.13529999554157257,-0.04785231873393059,-1.4626233577728271
126,2021-06-09 12:02:33.858137,0.09029652047628316,6.120106996784634,52.20353613493084,3.700000047683716,39.54333,2.37794,0.13401690125465393,-0.04682910814881325,-1.4633705615997314
127,2021-06-09 12:02:33.901924,0.08961661952114376,6.1200505568983825,52.1996603171916,3.700000047683716,39.54333,2.37794,0.13279597461223602,-0.04563160985708237,-1.464584231376648
128,2021-06-09 12:02:33.946522,0.08923589897026629,6.118026034405435,52.20799459989405,3.700000047683716,39.54333,2.37794,0.13169647753238678,-0.0442269966006279,-1.466209053993225
129,2021-06-09 12:02:33.984751,0.08971443191495983,6.117677482801596,52.20629874326385,3.700000047683716,39.54333,2.37794,0.13148143887519836,-0.042498789727687836,-1.4679256677627563
130,2021-06-09 12:02:34.014434,0.08971443191495983,6.117677482801596,52.20629874326385,3.700000047683716,39.54333,2.37794,0.13148143887519836,-0.042498789727687836,-1.4679256677627563
131,2021-06-09 12:02:34.061053,0.09030548633288987,6.117155675534559,52.20408114492836,3.700000047683716,39.54333,2.37794,0.13158424198627472,-0.04056088626384735,-1.4696142673492432
132,2021-06-09 12:02:34.102547,0.0918148349948392,6.12142512797887,52.20685630748668,3.700000047683716,39.54333,2.37794,0.13204267621040344,-0.03837505728006363,-1.4711512327194214
133,2021-06-09 12:02:34.142494,0.0933591071999497,6.1214789365757705,52.20583768605993,3.700000047683716,39.54333,2.37794,0.13344606757164001,-0.03640417754650116,-1.4721590280532837
134,2021-06-09 12:02:34.214570,0.0951301539837571,6.121493937692224,52.204333216619325,3.700000047683716,39.54333,2.37794,0.13506391644477844,-0.034403007477521896,-1.4728511571884155
135,2021-06-09 12:02:34.260587,0.09994218511759377,6.128248764846319,52.21053166122791,3.700000047683716,39.54333,2.37794,0.13682927191257477,-0.03244011476635933,-1.4731552600860596
136,2021-06-09 12:02:34.299882,0.10514411200533763,6.128852734487467,52.21039932142911,3.723750114440918,39.54333,2.37794,0.13902513682842255,-0.031530529260635376,-1.4727977514266968
137,2021-06-09 12:02:34.342684,0.10694107119970994,6.129735868383458,52.2102076905725,3.723750114440918,39.54333,2.37794,0.14094676077365875,-0.03075222857296467,-1.4720662832260132
138,2021-06-09 12:02:34.386781,0.10741781345894033,6.130633124849244,52.210021293510835,3.747499942779541,39.54333,2.37794,0.14252856373786926,-0.03044743649661541,-1.4708988666534424
139,2021-06-09 12:02:34.426813,0.10720873538412276,6.121222520951558,52.21970960954568,3.747499942779541,39.54333,2.37794,0.14362013339996338,-0.030693871900439262,-1.4693689346313477
140,2021-06-09 12:02:34.454220,0.10720873538412276,6.121222520951558,52.21970960954568,3.7750000953674316,39.54333,2.37794,0.14362013339996338,-0.030693871900439262,-1.4693689346313477
141,2021-06-09 12:02:34.497948,0.10646707192940637,6.12330169311507,52.22035059988916,3.7750000953674316,39.54333,2.37794,0.1440652459859848,-0.03145863860845566,-1.4676222801208496
142,2021-06-09 12:02:34.541999,0.10421281539002245,6.1309097149162035,52.23085978935718,3.7750000953674316,39.54333,2.37794,0.1435825228691101,-0.03255714103579521,-1.4653509855270386
143,2021-06-09 12:02:34.583201,0.10264654402187241,6.132285689078826,52.23195404225659,3.7775001525878906,39.54333,2.37794,0.14268086850643158,-0.03435537591576576,-1.4638530015945435
144,2021-06-09 12:02:34.624993,0.09181582174265411,6.13523755441488,52.23434113478483,3.7775001525878906,39.54333,2.37794,0.14066605269908905,-0.036527927964925766,-1.4621087312698364
145,2021-06-09 12:02:34.694390,0.08108088289580768,6.138130475107807,52.236722910463634,3.7799999713897705,39.54333,2.37794,0.13796605169773102,-0.038953933864831924,-1.4606456756591797
146,2021-06-09 12:02:34.739886,0.07782882909169454,6.148995304596491,52.207169393861285,3.7799999713897705,39.54333,2.37794,0.13475380837917328,-0.041516225785017014,-1.4595348834991455
147,2021-06-09 12:02:34.778968,0.07445586482236717,6.153294715852758,52.204573579338444,3.78125,39.54333,2.37794,0.13115201890468597,-0.04413708299398422,-1.4589349031448364
148,2021-06-09 12:02:34.823351,0.07594765210884552,6.1575548341029664,52.20198346984094,3.78125,39.54333,2.37794,0.12744225561618805,-0.04668714106082916,-1.458867073059082
149,2021-06-09 12:02:34.863265,0.07776625488564341,6.168324410076766,52.22151815767092,3.78125,39.54333,2.37794,0.12372306734323502,-0.04909667372703552,-1.4593126773834229
150,2021-06-09 12:02:34.894389,0.07776625488564341,6.168324410076766,52.22151815767092,3.78125,39.54333,2.37794,0.12372306734323502,-0.04909667372703552,-1.4593126773834229
151,2021-06-09 12:02:34.940659,0.0768726773474783,6.173733752822677,52.222382772725474,3.78125,39.54333,2.37794,0.1201738566160202,-0.05115870013833046,-1.4602054357528687
152,2021-06-09 12:02:34.980221,0.07589427121720492,6.179274996954393,52.22330133517624,3.78125,39.54333,2.37794,0.1170593649148941,-0.05292356386780739,-1.4613903760910034
153,2021-06-09 12:02:35.023404,0.07477129932368531,6.183791455030694,52.23873556007155,3.78125,39.54333,2.37794,0.11468074470758438,-0.05423342436552048,-1.4627280235290527
154,2021-06-09 12:02:35.062402,0.07499230501553779,6.189378086756187,52.24202358688105,3.78125,39.54333,2.37794,0.11298399418592453,-0.05521121248602867,-1.4640940427780151
155,2021-06-09 12:02:35.103321,0.07591819216579151,6.195044231213856,52.24541899325409,3.78125,39.54333,2.37794,0.11209076642990112,-0.05580349639058113,-1.4652717113494873
156,2021-06-09 12:02:35.135276,0.07591819216579151,6.195044231213856,52.24541899325409,3.78125,39.54333,2.37794,0.11209076642990112,-0.05580349639058113,-1.4652717113494873
157,2021-06-09 12:02:35.179228,0.07785865100715467,6.183016767112252,52.259749769424694,3.78125,39.54333,2.37794,0.11180198192596436,-0.056060612201690674,-1.4661216735839844
158,2021-06-09 12:02:35.221577,0.07969699337021208,6.186044376199079,52.26488715946111,3.78125,39.54333,2.37794,0.11227425187826157,-0.0560954324901104,-1.4665251970291138
159,2021-06-09 12:02:35.304766,0.0847257422531053,6.189683608325544,52.256217126814235,3.78125,39.54333,2.37794,0.11446896195411682,-0.05616367980837822,-1.4657734632492065
160,2021-06-09 12:02:35.334261,0.0847257422531053,6.189683608325544,52.256217126814235,3.78125,39.54333,2.37794,0.11446896195411682,-0.05616367980837822,-1.4657734632492065
161,2021-06-09 12:02:35.378249,0.08647741386899316,6.192489902455859,52.259075984545795,3.78125,39.54333,2.37794,0.11590741574764252,-0.05630207806825638,-1.4646161794662476
162,2021-06-09 12:02:35.421736,0.09542329050404909,6.173096530565119,52.26390892187645,3.78125,39.54333,2.37794,0.11719594895839691,-0.056538138538599014,-1.4630573987960815
163,2021-06-09 12:02:35.463367,0.10373192185191193,6.173870685109404,52.24206772569518,3.78125,39.54333,2.37794,0.11815059185028076,-0.05700203776359558,-1.4611941576004028
164,2021-06-09 12:02:35.505723,0.1051964576809555,6.176356459880536,52.24121262802996,3.78125,39.54333,2.37794,0.11845969408750534,-0.05782102793455124,-1.4592244625091553
165,2021-06-09 12:02:35.543303,0.10461308465937932,6.17876427300635,52.240355226881,3.78125,39.54333,2.37794,0.11804685741662979,-0.05885825678706169,-1.4573653936386108
166,2021-06-09 12:02:35.574473,0.10461308465937932,6.17876427300635,52.240355226881,3.78125,39.54333,2.37794,0.11804685741662979,-0.05885825678706169,-1.4573653936386108
167,2021-06-09 12:02:35.623561,0.10245139921483737,6.191593096385982,52.22263030265097,3.78125,39.54333,2.37794,0.11702404171228409,-0.060035161674022675,-1.4557501077651978
168,2021-06-09 12:02:35.660513,0.10040388351483906,6.195393246363566,52.21934112140107,3.78125,39.54333,2.37794,0.11523948609828949,-0.06136621534824371,-1.4547306299209595
169,2021-06-09 12:02:35.700244,0.09826702615059196,6.199392203877994,52.21581605557163,3.78125,39.54333,2.37794,0.11290805786848068,-0.06270822137594223,-1.4543589353561401
170,2021-06-09 12:02:35.744599,0.09635268674921635,6.190797854069637,52.23583616034214,3.78125,39.54333,2.37794,0.11018611490726471,-0.06413379311561584,-1.4546973705291748
171,2021-06-09 12:02:35.774299,0.09635268674921635,6.190797854069637,52.23583616034214,3.78125,39.54333,2.37794,0.11018611490726471,-0.06413379311561584,-1.4546973705291748
172,2021-06-09 12:02:35.857999,0.07874566560823291,6.1950011563936265,52.23535265498525,3.78125,39.54333,2.37794,0.1044505313038826,-0.06589922308921814,-1.4578877687454224
173,2021-06-09 12:02:35.901883,0.073706345571551,6.214812321538437,52.25003098740343,3.78125,39.54333,2.37794,0.10201578587293625,-0.06668383628129959,-1.4604262113571167
174,2021-06-09 12:02:35.941107,0.07262916656306015,6.218429645618993,52.25147964420499,3.78125,39.54333,2.37794,0.1000378355383873,-0.06639150530099869,-1.4630764722824097
175,2021-06-09 12:02:35.983150,0.07912904402168475,6.223221553246904,52.25345182038724,3.78125,39.54333,2.37794,0.09876777976751328,-0.06601349264383316,-1.4658424854278564
176,2021-06-09 12:02:36.014360,0.07912904402168475,6.223221553246904,52.25345182038724,3.78125,39.54333,2.37794,0.09876777976751328,-0.06601349264383316,-1.4658424854278564
177,2021-06-09 12:02:36.060826,0.0888094767139476,6.206776503973452,52.268342171808854,3.78125,39.54333,2.37794,0.09815597534179688,-0.06542656570672989,-1.4685287475585938
178,2021-06-09 12:02:36.099235,0.09296609527330489,6.207890094400264,52.2709953683954,3.78125,39.54333,2.37794,0.09792816638946533,-0.06392940878868103,-1.469986081123352
179,2021-06-09 12:02:36.142342,0.09536169054496757,6.209440968816392,52.274828663406886,3.78125,39.54333,2.37794,0.09830666333436966,-0.062447138130664825,-1.4709467887878418
180,2021-06-09 12:02:36.181375,0.09736290955531601,6.210960793523213,52.27875227477182,3.78125,39.54333,2.37794,0.09913623332977295,-0.06067470461130142,-1.4709925651550293
181,2021-06-09 12:02:36.221757,0.0988181835497461,6.234755839189972,52.26964201948132,3.78125,39.54333,2.37794,0.10031959414482117,-0.05867362767457962,-1.4701437950134277
182,2021-06-09 12:02:36.254163,0.0988181835497461,6.234755839189972,52.26964201948132,3.78125,39.54333,2.37794,0.10031959414482117,-0.05867362767457962,-1.4701437950134277
183,2021-06-09 12:02:36.302555,0.10044552303062254,6.239163289989621,52.2720615577036,3.78125,39.54333,2.37794,0.10173318535089493,-0.05656269192695618,-1.468560814857483
184,2021-06-09 12:02:36.343564,0.10206269278409079,6.243552374523413,52.274483468950805,3.78125,39.54333,2.37794,0.10318882763385773,-0.05439713969826698,-1.466469407081604
185,2021-06-09 12:02:36.422637,0.11222320097453369,6.232164882156656,52.28195947477957,3.78125,39.54333,2.37794,0.10579205304384232,-0.05000815540552139,-1.4617444276809692
186,2021-06-09 12:02:36.454342,0.11222320097453369,6.232164882156656,52.28195947477957,3.78125,39.54333,2.37794,0.10579205304384232,-0.05000815540552139,-1.4617444276809692
187,2021-06-09 12:02:36.500924,0.11237740523947955,6.201634505011564,52.23789509126488,3.78125,39.54333,2.37794,0.10633857548236847,-0.047405559569597244,-1.459201693534851
188,2021-06-09 12:02:36.543855,0.11288849030552113,6.2015228046128374,52.23579784427626,3.78125,39.54333,2.37794,0.10739599168300629,-0.045977283269166946,-1.4580389261245728
189,2021-06-09 12:02:36.583158,0.10937072117304833,6.201245327342566,52.231712891922406,3.78125,39.54333,2.37794,0.1077972874045372,-0.044163137674331665,-1.4570516347885132
190,2021-06-09 12:02:36.625629,0.10416626408674327,6.200873943972731,52.22731414188116,3.78125,39.54333,2.37794,0.10794903337955475,-0.042409587651491165,-1.4567463397979736
191,2021-06-09 12:02:36.660960,0.10151977596937002,6.164686280236332,52.23400203956337,3.78125,39.54333,2.37794,0.10808810591697693,-0.040879473090171814,-1.4570914506912231
192,2021-06-09 12:02:36.694251,0.10151977596937002,6.164686280236332,52.23400203956337,3.671250104904175,39.54333,2.37794,0.10808810591697693,-0.040879473090171814,-1.4570914506912231
193,2021-06-09 12:02:36.738962,0.10041519194155538,6.159155145138971,52.230861884902936,3.671250104904175,39.54333,2.37794,0.1079806387424469,-0.039341386407613754,-1.457990050315857
194,2021-06-09 12:02:36.781460,0.09527976262428724,6.153953105791327,52.227927340537875,3.671250104904175,39.54333,2.37794,0.10808095335960388,-0.037781067192554474,-1.4592560529708862
195,2021-06-09 12:02:36.824573,0.08517996279007577,6.196474614703652,52.257706905915484,3.671250104904175,39.54333,2.37794,0.10828571021556854,-0.036106549203395844,-1.4606611728668213
196,2021-06-09 12:02:36.894254,0.08260695493767077,6.197109363281713,52.25891897880876,3.671250104904175,39.54333,2.37794,0.10849645733833313,-0.03449651971459389,-1.4620972871780396
197,2021-06-09 12:02:36.944282,0.08170274231480346,6.209747437052161,52.24752910682147,3.671250104904175,39.54333,2.37794,0.10823730379343033,-0.03249512240290642,-1.463793158531189
198,2021-06-09 12:02:36.980768,0.08362872593470237,6.210363907353618,52.24737937976508,3.671250104904175,39.54333,2.37794,0.10971760749816895,-0.03126779571175575,-1.4642584323883057
199,2021-06-09 12:02:37.022246,0.08421128831165085,6.212500844160082,52.24680465284873,3.671250104904175,39.54333,2.37794,0.11074775457382202,-0.029828544706106186,-1.464719295501709
200,2021-06-09 12:02:37.062663,0.08491953638671346,6.214604695483282,52.24622274415949,3.671250104904175,39.54333,2.37794,0.11199592053890228,-0.028578178957104683,-1.4646601676940918
201,2021-06-09 12:02:37.111746,0.08624206269211722,6.205845988214555,52.28839385206818,3.671250104904175,39.54333,2.37794,0.11336232721805573,-0.027532894164323807,-1.464088797569275
202,2021-06-09 12:02:37.134332,0.08624206269211722,6.205845988214555,52.28839385206818,3.671250104904175,39.54333,2.37794,0.11336232721805573,-0.027532894164323807,-1.464088797569275
203,2021-06-09 12:02:37.178371,0.08441514491282523,6.206438234684652,52.29348574093471,3.671250104904175,39.54333,2.37794,0.1147720217704773,-0.02681713178753853,-1.4631357192993164
204,2021-06-09 12:02:37.222966,0.07979977287497997,6.206993293458652,52.298621361753895,3.671250104904175,39.54333,2.37794,0.11613991111516953,-0.026509378105401993,-1.461974859237671
205,2021-06-09 12:02:37.262081,0.07967216819345342,6.246932567629823,52.319068667319996,3.671250104904175,39.54333,2.37794,0.11732003092765808,-0.026577632874250412,-1.460726261138916
206,2021-06-09 12:02:37.301485,0.07921951376404994,6.2523762992846965,52.32612753656634,3.671250104904175,39.54333,2.37794,0.11828405410051346,-0.027063332498073578,-1.4596689939498901
207,2021-06-09 12:02:37.334308,0.07921951376404994,6.2523762992846965,52.32612753656634,3.671250104904175,39.54333,2.37794,0.11828405410051346,-0.027063332498073578,-1.4596689939498901
208,2021-06-09 12:02:37.381299,0.08135404551847529,6.258566019034221,52.334207073181055,3.671250104904175,39.54333,2.37794,0.1189950481057167,-0.02791309356689453,-1.4588792324066162
209,2021-06-09 12:02:37.430360,0.08562873767590415,6.2041803395549024,52.31306465369131,3.671250104904175,39.54333,2.37794,0.1194004938006401,-0.02923177368938923,-1.4585636854171753
210,2021-06-09 12:02:37.503798,0.08489608366640901,6.205979402008431,52.32049793212445,3.671250104904175,39.54333,2.37794,0.11956386268138885,-0.033208515495061874,-1.4594976902008057
211,2021-06-09 12:02:37.545468,0.08376195333270016,6.206965903949141,52.32486997757664,3.671250104904175,39.54333,2.37794,0.11929604411125183,-0.03563270717859268,-1.4606106281280518
212,2021-06-09 12:02:37.575459,0.0832650033216822,6.181580620561112,52.33202842748539,3.671250104904175,39.54333,2.37794,0.1193489208817482,-0.035574160516262054,-1.4606212377548218
213,2021-06-09 12:02:37.619361,0.08234504124995425,6.1789944743480305,52.33730655893464,3.671250104904175,39.54333,2.37794,0.1188325583934784,-0.038146719336509705,-1.4620003700256348
214,2021-06-09 12:02:37.659698,0.08127116239572567,6.176233737291845,52.34279529577916,3.671250104904175,39.54333,2.37794,0.11820267140865326,-0.04077520594000816,-1.463549256324768
215,2021-06-09 12:02:37.700768,0.08078917004540756,6.15381557012745,52.32285473243373,3.671250104904175,39.54333,2.37794,0.11759653687477112,-0.043405063450336456,-1.4650683403015137
216,2021-06-09 12:02:37.743531,0.07881141079320725,6.14854127470474,52.324729717594295,3.671250104904175,39.54333,2.37794,0.11689603328704834,-0.045600779354572296,-1.4662564992904663
217,2021-06-09 12:02:37.774467,0.07881141079320725,6.14854127470474,52.324729717594295,3.671250104904175,39.54333,2.37794,0.11689603328704834,-0.045600779354572296,-1.4662564992904663
218,2021-06-09 12:02:37.818483,0.0740878026269911,6.142682925553241,52.32676302776998,3.671250104904175,39.54333,2.37794,0.11647094786167145,-0.04759424924850464,-1.4671679735183716
219,2021-06-09 12:02:37.860748,0.07221568697880189,6.153650881908057,52.32813424168748,3.5612499713897705,39.54333,2.37794,0.11637897044420242,-0.04937125742435455,-1.467738389968872
220,2021-06-09 12:02:37.902751,0.07208532500160056,6.1506768974771315,52.32967205348998,3.5612499713897705,39.54333,2.37794,0.11608507484197617,-0.05060310289263725,-1.46766197681427
221,2021-06-09 12:02:37.942987,0.0728224059174441,6.146820392983041,52.33161667503563,3.5612499713897705,39.54333,2.37794,0.1163201630115509,-0.051678914576768875,-1.4672459363937378
222,2021-06-09 12:02:38.014319,0.07381874408237205,6.142882812631441,52.333555381468194,3.5612499713897705,39.54333,2.37794,0.11679663509130478,-0.05248963460326195,-1.4664676189422607
223,2021-06-09 12:02:38.059384,0.07552508633691736,6.203416683174173,52.32986868056113,3.5612499713897705,39.54333,2.37794,0.11760588735342026,-0.0531405434012413,-1.465414047241211
224,2021-06-09 12:02:38.100729,0.07650807233984379,6.207469947164795,52.331092389665066,3.5612499713897705,39.54333,2.37794,0.11842310428619385,-0.05362314730882645,-1.4642118215560913
225,2021-06-09 12:02:38.144506,0.07980496837613955,6.20161671687043,52.349439406622196,3.5612499713897705,39.54333,2.37794,0.11970148235559464,-0.053895190358161926,-1.4628965854644775
226,2021-06-09 12:02:38.184972,0.091063217322533,6.203438485988702,52.35176540768239,3.5612499713897705,39.54333,2.37794,0.12039162963628769,-0.05430443584918976,-1.4618500471115112
227,2021-06-09 12:02:38.216668,0.09122969158165804,6.206187876817722,52.35528056512561,3.5612499713897705,39.54333,2.37794,0.12119042128324509,-0.0547482967376709,-1.4608837366104126
228,2021-06-09 12:02:38.255579,0.09414022457131435,6.206187649512812,52.355279208840756,3.5612499713897705,39.54333,2.37794,0.1212197095155716,-0.05471274256706238,-1.4608838558197021
229,2021-06-09 12:02:38.298620,0.0953643986042616,6.191376165903424,52.3793018320728,3.5612499713897705,39.54333,2.37794,0.12221382558345795,-0.055086877197027206,-1.4598978757858276
230,2021-06-09 12:02:38.339134,0.09240266321631203,6.191524232770867,52.38279664522691,3.5612499713897705,39.54333,2.37794,0.12233981490135193,-0.05598253756761551,-1.459505558013916
231,2021-06-09 12:02:38.381916,0.08145893762986753,6.191775877667134,52.38937718527439,3.5612499713897705,39.54333,2.37794,0.1225803792476654,-0.05696206912398338,-1.4591648578643799
232,2021-06-09 12:02:38.414380,0.08145893762986753,6.191775877667134,52.38937718527439,3.5612499713897705,39.54333,2.37794,0.1225803792476654,-0.05696206912398338,-1.4591648578643799
233,2021-06-09 12:02:38.460742,0.07871100137591416,6.178623056024665,52.380024274788404,3.5612499713897705,39.54333,2.37794,0.12280694395303726,-0.05773070082068443,-1.4589436054229736
234,2021-06-09 12:02:38.503334,0.07694360410251261,6.179494145297698,52.38300272074238,3.5612499713897705,39.54333,2.37794,0.12229616194963455,-0.058516159653663635,-1.459149956703186
235,2021-06-09 12:02:38.583453,0.0686141117749104,6.182207398894299,52.39239065692683,3.5612499713897705,39.54333,2.37794,0.12123159319162369,-0.05965128540992737,-1.4595788717269897
236,2021-06-09 12:02:38.628261,0.06578718731900123,6.189623398572745,52.38348823527222,3.5612499713897705,39.54333,2.37794,0.12050950527191162,-0.05962439998984337,-1.459774374961853
237,2021-06-09 12:02:38.661908,0.06550151596461735,6.1918733572773546,52.38659333944895,3.5612499713897705,39.54333,2.37794,0.11967295408248901,-0.0592789463698864,-1.459871768951416
238,2021-06-09 12:02:38.694511,0.06550151596461735,6.1918733572773546,52.38659333944895,3.5612499713897705,39.54333,2.37794,0.11967295408248901,-0.0592789463698864,-1.459871768951416
239,2021-06-09 12:02:38.741371,0.06733090967569062,6.204577420374011,52.38330846448806,3.5612499713897705,39.54333,2.37794,0.11887992173433304,-0.05832601338624954,-1.4597480297088623
240,2021-06-09 12:02:38.782012,0.08497365408618665,6.205863727741455,52.38401710471785,3.427500009536743,39.54333,2.37794,0.1182103157043457,-0.05695429444313049,-1.4595063924789429
241,2021-06-09 12:02:38.823837,0.09138897787718625,6.209500283761522,52.385989156861385,3.427500009536743,39.54333,2.37794,0.11750432103872299,-0.055260639637708664,-1.459040880203247
242,2021-06-09 12:02:38.862456,0.0930109023451664,6.213321782521574,52.38803051117379,3.293750047683716,39.54333,2.37794,0.11685705184936523,-0.053243719041347504,-1.4583407640457153
243,2021-06-09 12:02:38.894245,0.0930109023451664,6.213321782521574,52.38803051117379,3.293750047683716,39.54333,2.37794,0.11685705184936523,-0.053243719041347504,-1.4583407640457153
244,2021-06-09 12:02:38.938981,0.09179022579518832,6.199431999930392,52.37364114501344,3.293750047683716,39.54333,2.37794,0.11623509228229523,-0.05098894611001015,-1.4575519561767578
245,2021-06-09 12:02:38.979147,0.08784883023637723,6.200873078641315,52.37341660289164,3.15625,39.54333,2.37794,0.11565284430980682,-0.04845690354704857,-1.4566327333450317
246,2021-06-09 12:02:39.024800,0.08590416817591047,6.202387485146839,52.37312873635247,3.15625,39.54333,2.37794,0.1151197999715805,-0.04569438099861145,-1.4556955099105835
247,2021-06-09 12:02:39.099844,0.08574235716249991,6.238836762100437,52.397924694213955,3.043750047683716,39.54333,2.37794,0.11422621458768845,-0.04010051116347313,-1.4540380239486694
248,2021-06-09 12:02:39.134947,0.08574235716249991,6.238836762100437,52.397924694213955,3.043750047683716,39.54333,2.37794,0.11422621458768845,-0.04010051116347313,-1.4540380239486694
249,2021-06-09 12:02:39.178424,0.08050603092741528,6.244434046390445,52.40061795411964,2.9337499141693115,39.54333,2.37794,0.11379298567771912,-0.03741816058754921,-1.4533886909484863
250,2021-06-09 12:02:39.220823,0.07845797208287832,6.231324614530639,52.372393484410765,2.9337499141693115,39.54333,2.37794,0.11355460435152054,-0.03506363183259964,-1.4529212713241577
251,2021-06-09 12:02:39.267262,0.07751161980051316,6.234457533402522,52.370888332926306,2.9337499141693115,39.54333,2.37794,0.11336357146501541,-0.032914672046899796,-1.4525374174118042
252,2021-06-09 12:02:39.303650,0.07774668669380731,6.237682857263333,52.36926141347811,2.9337499141693115,39.54333,2.37794,0.11324743181467056,-0.03106786496937275,-1.4523266553878784
253,2021-06-09 12:02:39.344171,0.0829489210046813,6.231488242072759,52.38482147295867,2.9337499141693115,39.54333,2.37794,0.11334364861249924,-0.029603533446788788,-1.4522861242294312
254,2021-06-09 12:02:39.374234,0.0829489210046813,6.231488242072759,52.38482147295867,2.8249998092651367,39.54333,2.37794,0.11334364861249924,-0.029603533446788788,-1.4522861242294312
255,2021-06-09 12:02:39.420423,0.08463832885385729,6.233534091020341,52.38543506033483,2.8249998092651367,39.54333,2.37794,0.1134464293718338,-0.02845594845712185,-1.4524435997009277
256,2021-06-09 12:02:39.459274,0.0849047836809738,6.2103834723442946,52.37835756321789,2.8274998664855957,39.54333,2.37794,0.11382429301738739,-0.027668330818414688,-1.452799916267395
257,2021-06-09 12:02:39.502216,0.08425353518005041,6.200272168062567,52.3656130183881,2.8274998664855957,39.54333,2.37794,0.11423338204622269,-0.027241596952080727,-1.453339695930481
258,2021-06-09 12:02:39.574430,0.07875966710252673,6.2004005378795215,52.364200334380826,2.8299999237060547,39.54333,2.37794,0.11494886875152588,-0.02712433598935604,-1.4540473222732544
259,2021-06-09 12:02:39.619204,0.07689154552503907,6.200492647671178,52.36269188991256,2.8299999237060547,39.54333,2.37794,0.115845687687397,-0.027274731546640396,-1.4549006223678589
260,2021-06-09 12:02:39.661648,0.07627063120876548,6.227670175065823,52.344693697832085,2.8299999237060547,39.54333,2.37794,0.11686122417449951,-0.02765605039894581,-1.455852746963501
261,2021-06-09 12:02:39.703129,0.07733471326037186,6.231276385676425,52.34098813347912,2.8324999809265137,39.54333,2.37794,0.1180117204785347,-0.02819930389523506,-1.456716537475586
262,2021-06-09 12:02:39.741651,0.08322545670265126,6.235251392999093,52.33683327901564,2.8324999809265137,39.54333,2.37794,0.11939247697591782,-0.02891959436237812,-1.457517385482788
263,2021-06-09 12:02:39.775204,0.08406949507163208,6.2357201732534095,52.336338731607746,2.8350000381469727,39.54333,2.37794,0.11944414675235748,-0.02891511097550392,-1.4575661420822144
264,2021-06-09 12:02:39.821164,0.08695083122058951,6.220379990068771,52.34098856341898,2.8350000381469727,39.54333,2.37794,0.12086839973926544,-0.02974337339401245,-1.4582412242889404
265,2021-06-09 12:02:39.860572,0.08773070537979051,6.221460130803585,52.338359805847226,2.8374998569488525,39.54333,2.37794,0.12218878418207169,-0.030798552557826042,-1.4586496353149414
266,2021-06-09 12:02:39.902242,0.08813691087360703,6.2229055104850355,52.334687459095775,2.8374998569488525,39.54333,2.37794,0.12358331680297852,-0.03194975107908249,-1.4589223861694336
267,2021-06-09 12:02:39.946146,0.08673951759350745,6.24615498941803,52.33824845457581,2.8374998569488525,39.54333,2.37794,0.12465700507164001,-0.032982103526592255,-1.45899498462677
268,2021-06-09 12:02:39.982047,0.08243379698615623,6.249325376987997,52.336460023665246,2.8399999141693115,39.54333,2.37794,0.12530075013637543,-0.034347500652074814,-1.4588725566864014
269,2021-06-09 12:02:40.014385,0.08243379698615623,6.249325376987997,52.336460023665246,2.8399999141693115,39.54333,2.37794,0.12530075013637543,-0.034347500652074814,-1.4588725566864014
270,2021-06-09 12:02:40.101145,0.0839291638118782,6.281489036041344,52.322397151385275,2.8399999141693115,39.54333,2.37794,0.12638773024082184,-0.03736896812915802,-1.458536148071289
271,2021-06-09 12:02:40.146396,0.08609184966023489,6.286402450415064,52.319963674894296,2.8399999141693115,39.54333,2.37794,0.12625961005687714,-0.03924461081624031,-1.458487868309021
272,2021-06-09 12:02:40.180676,0.0886945748632814,6.29422859862309,52.31605432914926,2.8399999141693115,39.54333,2.37794,0.12603357434272766,-0.041316546499729156,-1.4585325717926025
273,2021-06-09 12:02:40.214391,0.0886945748632814,6.29422859862309,52.31605432914926,2.8399999141693115,39.54333,2.37794,0.12603357434272766,-0.041316546499729156,-1.4585325717926025
274,2021-06-09 12:02:40.261375,0.09127139350436049,6.310375856264249,52.29426182497168,2.8399999141693115,39.54333,2.37794,0.12578198313713074,-0.04382527619600296,-1.4588149785995483
275,2021-06-09 12:02:40.300442,0.08659262114083659,6.315873686724156,52.29032152325294,2.8399999141693115,39.54333,2.37794,0.12462075054645538,-0.04628555476665497,-1.459130883216858
276,2021-06-09 12:02:40.341917,0.07511778009141104,6.324464108422685,52.284120492103355,2.8399999141693115,39.54333,2.37794,0.12316431105136871,-0.0489959716796875,-1.4596682786941528
277,2021-06-09 12:02:40.381373,0.06705470279495783,6.333712289339098,52.27742659465333,2.8399999141693115,39.54333,2.37794,0.12170561403036118,-0.05212995782494545,-1.4604008197784424
278,2021-06-09 12:02:40.427810,0.06408285963215231,6.274463576783245,52.29585237147499,2.8399999141693115,39.54333,2.37794,0.1203276589512825,-0.05561253800988197,-1.4612549543380737
279,2021-06-09 12:02:40.455140,0.06408285963215231,6.274463576783245,52.29585237147499,2.8399999141693115,39.54333,2.37794,0.1203276589512825,-0.05561253800988197,-1.4612549543380737
280,2021-06-09 12:02:40.498350,0.06314597791259124,6.278779542313412,52.29231279592128,2.8399999141693115,39.54333,2.37794,0.11880841851234436,-0.05927106365561485,-1.4623730182647705
281,2021-06-09 12:02:40.542392,0.06053745658383318,6.240271113827666,52.316094989965116,2.8399999141693115,39.54333,2.37794,0.11824163049459457,-0.06396272033452988,-1.4640038013458252
282,2021-06-09 12:02:40.582330,0.05847909128173979,6.2393894039048625,52.31634529291478,2.8399999141693115,39.54333,2.37794,0.11557090282440186,-0.06644242256879807,-1.4651243686676025
283,2021-06-09 12:02:40.662028,0.05790336138686036,6.234618284945326,52.31742591507328,2.8399999141693115,39.54333,2.37794,0.1121688261628151,-0.07239488512277603,-1.4685403108596802
284,2021-06-09 12:02:40.694428,0.05790336138686036,6.234618284945326,52.31742591507328,2.8399999141693115,39.54333,2.37794,0.1121688261628151,-0.07239488512277603,-1.4685403108596802
285,2021-06-09 12:02:40.739069,0.06682567885671181,6.219849267079631,52.31933250566171,2.8399999141693115,39.54333,2.37794,0.11068154126405716,-0.07461439073085785,-1.4702949523925781
286,2021-06-09 12:02:40.780280,0.07406293562267327,6.215395724968071,52.32007431230965,2.8399999141693115,39.54333,2.37794,0.10963791608810425,-0.07628166675567627,-1.4719785451889038
287,2021-06-09 12:02:40.823064,0.07652595449654236,6.210615859847055,52.32086339883722,2.8399999141693115,39.54333,2.37794,0.1092214286327362,-0.07741668075323105,-1.4735214710235596
288,2021-06-09 12:02:40.863849,0.0769669135177127,6.194313840096417,52.32680096141984,2.8399999141693115,39.54333,2.37794,0.10922415554523468,-0.07788572460412979,-1.4746794700622559
289,2021-06-09 12:02:40.894467,0.0769669135177127,6.194313840096417,52.32680096141984,2.8399999141693115,39.54333,2.37794,0.10922415554523468,-0.07788572460412979,-1.4746794700622559
290,2021-06-09 12:02:40.942258,0.07468296639079983,6.187647309049004,52.32831211410329,2.8399999141693115,39.54333,2.37794,0.109894298017025,-0.07775330543518066,-1.4753937721252441
291,2021-06-09 12:02:40.980042,0.07283921193661118,6.180616723497639,52.32990401482723,2.8399999141693115,39.54333,2.37794,0.11114764958620071,-0.07714581489562988,-1.4755873680114746
292,2021-06-09 12:02:41.020241,0.07469205080822011,6.180098086582544,52.3219053384576,2.8399999141693115,39.54333,2.37794,0.11281369626522064,-0.07619644701480865,-1.4752005338668823
293,2021-06-09 12:02:41.060116,0.07655346562046669,6.173274324217675,52.3221816370984,2.8399999141693115,39.54333,2.37794,0.11486881226301193,-0.07505454123020172,-1.474338412284851
294,2021-06-09 12:02:41.134306,0.06995763023051357,6.166828313961388,52.322454590892946,2.8399999141693115,39.54333,2.37794,0.11713972687721252,-0.07390289008617401,-1.4730596542358398
295,2021-06-09 12:02:41.181095,0.06427792873311522,6.17147809363882,52.29072850298216,2.8399999141693115,39.54333,2.37794,0.11925759166479111,-0.0728849545121193,-1.4714678525924683
296,2021-06-09 12:02:41.222025,0.06272566747893325,6.166162888693077,52.286265323926884,2.8399999141693115,39.54333,2.37794,0.12094579637050629,-0.0721374973654747,-1.4697169065475464
297,2021-06-09 12:02:41.263108,0.06234170458239089,6.1607205103760725,52.281721156562966,2.8399999141693115,39.54333,2.37794,0.12200913578271866,-0.0717233195900917,-1.4680086374282837
298,2021-06-09 12:02:41.306559,0.07118377028776643,6.17236209333917,52.31121378429709,2.8399999141693115,39.54333,2.37794,0.12220490723848343,-0.07170400023460388,-1.466493844985962
299,2021-06-09 12:02:41.336964,0.07403381191779816,6.169166552227302,52.311433521767114,2.8399999141693115,39.54333,2.37794,0.12139146029949188,-0.07187583297491074,-1.4653350114822388
300,2021-06-09 12:02:41.375435,0.07588766337777263,6.169167039362102,52.311433946586824,2.8399999141693115,39.54333,2.37794,0.12136401236057281,-0.07188358902931213,-1.4653351306915283
301,2021-06-09 12:02:41.423940,0.07690498194661757,6.165717644350758,52.31167352583218,2.8399999141693115,39.54333,2.37794,0.1195199266076088,-0.07214827090501785,-1.4646217823028564
302,2021-06-09 12:02:41.462342,0.07373005037863181,6.172450880782797,52.33026642007532,2.8399999141693115,39.54333,2.37794,0.11656565964221954,-0.07248104363679886,-1.464461088180542
303,2021-06-09 12:02:41.500473,0.07515582378567182,6.173734743821889,52.333770253339395,2.8399999141693115,39.54333,2.37794,0.11282103508710861,-0.07273264974355698,-1.464827537536621
304,2021-06-09 12:02:41.574239,0.07624014648875556,6.174904762255696,52.33701463804032,2.8399999141693115,39.54333,2.37794,0.10856016725301743,-0.07289589196443558,-1.4656888246536255
305,2021-06-09 12:02:41.619030,0.07378883989698148,6.165457948385537,52.33510039347129,2.8399999141693115,39.54333,2.37794,0.10377681255340576,-0.0730138048529625,-1.4669764041900635
306,2021-06-09 12:02:41.659375,0.07130144567374078,6.165122801637931,52.3376390555866,2.8399999141693115,39.54333,2.37794,0.09897121042013168,-0.07256198674440384,-1.468567967414856
307,2021-06-09 12:02:41.702084,0.05649861596263156,6.164760356465167,52.340352042620786,2.8399999141693115,39.54333,2.37794,0.09423195570707321,-0.07179463654756546,-1.4703705310821533
308,2021-06-09 12:02:41.744888,0.04355425207479768,6.160209305351814,52.338142851700795,2.8399999141693115,39.54333,2.37794,0.08952009677886963,-0.07084394991397858,-1.4724760055541992
309,2021-06-09 12:02:41.774294,0.04355425207479768,6.160209305351814,52.338142851700795,2.8399999141693115,39.54333,2.37794,0.08952009677886963,-0.07084394991397858,-1.4724760055541992
310,2021-06-09 12:02:41.817240,0.04171688544091589,6.159337447893901,52.34000856849923,2.8399999141693115,39.54333,2.37794,0.08596133440732956,-0.06830234825611115,-1.4743105173110962
311,2021-06-09 12:02:41.859785,0.041169650070282664,6.158298349765372,52.34223563315458,2.8399999141693115,39.54333,2.37794,0.08312210440635681,-0.06534834951162338,-1.4760621786117554
312,2021-06-09 12:02:41.901836,0.051014965110241735,6.1684537086426925,52.356629434964454,2.8399999141693115,39.54333,2.37794,0.08116043359041214,-0.061975546181201935,-1.4776040315628052
313,2021-06-09 12:02:41.942265,0.060730921721529496,6.168858919041934,52.35973749646597,2.8399999141693115,39.54333,2.37794,0.08119499683380127,-0.057535503059625626,-1.4781017303466797
314,2021-06-09 12:02:42.014501,0.06499118101215705,6.169395892293725,52.363773648084525,2.8399999141693115,39.54333,2.37794,0.08217372745275497,-0.05311078205704689,-1.4780503511428833
315,2021-06-09 12:02:42.061757,0.06825679941078974,6.177719021588507,52.367052150533596,2.8399999141693115,39.54333,2.37794,0.08393868803977966,-0.04847058281302452,-1.4772670269012451
316,2021-06-09 12:02:42.099886,0.07117104478729622,6.178916859826794,52.36981400925145,2.8399999141693115,39.54333,2.37794,0.08732100576162338,-0.044208601117134094,-1.4754371643066406
317,2021-06-09 12:02:42.143913,0.07445789638480492,6.180607374624964,52.37370365143971,2.8399999141693115,39.54333,2.37794,0.09096912294626236,-0.0401780940592289,-1.4731272459030151
318,2021-06-09 12:02:42.184116,0.07706499399982328,6.18237057574486,52.37773311192102,2.8399999141693115,39.54333,2.37794,0.09483052045106888,-0.03662947565317154,-1.4704499244689941
319,2021-06-09 12:02:42.225217,0.08010213282855379,6.18785636893425,52.354559043542245,2.8399999141693115,39.54333,2.37794,0.09859812259674072,-0.03372834995388985,-1.4676178693771362
320,2021-06-09 12:02:42.254344,0.08010213282855379,6.18785636893425,52.354559043542245,2.8399999141693115,39.54333,2.37794,0.09859812259674072,-0.03372834995388985,-1.4676178693771362
321,2021-06-09 12:02:42.299851,0.08782604992208409,6.190162188501978,52.35501119643181,2.8399999141693115,39.54333,2.37794,0.10210645943880081,-0.03129298985004425,-1.4650336503982544
322,2021-06-09 12:02:42.340310,0.09725906079664215,6.192381550832162,52.355430201703385,2.8399999141693115,39.54333,2.37794,0.10508666187524796,-0.029521165415644646,-1.4630241394042969
323,2021-06-09 12:02:42.384575,0.09917115099768412,6.197755002945363,52.33248448091071,2.8399999141693115,39.54333,2.37794,0.10737164318561554,-0.028276491910219193,-1.4617499113082886
324,2021-06-09 12:02:42.454225,0.0988447392123203,6.177909733452433,52.325919298253844,2.8399999141693115,39.54333,2.37794,0.10900715738534927,-0.02761095203459263,-1.4614218473434448
325,2021-06-09 12:02:42.501037,0.09857754151413481,6.196875492572949,52.333156432904154,2.8399999141693115,39.54333,2.37794,0.10946745425462723,-0.026984533295035362,-1.4619919061660767
326,2021-06-09 12:02:42.540893,0.09573281835051085,6.199183136687776,52.33262596430158,2.8399999141693115,39.54333,2.37794,0.11048541218042374,-0.02797805890440941,-1.4637070894241333
327,2021-06-09 12:02:42.583677,0.09377664636017936,6.204511480080373,52.33137542723726,2.8374998569488525,39.54333,2.37794,0.11043021827936172,-0.028810633346438408,-1.4661163091659546
328,2021-06-09 12:02:42.624228,0.09189479485586141,6.2098320664509075,52.3301330473006,2.8374998569488525,39.54333,2.37794,0.11008261889219284,-0.02996511571109295,-1.4690535068511963
329,2021-06-09 12:02:42.662554,0.08682150890383403,6.228524793176771,52.3476959409939,2.8350000381469727,39.54333,2.37794,0.1095401793718338,-0.031221553683280945,-1.4723749160766602
