,a_nav_status_t,nav_status_D,nav_status_E,nav_status_N,nav_status_alt,nav_status_origin_lat,nav_status_origin_lon,nav_status_pitch,nav_status_roll,nav_status_yaw
0,2021-11-30 12:00:53.287138,0.09803353533432341,45.7879734414232,-82.74011643035281,11.565489768981934,39.543785,2.37884166667,0.10705064982175827,-0.0790623351931572,0.9315130114555359
1,2021-11-30 12:00:53.328161,0.09915457808337538,45.78366591498126,-82.73850150215347,11.56738567352295,39.543785,2.37884166667,0.10585314780473709,-0.08108676224946976,0.9293707609176636
2,2021-11-30 12:00:53.370437,0.09920146704652447,45.77995668507174,-82.73785299050395,11.56738567352295,39.543785,2.37884166667,0.10472603887319565,-0.08318324387073517,0.9271378517150879
3,2021-11-30 12:00:53.449586,0.10047154402207076,45.78225918255475,-82.70955015201297,11.553526878356934,39.543785,2.37884166667,0.1035805270075798,-0.08611464500427246,0.9237818121910095
4,2021-11-30 12:00:53.490260,0.10534416759645862,45.782246659993795,-82.7140395677351,11.553526878356934,39.543785,2.37884166667,0.10222683846950531,-0.08790802955627441,0.921739399433136
5,2021-11-30 12:00:53.531011,0.10665602549720084,45.77932151374716,-82.71433814575104,11.553526878356934,39.543785,2.37884166667,0.10080251842737198,-0.08923493325710297,0.9201050400733948
6,2021-11-30 12:00:53.565230,0.10706498408674986,45.776836226801045,-82.71455703647358,11.54881763458252,39.543785,2.37884166667,0.09943225979804993,-0.08966416120529175,0.919333279132843
7,2021-11-30 12:00:53.604346,0.10649308264440907,45.77400196676402,-82.71476697783088,11.528162002563477,39.543785,2.37884166667,0.0992431491613388,-0.09046969562768936,0.9182438850402832
8,2021-11-30 12:00:53.645637,0.10392590494451943,45.770940061675006,-82.71494363564582,11.528162002563477,39.543785,2.37884166667,0.09790084511041641,-0.08997642248868942,0.9181553721427917
9,2021-11-30 12:00:53.685479,0.09816902542480949,45.77453785780116,-82.72578122108473,11.549491882324219,39.543785,2.37884166667,0.09684910625219345,-0.08849089592695236,0.919018030166626
10,2021-11-30 12:00:53.726186,0.09647208717832023,45.77271653141617,-82.7279075103054,11.549491882324219,39.543785,2.37884166667,0.09614855796098709,-0.08616918325424194,0.9206057190895081
11,2021-11-30 12:00:53.766866,0.09629612549279941,45.770890308814586,-82.73001011996524,11.549491882324219,39.543785,2.37884166667,0.09598836302757263,-0.08318722993135452,0.9228224754333496
12,2021-11-30 12:00:53.807363,0.09643853607030078,45.76913055863502,-82.73218523947617,11.532831192016602,39.543785,2.37884166667,0.09585759043693542,-0.08297820389270782,0.9227867722511292
13,2021-11-30 12:00:53.848155,0.09891289063360274,45.77322857459618,-82.74072553153691,11.545327186584473,39.543785,2.37884166667,0.09667891263961792,-0.0791374072432518,0.9258898496627808
14,2021-11-30 12:00:53.889802,0.10428312814772946,45.77259625131674,-82.74423875719656,11.545327186584473,39.543785,2.37884166667,0.09826916456222534,-0.07512617111206055,0.929295003414154
15,2021-11-30 12:00:53.970305,0.10885381045091742,45.771498646434765,-82.75114019577201,11.5418062210083,39.543785,2.37884166667,0.10410885512828827,-0.06816712766885757,0.9353217482566833
16,2021-11-30 12:00:54.006795,0.110125802925217,45.77106786649823,-82.75431581719896,11.5418062210083,39.543785,2.37884166667,0.1081763431429863,-0.06583438813686371,0.937184751033783
17,2021-11-30 12:00:54.043647,0.11121692799289773,45.77218492719002,-82.754363851244,11.5418062210083,39.543785,2.37884166667,0.10930253565311432,-0.06474025547504425,0.9380189180374146
18,2021-11-30 12:00:54.083999,0.11358467412983463,45.77205644974087,-82.75734599032205,11.542278289794922,39.543785,2.37884166667,0.1143377274274826,-0.06318895518779755,0.9387344121932983
19,2021-11-30 12:00:54.124618,0.11587965925738623,45.7719821579967,-82.76039031909755,11.542278289794922,39.543785,2.37884166667,0.11966299265623093,-0.06265049427747726,0.9380966424942017
20,2021-11-30 12:00:54.165032,0.11792245788685655,45.77196194082652,-82.7634562183647,11.542947769165039,39.543785,2.37884166667,0.12498440593481064,-0.06300286948680878,0.9361298084259033
21,2021-11-30 12:00:54.207984,0.12003160640258283,45.77056993846998,-82.75859977514577,11.526955604553223,39.543785,2.37884166667,0.13009560108184814,-0.06404033303260803,0.9329738020896912
22,2021-11-30 12:00:54.249482,0.11825904329209394,45.7703664864319,-82.76002448012994,11.526955604553223,39.543785,2.37884166667,0.1345326453447342,-0.06559143215417862,0.928861677646637
23,2021-11-30 12:00:54.287240,0.11523287695588258,45.77016502202211,-82.76132374783028,11.526955604553223,39.543785,2.37884166667,0.13652755320072174,-0.06552454084157944,0.9279935359954834
24,2021-11-30 12:00:54.328015,0.1148159252033536,45.77004371445661,-82.76269989321102,11.522076606750488,39.543785,2.37884166667,0.14009127020835876,-0.06758931279182434,0.9228410720825195
25,2021-11-30 12:00:54.368676,0.11482472974049782,45.77036851446416,-82.73411573577074,11.522076606750488,39.543785,2.37884166667,0.1425664722919464,-0.06968729943037033,0.9174109101295471
26,2021-11-30 12:00:54.408380,0.11558599398904962,45.767737782966094,-82.7333563734575,11.51763916015625,39.543785,2.37884166667,0.14382098615169525,-0.07162562757730484,0.9121461510658264
27,2021-11-30 12:00:54.489793,0.12218599250291318,45.76668725630294,-82.73514869391629,11.51763916015625,39.543785,2.37884166667,0.14565782248973846,-0.07373520731925964,0.905047595500946
28,2021-11-30 12:00:54.523400,0.12192724007335179,45.76629298005241,-82.73587525364734,11.51763916015625,39.543785,2.37884166667,0.14444105327129364,-0.07476994395256042,0.901239275932312
29,2021-11-30 12:00:54.562872,0.12071106882473957,45.765833050636495,-82.73671215270767,11.505480766296387,39.543785,2.37884166667,0.14252738654613495,-0.07527855783700943,0.8980515599250793
30,2021-11-30 12:00:54.604043,0.12009730151776757,45.761287908470365,-82.74474291557244,11.505480766296387,39.543785,2.37884166667,0.13994432985782623,-0.07500340044498444,0.8958606123924255
31,2021-11-30 12:00:54.644387,0.12255217539453388,45.76009498420783,-82.7469162167608,11.515111923217773,39.543785,2.37884166667,0.13692352175712585,-0.07382933795452118,0.8947166204452515
32,2021-11-30 12:00:54.689400,0.12538553430446173,45.75874901931451,-82.74934283410671,11.505891799926758,39.543785,2.37884166667,0.13374020159244537,-0.07172778248786926,0.894349992275238
33,2021-11-30 12:00:54.725897,0.1244352964512195,45.75767912396433,-82.75130423921706,11.505891799926758,39.543785,2.37884166667,0.13370896875858307,-0.071512371301651,0.8930010795593262
34,2021-11-30 12:00:54.766634,0.12350405361028119,45.75836046605717,-82.76485151513731,11.505891799926758,39.543785,2.37884166667,0.1304519772529602,-0.06833262741565704,0.893873393535614
35,2021-11-30 12:00:54.806858,0.12105440248235055,45.75750611689809,-82.76929505257384,11.513006210327148,39.543785,2.37884166667,0.12760967016220093,-0.06453980505466461,0.895409882068634
36,2021-11-30 12:00:54.847943,0.11189417486995486,45.75661911440836,-82.77387924376147,11.503178596496582,39.543785,2.37884166667,0.12525725364685059,-0.06042831018567085,0.8973163366317749
37,2021-11-30 12:00:54.888171,0.10565115339099276,45.75574168355962,-82.778406926657,11.503178596496582,39.543785,2.37884166667,0.12376611679792404,-0.056230578571558,0.8993787169456482
38,2021-11-30 12:00:54.969235,0.10435406721844916,45.75884537885615,-82.80015508838534,11.505389213562012,39.543785,2.37884166667,0.12311262637376785,-0.05051039159297943,0.9012711048126221
39,2021-11-30 12:00:55.010147,0.1067841955279843,45.758854757577055,-82.80722507702053,11.505389213562012,39.543785,2.37884166667,0.1236727386713028,-0.04665128514170647,0.902938187122345
40,2021-11-30 12:00:55.050871,0.11268174308039594,45.758909126962386,-82.81436182536744,11.505389213562012,39.543785,2.37884166667,0.12506696581840515,-0.043519407510757446,0.9039013385772705
41,2021-11-30 12:00:55.083367,0.11560317278510647,45.758988642209545,-82.82012788029093,11.498003959655762,39.543785,2.37884166667,0.12684348225593567,-0.041813578456640244,0.9040865898132324
42,2021-11-30 12:00:55.127510,0.11645646810142991,45.76241242266027,-82.83099754965565,11.498003959655762,39.543785,2.37884166667,0.129038006067276,-0.0406586155295372,0.9033306837081909
43,2021-11-30 12:00:55.164515,0.1178079866740209,45.76316999450516,-82.83834426408949,11.487289428710938,39.543785,2.37884166667,0.12964415550231934,-0.039327118545770645,0.9030534625053406
44,2021-11-30 12:00:55.205284,0.12038640070837622,45.764094504592265,-82.84653946775616,11.487289428710938,39.543785,2.37884166667,0.1317952275276184,-0.03975316137075424,0.9012176990509033
45,2021-11-30 12:00:55.245507,0.12574904280971555,45.76508761289211,-82.85474528385355,11.487289428710938,39.543785,2.37884166667,0.1335674673318863,-0.04126742109656334,0.8986253142356873
46,2021-11-30 12:00:55.286138,0.12824234862651593,45.76616925230362,-82.86316037334768,11.486170768737793,39.543785,2.37884166667,0.13455605506896973,-0.044005390256643295,0.8954159617424011
47,2021-11-30 12:00:55.326709,0.1270739845960404,45.76285465412643,-82.86607064380779,11.470538139343262,39.543785,2.37884166667,0.13495656847953796,-0.047391608357429504,0.8917998671531677
48,2021-11-30 12:00:55.368973,0.12670330559048315,45.76316722373164,-82.87397790049378,11.470538139343262,39.543785,2.37884166667,0.13430359959602356,-0.051748719066381454,0.8878182768821716
49,2021-11-30 12:00:55.408000,0.12735365939184,45.763451698916846,-82.84289423915467,11.478700637817383,39.543785,2.37884166667,0.1347760260105133,-0.05212479829788208,0.8860965967178345
50,2021-11-30 12:00:55.448779,0.13071252450462073,45.76384612763526,-82.85068150367222,11.478700637817383,39.543785,2.37884166667,0.13300774991512299,-0.0572175607085228,0.8818461894989014
51,2021-11-30 12:00:55.530414,0.1286362324193308,45.75226329461659,-82.85787519527275,11.478700637817383,39.543785,2.37884166667,0.12685394287109375,-0.0675501897931099,0.8741294741630554
52,2021-11-30 12:00:55.570837,0.12698139155215699,45.750464764528196,-82.86425105626793,11.479581832885742,39.543785,2.37884166667,0.12275958806276321,-0.07228054106235504,0.8710554242134094
53,2021-11-30 12:00:55.603851,0.1208566873300866,45.748964979333024,-82.86953278926437,11.479581832885742,39.543785,2.37884166667,0.12202915549278259,-0.07363159954547882,0.8692277669906616
54,2021-11-30 12:00:55.644891,0.10437570380200069,45.74711915363409,-82.87605397792622,11.499241828918457,39.543785,2.37884166667,0.1167948767542839,-0.07812684029340744,0.8668462038040161
55,2021-11-30 12:00:55.684642,0.09604529334571828,45.73699106873783,-82.87434727611296,11.496397018432617,39.543785,2.37884166667,0.11187758296728134,-0.08170928061008453,0.865211009979248
56,2021-11-30 12:00:55.725402,0.09287734849469396,45.73347545667244,-82.8793161200901,11.496397018432617,39.543785,2.37884166667,0.1072857603430748,-0.0845700278878212,0.864382803440094
57,2021-11-30 12:00:55.765823,0.09113961260754848,45.72993446589249,-82.88424789243867,11.496397018432617,39.543785,2.37884166667,0.10306533426046371,-0.08682293444871902,0.8642476201057434
58,2021-11-30 12:00:55.808366,0.09435486302340053,45.72614352408769,-82.88944951337199,11.519501686096191,39.543785,2.37884166667,0.09941747784614563,-0.0886337086558342,0.8647273182868958
59,2021-11-30 12:00:55.847251,0.10375097310855852,45.71804029878486,-82.88790884882592,11.519501686096191,39.543785,2.37884166667,0.09805384278297424,-0.0899587944149971,0.8635560870170593
60,2021-11-30 12:00:55.888192,0.10641152904603905,45.71331391431538,-82.89158926891574,11.520052909851074,39.543785,2.37884166667,0.09499797970056534,-0.09124914556741714,0.8649895191192627
61,2021-11-30 12:00:55.928513,0.10678566427381216,45.7085673165259,-82.89519612325205,11.431062698364258,39.543785,2.37884166667,0.0927015021443367,-0.09220273047685623,0.8669623732566833
62,2021-11-30 12:00:55.969474,0.1069571045977844,45.70364705292259,-82.89884258153405,11.431062698364258,39.543785,2.37884166667,0.09130918979644775,-0.09305224567651749,0.869316816329956
63,2021-11-30 12:00:56.042999,0.09433575586820284,45.69663010257994,-82.90013476060655,11.445257186889648,39.543785,2.37884166667,0.08946987241506577,-0.09478829056024551,0.8719127178192139
64,2021-11-30 12:00:56.083102,0.0921687028206541,45.691958303533426,-82.90263123583671,11.457388877868652,39.543785,2.37884166667,0.09027519822120667,-0.09583647549152374,0.8747643828392029
65,2021-11-30 12:00:56.123677,0.0929905086087934,45.68714249395413,-82.90512117169256,11.457388877868652,39.543785,2.37884166667,0.09208904206752777,-0.09721250087022781,0.877395749092102
66,2021-11-30 12:00:56.163845,0.09418363631513789,45.68229157635843,-82.90755310997895,11.468262672424316,39.543785,2.37884166667,0.09468026459217072,-0.09883822500705719,0.8795841336250305
67,2021-11-30 12:00:56.208769,0.10506539735608608,45.68126879818368,-82.90844893050915,11.48216724395752,39.543785,2.37884166667,0.09805165231227875,-0.10092729330062866,0.8812743425369263
68,2021-11-30 12:00:56.248336,0.11944605471082462,45.67727145173883,-82.91042356871826,11.48216724395752,39.543785,2.37884166667,0.10183600336313248,-0.10300523787736893,0.8822795152664185
69,2021-11-30 12:00:56.286173,0.1250434193596099,45.67348295382948,-82.91226431388766,11.48216724395752,39.543785,2.37884166667,0.10229718685150146,-0.10418570041656494,0.8827092051506042
70,2021-11-30 12:00:56.326714,0.12741749911792102,45.669296466028676,-82.91421143339218,11.493019104003906,39.543785,2.37884166667,0.10601555556058884,-0.10644818097352982,0.8827336430549622
71,2021-11-30 12:00:56.367240,0.12794235602185902,45.67228746707392,-82.90529106714902,11.493019104003906,39.543785,2.37884166667,0.10947218537330627,-0.10868899524211884,0.8818256258964539
72,2021-11-30 12:00:56.408110,0.11741377332339042,45.675953726581085,-82.90807265481119,11.512236595153809,39.543785,2.37884166667,0.11228199303150177,-0.11075058579444885,0.8798216581344604
73,2021-11-30 12:00:56.448662,0.1067432007903201,45.673324522958545,-82.91012216418365,11.512236595153809,39.543785,2.37884166667,0.11458713561296463,-0.11253999918699265,0.8769064545631409
74,2021-11-30 12:00:56.490931,0.1043547549375786,45.670583165501604,-82.91223321283996,11.512236595153809,39.543785,2.37884166667,0.11648917943239212,-0.11396795511245728,0.8730560541152954
75,2021-11-30 12:00:56.570418,0.10407051877098553,45.66543815791511,-82.91608371248007,11.52155590057373,39.543785,2.37884166667,0.11837583035230637,-0.11594267189502716,0.8670252561569214
76,2021-11-30 12:00:56.602983,0.10677837372927967,45.66516065760483,-82.92008886125372,11.544746398925781,39.543785,2.37884166667,0.1187509298324585,-0.1154620349407196,0.8619803190231323
77,2021-11-30 12:00:56.643652,0.11059813283826403,45.662915251649586,-82.92249787469002,11.544746398925781,39.543785,2.37884166667,0.11856703460216522,-0.11415654420852661,0.8564594388008118
78,2021-11-30 12:00:56.688556,0.11100888959927058,45.66046391218307,-82.92513432609223,11.550413131713867,39.543785,2.37884166667,0.11763112992048264,-0.11180339753627777,0.8508489727973938
79,2021-11-30 12:00:56.725975,0.1103790547147387,45.65838875805463,-82.92726095803697,11.550413131713867,39.543785,2.37884166667,0.11777369678020477,-0.11226142942905426,0.8485409021377563
80,2021-11-30 12:00:56.765362,0.10997088176736507,45.65252887819128,-82.93159191094611,11.550413131713867,39.543785,2.37884166667,0.11589338630437851,-0.10831711441278458,0.8436731696128845
81,2021-11-30 12:00:56.805964,0.11246731682505307,45.6496300265012,-82.93436702373874,11.577104568481445,39.543785,2.37884166667,0.1134844571352005,-0.10326343774795532,0.839709460735321
82,2021-11-30 12:00:56.846511,0.11479419263891111,45.646732913943644,-82.93712654580139,11.581706047058105,39.543785,2.37884166667,0.11048830300569534,-0.09722355008125305,0.8370084166526794
83,2021-11-30 12:00:56.887247,0.11422777307573719,45.64381348402572,-82.93988108357462,11.581706047058105,39.543785,2.37884166667,0.10699842870235443,-0.09045643359422684,0.8356812596321106
84,2021-11-30 12:00:56.969476,0.11225711286445432,45.632658589138764,-82.94442094385546,11.606300354003906,39.543785,2.37884166667,0.10213471204042435,-0.08125285059213638,0.8341761231422424
85,2021-11-30 12:00:57.009727,0.11476336180514422,45.628768253004786,-82.94690922459792,11.606300354003906,39.543785,2.37884166667,0.09816402941942215,-0.07343702763319016,0.8363818526268005
86,2021-11-30 12:00:57.050518,0.11654254064549216,45.62477225953672,-82.94938641323584,11.606300354003906,39.543785,2.37884166667,0.09441772848367691,-0.06589990854263306,0.839897096157074
87,2021-11-30 12:00:57.091181,0.11622078597860859,45.62073248820168,-82.9518081388382,11.612370491027832,39.543785,2.37884166667,0.09123270958662033,-0.058898571878671646,0.8444932103157043
88,2021-11-30 12:00:57.131333,0.11551360240335083,45.616805588377474,-82.95105329315409,11.612370491027832,39.543785,2.37884166667,0.08904143422842026,-0.052718598395586014,0.8497198224067688
89,2021-11-30 12:00:57.163893,0.11369262057727644,45.613509419796664,-82.95246640480512,11.610698699951172,39.543785,2.37884166667,0.08800619095563889,-0.05034204199910164,0.8502343893051147
90,2021-11-30 12:00:57.204484,0.10542202234820525,45.60936403852862,-82.95413652290915,11.610698699951172,39.543785,2.37884166667,0.0869428738951683,-0.04505550116300583,0.8559420108795166
91,2021-11-30 12:00:57.244779,0.10033711268038646,45.60519790292299,-82.95575108069195,11.621800422668457,39.543785,2.37884166667,0.08746460825204849,-0.04092320054769516,0.8610301613807678
92,2021-11-30 12:00:57.285413,0.10061650556815865,45.60094552116396,-82.95734578133275,11.621800422668457,39.543785,2.37884166667,0.08961860090494156,-0.03793611004948616,0.8650305271148682
93,2021-11-30 12:00:57.325972,0.10252147000830163,45.60669701832251,-82.95415276476393,11.60200309753418,39.543785,2.37884166667,0.0932115986943245,-0.03600511699914932,0.8675627708435059
94,2021-11-30 12:00:57.407530,0.10113414580023741,45.601745990111574,-82.94045417535226,11.606744766235352,39.543785,2.37884166667,0.09829398989677429,-0.03283344954252243,0.869579017162323
95,2021-11-30 12:00:57.448211,0.10185637686294349,45.59932720977913,-82.94102210616053,11.606744766235352,39.543785,2.37884166667,0.10412464290857315,-0.033044829964637756,0.8684417605400085
96,2021-11-30 12:00:57.488842,0.10513927963423719,45.60946973363527,-82.94235574819687,11.606744766235352,39.543785,2.37884166667,0.11017461121082306,-0.03403377905488014,0.865700364112854
97,2021-11-30 12:00:57.529245,0.10743244792734612,45.60980500364424,-82.94298150908968,11.606744766235352,39.543785,2.37884166667,0.11612812429666519,-0.035600606352090836,0.8615167140960693
98,2021-11-30 12:00:57.570054,0.10926933615888533,45.61022427565292,-82.94355133858315,11.578747749328613,39.543785,2.37884166667,0.12153997272253036,-0.03754555806517601,0.856243908405304
99,2021-11-30 12:00:57.603222,0.1105436097918277,45.610628790693106,-82.94395652633648,11.57352352142334,39.543785,2.37884166667,0.12301363795995712,-0.03686406835913658,0.8552913665771484
100,2021-11-30 12:00:57.643229,0.1115859682107101,45.61117262039786,-82.94440862196963,11.57352352142334,39.543785,2.37884166667,0.12743207812309265,-0.03931131213903427,0.8487908840179443
101,2021-11-30 12:00:57.684705,0.11287784660102573,45.61648535568285,-82.95031688488824,11.557243347167969,39.543785,2.37884166667,0.1305353343486786,-0.04163122922182083,0.8421822190284729
102,2021-11-30 12:00:57.724618,0.1125949299236424,45.61814416233947,-82.95168699642981,11.557243347167969,39.543785,2.37884166667,0.13201439380645752,-0.04372896999120712,0.8357373476028442
103,2021-11-30 12:00:57.765342,0.11646010886138303,45.61993106474685,-82.95305057297844,11.557243347167969,39.543785,2.37884166667,0.13197094202041626,-0.04536852240562439,0.829848051071167
104,2021-11-30 12:00:57.807513,0.12972294390796604,45.621872839655005,-82.9544288101273,11.542929649353027,39.543785,2.37884166667,0.130402073264122,-0.046334408223629,0.8246880769729614
105,2021-11-30 12:00:57.847190,0.13394680922074892,45.61722187659669,-82.95779340501043,11.544962882995605,39.543785,2.37884166667,0.1311115026473999,-0.04618951305747032,0.8219055533409119
106,2021-11-30 12:00:57.888844,0.13287186575036747,45.61784422704302,-82.95959842497892,11.544962882995605,39.543785,2.37884166667,0.12762092053890228,-0.04673144593834877,0.8178909420967102
107,2021-11-30 12:00:57.968158,0.12527839392978107,45.61914241867871,-82.96302445102889,11.544962882995605,39.543785,2.37884166667,0.11704985052347183,-0.046772439032793045,0.8134639263153076
108,2021-11-30 12:00:58.009069,0.11801940957175984,45.61987239099065,-82.96478568871018,11.53513240814209,39.543785,2.37884166667,0.11067796498537064,-0.04685238376259804,0.8127056360244751
109,2021-11-30 12:00:58.049537,0.11283979502718597,45.60762394008136,-82.96593057600812,11.53513240814209,39.543785,2.37884166667,0.10948828607797623,-0.04646730795502663,0.8106951117515564
110,2021-11-30 12:00:58.090295,0.10939041153301579,45.60586105498079,-82.96756444658403,11.549330711364746,39.543785,2.37884166667,0.10245504230260849,-0.046793073415756226,0.8111069202423096
111,2021-11-30 12:00:58.123157,0.10705210039548033,45.60443824082353,-82.96886273540632,11.549330711364746,39.543785,2.37884166667,0.09605634957551956,-0.047688279300928116,0.812335193157196
112,2021-11-30 12:00:58.163486,0.10043847191355436,45.602702888163336,-82.97040817020712,11.553072929382324,39.543785,2.37884166667,0.09001494199037552,-0.0489635095000267,0.8134596347808838
113,2021-11-30 12:00:58.203692,0.08970056055623518,45.60097108653548,-82.97191344641546,11.555258750915527,39.543785,2.37884166667,0.08497445285320282,-0.05079236626625061,0.8146499991416931
114,2021-11-30 12:00:58.246980,0.08465936084313173,45.59300093449963,-82.9697389931137,11.555258750915527,39.543785,2.37884166667,0.08122175931930542,-0.053118739277124405,0.8155621290206909
115,2021-11-30 12:00:58.285443,0.08365554265929737,45.590283683098605,-82.97043276624994,11.555258750915527,39.543785,2.37884166667,0.07935528457164764,-0.05331676825881004,0.814885139465332
116,2021-11-30 12:00:58.326149,0.08386613075868471,45.587373267112845,-82.97111813659313,11.566086769104004,39.543785,2.37884166667,0.07744710147380829,-0.05633328855037689,0.8156362175941467
117,2021-11-30 12:00:58.366708,0.08806160088524316,45.58485957070248,-82.95550337737046,11.566086769104004,39.543785,2.37884166667,0.07720449566841125,-0.05967961996793747,0.8158608078956604
118,2021-11-30 12:00:58.447977,0.09708021571486941,45.58347953542301,-82.9578406747168,11.543726921081543,39.543785,2.37884166667,0.08058272302150726,-0.06715596467256546,0.8148744106292725
119,2021-11-30 12:00:58.489068,0.09891444773114157,45.58126055897776,-82.95859310324698,11.543726921081543,39.543785,2.37884166667,0.07996389269828796,-0.06825153529644012,0.8140984773635864
120,2021-11-30 12:00:58.529788,0.10116946777621758,45.57902873686691,-82.9593073697409,11.543726921081543,39.543785,2.37884166667,0.08337533473968506,-0.07242695987224579,0.8128914833068848
121,2021-11-30 12:00:58.569674,0.10317726911090534,45.57682800143102,-82.95997939982261,11.549774169921875,39.543785,2.37884166667,0.0870838314294815,-0.07655781507492065,0.8113115429878235
122,2021-11-30 12:00:58.611143,0.10556737718151457,45.579556090152614,-82.96429781113589,11.53212833404541,39.543785,2.37884166667,0.09055837243795395,-0.08054470270872116,0.8094511032104492
123,2021-11-30 12:00:58.642997,0.10642706631339176,45.57855438570141,-82.96532752367025,11.53212833404541,39.543785,2.37884166667,0.09351564198732376,-0.08384755998849869,0.8077064156532288
124,2021-11-30 12:00:58.687482,0.10731091091686495,45.57717885197772,-82.96674730752862,11.529875755310059,39.543785,2.37884166667,0.09585211426019669,-0.08723517507314682,0.8054535984992981
125,2021-11-30 12:00:58.724240,0.10770459550332938,45.576056896952174,-82.9679028008679,11.529875755310059,39.543785,2.37884166667,0.09626728296279907,-0.0887744352221489,0.8042550683021545
126,2021-11-30 12:00:58.764812,0.10794141974627858,45.576100151770476,-82.9716285757943,11.529875755310059,39.543785,2.37884166667,0.09756173938512802,-0.09141786396503448,0.8020519614219666
127,2021-11-30 12:00:58.806206,0.10734383272023948,45.575156331865166,-82.97342622361022,11.531200408935547,39.543785,2.37884166667,0.09771769493818283,-0.09344454109668732,0.7999422550201416
128,2021-11-30 12:00:58.845746,0.10631389669373421,45.57427212768481,-82.97514197272808,11.531200408935547,39.543785,2.37884166667,0.09674397855997086,-0.09491229802370071,0.7979775071144104
129,2021-11-30 12:00:58.887201,0.10505891222206126,45.57335930292561,-82.97693997162546,11.525590896606445,39.543785,2.37884166667,0.09469549357891083,-0.0959828719496727,0.7960562705993652
130,2021-11-30 12:00:58.929320,0.10375861867618064,45.572456065331096,-82.97875826424915,11.544390678405762,39.543785,2.37884166667,0.09433193504810333,-0.09740182757377625,0.7944928407669067
131,2021-11-30 12:00:59.009184,0.09947677424402339,45.56519620397021,-82.98180029615155,11.544390678405762,39.543785,2.37884166667,0.08724505454301834,-0.09798703342676163,0.7910370230674744
132,2021-11-30 12:00:59.040802,0.09792344312431439,45.56382926504779,-82.98312297744063,11.544390678405762,39.543785,2.37884166667,0.0834711343050003,-0.09745502471923828,0.7896312475204468
133,2021-11-30 12:00:59.089787,0.09588610081932207,45.56171150082785,-82.98516397204105,11.539689064025879,39.543785,2.37884166667,0.07920277118682861,-0.09682121872901917,0.787568986415863
134,2021-11-30 12:00:59.127041,0.09498120010982038,45.55760591218186,-82.98354955673408,11.539689064025879,39.543785,2.37884166667,0.0757254883646965,-0.09544743597507477,0.7858801484107971
135,2021-11-30 12:00:59.164577,0.08960347648660477,45.55550681715146,-82.98450227360719,11.55379867553711,39.543785,2.37884166667,0.07424037158489227,-0.09589588642120361,0.7844300270080566
136,2021-11-30 12:00:59.204143,0.0849865902260514,45.55325439169511,-82.98548969967514,11.55379867553711,39.543785,2.37884166667,0.07122497260570526,-0.09395822882652283,0.7825626730918884
137,2021-11-30 12:00:59.244440,0.08374214807237115,45.550943299629274,-82.98647224906901,11.55379867553711,39.543785,2.37884166667,0.06907760351896286,-0.09164264798164368,0.7806903123855591
138,2021-11-30 12:00:59.285054,0.08356213910937367,45.54859692598728,-82.98743808611628,11.549156188964844,39.543785,2.37884166667,0.06781017780303955,-0.08902288973331451,0.778904139995575
139,2021-11-30 12:00:59.325669,0.08401839751559245,45.54946856683541,-82.99005688514252,11.554415702819824,39.543785,2.37884166667,0.0673920288681984,-0.08620446175336838,0.7774018049240112
140,2021-11-30 12:00:59.369812,0.08465364292260634,45.54973008041374,-82.97308885320474,11.554415702819824,39.543785,2.37884166667,0.06768214702606201,-0.08323203772306442,0.7761178016662598
141,2021-11-30 12:00:59.407859,0.08542940556676215,45.54809794251615,-82.97425316161308,11.549694061279297,39.543785,2.37884166667,0.06683260202407837,-0.08272133022546768,0.7747232913970947
142,2021-11-30 12:00:59.447672,0.08633506415639769,45.54637565903523,-82.97541814580013,11.549694061279297,39.543785,2.37884166667,0.06805931031703949,-0.07959248125553131,0.7742218375205994
143,2021-11-30 12:00:59.529096,0.08851121618298242,45.547850272419886,-82.98207754057643,11.549694061279297,39.543785,2.37884166667,0.07172586768865585,-0.07358504086732864,0.7745635509490967
144,2021-11-30 12:00:59.569215,0.0894343891042778,45.547008873081886,-82.98396466481088,11.544952392578125,39.543785,2.37884166667,0.07389774173498154,-0.0708162784576416,0.7754230499267578
145,2021-11-30 12:00:59.609753,0.09026950529951208,45.546180410270544,-82.98591148549153,11.544952392578125,39.543785,2.37884166667,0.07387310266494751,-0.06978499889373779,0.7746971249580383
146,2021-11-30 12:00:59.642507,0.09118599376283458,45.54551297881864,-82.98743396254648,11.538503646850586,39.543785,2.37884166667,0.07623130828142166,-0.06731047481298447,0.776164710521698
147,2021-11-30 12:00:59.683225,0.09160285193337472,45.54813184079191,-82.99219893601986,11.5231294631958,39.543785,2.37884166667,0.07854048907756805,-0.06474655866622925,0.777692973613739
148,2021-11-30 12:00:59.723954,0.09228296655976709,45.54801022516638,-82.99468857545453,11.5231294631958,39.543785,2.37884166667,0.08069873601198196,-0.06229463592171669,0.7791489958763123
149,2021-11-30 12:00:59.764228,0.09282542070415639,45.547918268051575,-82.99716445730655,11.5231294631958,39.543785,2.37884166667,0.0826338529586792,-0.05990252643823624,0.7802700400352478
150,2021-11-30 12:00:59.808945,0.09340770129953473,45.54785191124665,-82.9999318078499,11.517351150512695,39.543785,2.37884166667,0.0843975767493248,-0.05734284222126007,0.7809368371963501
151,2021-11-30 12:00:59.849006,0.09313535647419609,45.55015179812651,-83.00323233005123,11.517351150512695,39.543785,2.37884166667,0.0848732441663742,-0.05606989189982414,0.7808564305305481
152,2021-11-30 12:00:59.886728,0.09330520784808698,45.550599849226685,-83.00575702914394,11.502022743225098,39.543785,2.37884166667,0.0862976536154747,-0.05357867479324341,0.7808122038841248
153,2021-11-30 12:00:59.927113,0.0957501681063523,45.55112549412119,-83.00848167948902,11.502022743225098,39.543785,2.37884166667,0.0874653235077858,-0.05086560547351837,0.7801195383071899
154,2021-11-30 12:00:59.969302,0.10050287981652123,45.551727257977504,-83.01134902486089,11.502022743225098,39.543785,2.37884166667,0.08839067816734314,-0.04797641932964325,0.7788072228431702
155,2021-11-30 12:01:00.008101,0.1020914341850604,45.55232819685117,-83.01400229017547,11.499899864196777,39.543785,2.37884166667,0.08899644762277603,-0.045234668999910355,0.7771163582801819
156,2021-11-30 12:01:00.089905,0.10154472084376084,45.554678832459956,-83.02000503106966,11.48731803894043,39.543785,2.37884166667,0.08980017155408859,-0.040873363614082336,0.7741904258728027
157,2021-11-30 12:01:00.130433,0.09495926548480851,45.55560481879403,-83.02290618066733,11.48731803894043,39.543785,2.37884166667,0.08998911082744598,-0.03835878521203995,0.77186119556427
158,2021-11-30 12:01:00.171058,0.08614564031488174,45.55658725246486,-83.0258356068517,11.490084648132324,39.543785,2.37884166667,0.08999423682689667,-0.03629201650619507,0.7694424986839294
159,2021-11-30 12:01:00.204117,0.08382417916428211,45.5574280400011,-83.0282331783843,11.490084648132324,39.543785,2.37884166667,0.0899198055267334,-0.03495830297470093,0.767388641834259
160,2021-11-30 12:01:00.246795,0.08231666653098584,45.551539332312466,-83.02908060537297,11.490084648132324,39.543785,2.37884166667,0.0898120254278183,-0.03384622558951378,0.7650852203369141
161,2021-11-30 12:01:00.285187,0.08204650888380483,45.55136627422027,-83.03153186917942,11.481073379516602,39.543785,2.37884166667,0.08998862653970718,-0.03253142535686493,0.7637596130371094
162,2021-11-30 12:01:00.325796,0.09102802285962705,45.55121217162328,-83.03412571311708,11.481073379516602,39.543785,2.37884166667,0.08978491276502609,-0.0323219932615757,0.7615859508514404
163,2021-11-30 12:01:00.365658,0.10939688696232151,45.55108305359517,-83.03667734098626,11.488805770874023,39.543785,2.37884166667,0.08955886214971542,-0.03285670280456543,0.7595247030258179
164,2021-11-30 12:01:00.406129,0.11661939875667462,45.53129718111785,-83.01197765324095,11.479328155517578,39.543785,2.37884166667,0.08906843513250351,-0.03425807133316994,0.7575352787971497
165,2021-11-30 12:01:00.446887,0.1178635086371878,45.52882811512733,-83.01367388670093,11.479328155517578,39.543785,2.37884166667,0.0885511115193367,-0.03634167090058327,0.75567227602005
166,2021-11-30 12:01:00.490863,0.11796199207543852,45.5261249760854,-83.01549717098948,11.479328155517578,39.543785,2.37884166667,0.08803588151931763,-0.039073359221220016,0.7538564205169678
167,2021-11-30 12:01:00.529069,0.11461222578316889,45.523757344672504,-83.01709045126269,11.481039047241211,39.543785,2.37884166667,0.08794596046209335,-0.03894807770848274,0.7524585127830505
168,2021-11-30 12:01:00.568563,0.11014593290248612,45.521260127695285,-83.01871110791258,11.481039047241211,39.543785,2.37884166667,0.08738973736763,-0.042588215321302414,0.7510535717010498
169,2021-11-30 12:01:00.601358,0.11056622944302386,45.51272780404162,-83.01871402768236,11.465113639831543,39.543785,2.37884166667,0.08671446144580841,-0.0466502383351326,0.7501407265663147
170,2021-11-30 12:01:00.685783,0.11021166332873607,45.50471709455999,-83.02165302417895,11.457452774047852,39.543785,2.37884166667,0.08562599867582321,-0.05579482018947601,0.7485718727111816
171,2021-11-30 12:01:00.723541,0.10339040576974534,45.50106229025336,-83.02297277691531,11.457452774047852,39.543785,2.37884166667,0.08530139923095703,-0.05669918656349182,0.7474962472915649
172,2021-11-30 12:01:00.763952,0.09516736242665622,45.50131683407318,-83.0315682804581,11.457452774047852,39.543785,2.37884166667,0.08437199890613556,-0.06146963685750961,0.747262179851532
173,2021-11-30 12:01:00.805212,0.09248299337409391,45.49815274728735,-83.03454845657762,11.457452774047852,39.543785,2.37884166667,0.08345551043748856,-0.0661703571677208,0.7471649646759033
174,2021-11-30 12:01:00.845333,0.09154011179997702,45.49504549180046,-83.03748741453548,11.44528579711914,39.543785,2.37884166667,0.0823662206530571,-0.07050816714763641,0.7471306920051575
175,2021-11-30 12:01:00.885908,0.09098011573958634,45.491867982427,-83.04049992092521,11.432581901550293,39.543785,2.37884166667,0.08103086799383163,-0.07439114153385162,0.7469819784164429
176,2021-11-30 12:01:00.928352,0.09067533849470448,45.48850340390992,-83.04369370933817,11.435300827026367,39.543785,2.37884166667,0.07944273948669434,-0.07781996577978134,0.746492326259613
177,2021-11-30 12:01:00.967140,0.08838267188163901,45.4917993016094,-83.05939489660217,11.435300827026367,39.543785,2.37884166667,0.07903723418712616,-0.07942285388708115,0.7457332015037537
178,2021-11-30 12:01:01.007724,0.08753953670386351,45.48967600740907,-83.06492488028132,11.435300827026367,39.543785,2.37884166667,0.0772809088230133,-0.08209230750799179,0.744904100894928
179,2021-11-30 12:01:01.048776,0.08690007745208311,45.48752016511874,-83.07059773672886,11.43152904510498,39.543785,2.37884166667,0.07559201866388321,-0.08408312499523163,0.7435572147369385
180,2021-11-30 12:01:01.088916,0.08551787146564722,45.48541021730126,-83.07622475038147,11.43152904510498,39.543785,2.37884166667,0.07400834560394287,-0.08551911264657974,0.7416607737541199
181,2021-11-30 12:01:01.162608,0.07568616016049583,45.48121385981922,-83.09257041881936,11.437766075134277,39.543785,2.37884166667,0.07221389561891556,-0.08761760592460632,0.7381396293640137
182,2021-11-30 12:01:01.202949,0.07446357143376484,45.478997128973454,-83.09946371490399,11.437766075134277,39.543785,2.37884166667,0.07115081697702408,-0.08849529922008514,0.7350743412971497
183,2021-11-30 12:01:01.243516,0.07405001369148018,45.47678286959468,-83.10649676783517,11.437766075134277,39.543785,2.37884166667,0.07028929889202118,-0.08951613306999207,0.7316293120384216
184,2021-11-30 12:01:01.284093,0.07547197361889947,45.474581151104395,-83.11363232097074,11.450722694396973,39.543785,2.37884166667,0.06957193464040756,-0.09074340760707855,0.7279950976371765
185,2021-11-30 12:01:01.324496,0.083487802375377,45.46548079702867,-83.11619475580986,11.450722694396973,39.543785,2.37884166667,0.06917537748813629,-0.09202875196933746,0.7245113849639893
186,2021-11-30 12:01:01.368261,0.08923568983907713,45.46161475379962,-83.12313417293286,11.459369659423828,39.543785,2.37884166667,0.0684041902422905,-0.0936204344034195,0.7211405634880066
187,2021-11-30 12:01:01.406434,0.09029493789065993,45.45563865299489,-83.1007599135831,11.470590591430664,39.543785,2.37884166667,0.0679139643907547,-0.09471753984689713,0.7191144227981567
188,2021-11-30 12:01:01.446961,0.09005846791434538,45.4519911673411,-83.10733984332424,11.470590591430664,39.543785,2.37884166667,0.06675983965396881,-0.09621714055538177,0.716535747051239
189,2021-11-30 12:01:01.488236,0.08960141072498136,45.44634322240589,-83.1077222835299,11.470590591430664,39.543785,2.37884166667,0.06519802659749985,-0.09754441678524017,0.7147653102874756
190,2021-11-30 12:01:01.528064,0.08477826254182522,45.442276945286345,-83.11295416553078,11.476277351379395,39.543785,2.37884166667,0.06358160078525543,-0.09850717335939407,0.7139989137649536
191,2021-11-30 12:01:01.568428,0.08116766568951854,45.438093211988125,-83.11829378851252,11.476277351379395,39.543785,2.37884166667,0.06200587376952171,-0.09909400343894958,0.7141661643981934
192,2021-11-30 12:01:01.602118,0.08011526335049542,45.434575823689514,-83.12279825686602,11.482754707336426,39.543785,2.37884166667,0.061293140053749084,-0.09995748102664948,0.7129999399185181
193,2021-11-30 12:01:01.690435,0.08002153626992055,45.43133895619657,-83.13060885106306,11.484317779541016,39.543785,2.37884166667,0.058479100465774536,-0.09966064989566803,0.7169601917266846
194,2021-11-30 12:01:01.731203,0.08000472499775924,45.42810121607141,-83.13535403469093,11.484317779541016,39.543785,2.37884166667,0.057909850031137466,-0.09858068823814392,0.7202638387680054
195,2021-11-30 12:01:01.763360,0.08015790259273305,45.42550056987398,-83.13910413145095,11.484317779541016,39.543785,2.37884166667,0.05817031487822533,-0.09682904183864594,0.7239934206008911
196,2021-11-30 12:01:01.807825,0.08050675214944751,45.421885072795696,-83.14432271987586,11.484317779541016,39.543785,2.37884166667,0.05906059220433235,-0.0945628210902214,0.727834165096283
197,2021-11-30 12:01:01.845464,0.0814136400605943,45.41884040180572,-83.14878076110634,11.483583450317383,39.543785,2.37884166667,0.05866658315062523,-0.09462226182222366,0.7284292578697205
198,2021-11-30 12:01:01.885709,0.08165079494963459,45.43078888984448,-83.15154748631029,11.489340782165527,39.543785,2.37884166667,0.06060221791267395,-0.09160029888153076,0.7319079637527466
199,2021-11-30 12:01:01.926347,0.07855921994403411,45.43022781467463,-83.15604261978305,11.489340782165527,39.543785,2.37884166667,0.06340872496366501,-0.08814836293458939,0.7344885468482971
200,2021-11-30 12:01:01.966831,0.07804171979393262,45.429713125363634,-83.1605384378335,11.489340782165527,39.543785,2.37884166667,0.06700988113880157,-0.08436071127653122,0.7359368801116943
201,2021-11-30 12:01:02.007568,0.07928209061787547,45.42924529861749,-83.16507570033677,11.484130859375,39.543785,2.37884166667,0.0710572600364685,-0.08051963150501251,0.7361811399459839
202,2021-11-30 12:01:02.040226,0.07998685513215634,45.435270338843864,-83.16916564412439,11.484130859375,39.543785,2.37884166667,0.07171495258808136,-0.0797247663140297,0.7365880012512207
203,2021-11-30 12:01:02.089298,0.08452798687137987,45.43639470007072,-83.17480532129198,11.488475799560547,39.543785,2.37884166667,0.07642660290002823,-0.07560426741838455,0.7354275584220886
204,2021-11-30 12:01:02.130208,0.09073811231579954,45.43743353463562,-83.17952657905026,11.487407684326172,39.543785,2.37884166667,0.08069935441017151,-0.07204265147447586,0.7331159114837646
205,2021-11-30 12:01:02.170225,0.09345068942007008,45.43854158737337,-83.18415987664494,11.487407684326172,39.543785,2.37884166667,0.08416251838207245,-0.06897520273923874,0.7298341393470764
206,2021-11-30 12:01:02.246768,0.09325380310813104,45.44157463442458,-83.19499496569475,11.487407684326172,39.543785,2.37884166667,0.08783271163702011,-0.06442847847938538,0.7218188047409058
207,2021-11-30 12:01:02.284151,0.09296961283490972,45.44288263639127,-83.19974174412994,11.491455078125,39.543785,2.37884166667,0.08877015858888626,-0.06332267075777054,0.7205177545547485
208,2021-11-30 12:01:02.324599,0.09190178694807061,45.444443638790034,-83.20488865431179,11.491455078125,39.543785,2.37884166667,0.0884963721036911,-0.06201529875397682,0.7160641551017761
209,2021-11-30 12:01:02.366248,0.09035294489892139,45.443926256128655,-83.20388788165147,11.497407913208008,39.543785,2.37884166667,0.08690068870782852,-0.061153218150138855,0.7120881080627441
210,2021-11-30 12:01:02.405593,0.08800668287204497,45.43863344694714,-83.20790069926726,11.491717338562012,39.543785,2.37884166667,0.0840872973203659,-0.06057555228471756,0.7090113162994385
211,2021-11-30 12:01:02.446481,0.08595293281417486,45.43891512018106,-83.2129650833066,11.491717338562012,39.543785,2.37884166667,0.08027379959821701,-0.06013501062989235,0.7068725228309631
212,2021-11-30 12:01:02.487334,0.09046606262753838,45.43921002451908,-83.2180600987633,11.491717338562012,39.543785,2.37884166667,0.08004172146320343,-0.05923215672373772,0.7051301002502441
213,2021-11-30 12:01:02.528234,0.09651721053022659,45.43959071251048,-83.22315616658288,11.504156112670898,39.543785,2.37884166667,0.07543779164552689,-0.058641217648983,0.7042971253395081
214,2021-11-30 12:01:02.568216,0.09668406916827749,45.43999753760965,-83.22815085579013,11.504156112670898,39.543785,2.37884166667,0.07063490897417068,-0.05785370245575905,0.7046291828155518
215,2021-11-30 12:01:02.609630,0.09541027076484582,45.428541667068814,-83.2264965603401,11.49980640411377,39.543785,2.37884166667,0.0661812573671341,-0.05673009529709816,0.7058950662612915
216,2021-11-30 12:01:02.690291,0.09047852404565102,45.4249412609435,-83.23405920373608,11.509862899780273,39.543785,2.37884166667,0.05985921248793602,-0.0537797175347805,0.7102441787719727
217,2021-11-30 12:01:02.724164,0.08633974574425837,45.42342273321023,-83.23723021273867,11.509862899780273,39.543785,2.37884166667,0.05878135561943054,-0.053006820380687714,0.7101410031318665
218,2021-11-30 12:01:02.771219,0.08549274218556603,45.413264919312276,-83.2335679191944,11.509862899780273,39.543785,2.37884166667,0.05730120837688446,-0.05122493952512741,0.7126590609550476
219,2021-11-30 12:01:02.804249,0.08616015654578642,45.410399818632115,-83.23530577473267,11.509862899780273,39.543785,2.37884166667,0.05764647200703621,-0.049961354583501816,0.7147617936134338
220,2021-11-30 12:01:02.844619,0.08745864069381168,45.406850501123344,-83.23739657098582,11.502158164978027,39.543785,2.37884166667,0.05916064605116844,-0.048875611275434494,0.7163441777229309
221,2021-11-30 12:01:02.885111,0.09225178642055193,45.40322785659434,-83.23946033682482,11.512261390686035,39.543785,2.37884166667,0.06193258985877037,-0.04837080091238022,0.7172353863716125
222,2021-11-30 12:01:02.930130,0.0979551017040472,45.39913453346253,-83.24171404614539,11.49570083618164,39.543785,2.37884166667,0.06571617722511292,-0.048457082360982895,0.7174215316772461
223,2021-11-30 12:01:02.966870,0.10255826680568679,45.398059778241304,-83.23986113925025,11.49570083618164,39.543785,2.37884166667,0.06605137884616852,-0.047772366553545,0.7175370454788208
224,2021-11-30 12:01:03.007360,0.10524854358012273,45.3947124363149,-83.24111806577712,11.49570083618164,39.543785,2.37884166667,0.0706455335021019,-0.04885239899158478,0.7168223857879639
225,2021-11-30 12:01:03.048213,0.10727881332150974,45.39129134527302,-83.24233361908519,11.501187324523926,39.543785,2.37884166667,0.07558432966470718,-0.050692424178123474,0.7154622673988342
226,2021-11-30 12:01:03.088236,0.10540752367083077,45.387898266955304,-83.2434723224767,11.501187324523926,39.543785,2.37884166667,0.08037935197353363,-0.05319616198539734,0.7135857939720154
227,2021-11-30 12:01:03.128885,0.10358121827233006,45.39193621526796,-83.24630706937953,11.493695259094238,39.543785,2.37884166667,0.08472073823213577,-0.05621939152479172,0.7113509178161621
228,2021-11-30 12:01:03.210549,0.10477137187153633,45.388116197776796,-83.2490504117682,11.493695259094238,39.543785,2.37884166667,0.08998800069093704,-0.06015047803521156,0.7080569267272949
229,2021-11-30 12:01:03.242903,0.1048169930237902,45.38658042771448,-83.25008714846783,11.493695259094238,39.543785,2.37884166667,0.09246667474508286,-0.06372396647930145,0.7058597207069397
230,2021-11-30 12:01:03.291278,0.09987436678806416,45.38430457201235,-83.2515693420804,11.494564056396484,39.543785,2.37884166667,0.0943085178732872,-0.06736978143453598,0.7037035226821899
231,2021-11-30 12:01:03.324108,0.0967384411411455,45.38698807127569,-83.25741935748506,11.494564056396484,39.543785,2.37884166667,0.09448056668043137,-0.07022809237241745,0.7025448083877563
232,2021-11-30 12:01:03.368769,0.0951617822121555,45.38581236086509,-83.25972954013402,11.491716384887695,39.543785,2.37884166667,0.09385877847671509,-0.07275466620922089,0.7019081115722656
233,2021-11-30 12:01:03.406432,0.0936515754026231,45.37742555914322,-83.2520340383351,11.4922513961792,39.543785,2.37884166667,0.09453835338354111,-0.07370267063379288,0.7010936737060547
234,2021-11-30 12:01:03.446715,0.09204063032541368,45.37639103576626,-83.25405468459279,11.4922513961792,39.543785,2.37884166667,0.09263858944177628,-0.0752926766872406,0.7016152143478394
235,2021-11-30 12:01:03.488102,0.09021038716743089,45.37100289890467,-83.25667097529454,11.4922513961792,39.543785,2.37884166667,0.0900908038020134,-0.07610011100769043,0.7030280232429504
236,2021-11-30 12:01:03.527084,0.08870608391373035,45.36908743810242,-83.25868162380561,11.500086784362793,39.543785,2.37884166667,0.08717268705368042,-0.07613328099250793,0.7051723003387451
237,2021-11-30 12:01:03.567701,0.08740165610064766,45.36708053702432,-83.26074443171872,11.500086784362793,39.543785,2.37884166667,0.08427662402391434,-0.07563921064138412,0.7076439261436462
238,2021-11-30 12:01:03.609035,0.08636155874257889,45.36503343092045,-83.26283530755026,11.503525733947754,39.543785,2.37884166667,0.0839272290468216,-0.07607126235961914,0.7079128623008728
239,2021-11-30 12:01:03.649703,0.0838126066992104,45.36300067772004,-83.26483525588168,11.518403053283691,39.543785,2.37884166667,0.08118166029453278,-0.07499860227108002,0.7108056545257568
240,2021-11-30 12:01:03.681735,0.0799279426191478,45.36044253988389,-83.26328571316206,11.518403053283691,39.543785,2.37884166667,0.07915887236595154,-0.0738278180360794,0.7131540179252625
241,2021-11-30 12:01:03.771035,0.07637377125043611,45.35551815302444,-83.26612338060077,11.518403053283691,39.543785,2.37884166667,0.07739190757274628,-0.07216467708349228,0.7161226868629456
242,2021-11-30 12:01:03.811446,0.07689326080065093,45.353270725866416,-83.26735048624234,11.521929740905762,39.543785,2.37884166667,0.07795385271310806,-0.07189221680164337,0.7161002159118652
243,2021-11-30 12:01:03.843857,0.07756675893217134,45.351460841339474,-83.26830878718363,11.521929740905762,39.543785,2.37884166667,0.0778593197464943,-0.07186489552259445,0.7164125442504883
244,2021-11-30 12:01:03.885049,0.07928674588195338,45.356444543133634,-83.26900122380923,11.528332710266113,39.543785,2.37884166667,0.07919848710298538,-0.07193387299776077,0.7151369452476501
245,2021-11-30 12:01:03.925099,0.08053996317820326,45.35554397104105,-83.27003455843088,11.528332710266113,39.543785,2.37884166667,0.08101973682641983,-0.07228545844554901,0.7130149006843567
246,2021-11-30 12:01:03.965632,0.081610795016211,45.354654476449504,-83.27104090859169,11.528332710266113,39.543785,2.37884166667,0.08291628956794739,-0.07271470129489899,0.7103725671768188
247,2021-11-30 12:01:04.007013,0.08245561763035718,45.35376829516662,-83.27202650818411,11.52670955657959,39.543785,2.37884166667,0.08464504033327103,-0.07306086272001266,0.7074928283691406
248,2021-11-30 12:01:04.048559,0.0875420775375354,45.35857574257265,-83.27873699699084,11.535447120666504,39.543785,2.37884166667,0.0860321968793869,-0.07326580584049225,0.7046863436698914
249,2021-11-30 12:01:04.087524,0.10207617449688708,45.35887387620576,-83.28068152086125,11.535447120666504,39.543785,2.37884166667,0.08664954453706741,-0.07336173206567764,0.7037180066108704
250,2021-11-30 12:01:04.129572,0.10894056977932567,45.35925284245751,-83.28276862221182,11.53377628326416,39.543785,2.37884166667,0.08744420111179352,-0.07332798838615417,0.7012710571289062
251,2021-11-30 12:01:04.209793,0.10986500289545602,45.3601033349109,-83.28669934367348,11.53377628326416,39.543785,2.37884166667,0.08704130351543427,-0.0727640762925148,0.6994203925132751
252,2021-11-30 12:01:04.250340,0.10647879215291414,45.356973973445676,-83.29170967437085,11.53377628326416,39.543785,2.37884166667,0.08603278547525406,-0.07224500924348831,0.7004299163818359
253,2021-11-30 12:01:04.283028,0.10198918236688673,45.356852717628236,-83.29372915382575,11.536520957946777,39.543785,2.37884166667,0.086062952876091,-0.07226841896772385,0.7000478506088257
254,2021-11-30 12:01:04.323919,0.09880028390836901,45.356706679920194,-83.29626236392902,11.536520957946777,39.543785,2.37884166667,0.08457683026790619,-0.07156012207269669,0.7028396725654602
255,2021-11-30 12:01:04.364526,0.0974672811900119,45.356574907899514,-83.29877279253104,11.538317680358887,39.543785,2.37884166667,0.08295834809541702,-0.07082764804363251,0.7068814635276794
256,2021-11-30 12:01:04.404905,0.09651819490706896,45.343230755797855,-83.28446945437173,11.53618049621582,39.543785,2.37884166667,0.08143756538629532,-0.07011107355356216,0.7116709351539612
257,2021-11-30 12:01:04.445720,0.0913313148354096,45.341448678430986,-83.28590207727554,11.53618049621582,39.543785,2.37884166667,0.08007880300283432,-0.06960374861955643,0.716697096824646
258,2021-11-30 12:01:04.489727,0.08158434724429481,45.33951459618881,-83.28739853610789,11.53618049621582,39.543785,2.37884166667,0.07905904203653336,-0.06920000165700912,0.721530020236969
259,2021-11-30 12:01:04.526533,0.07821416051451338,45.337902834883174,-83.28862436050503,11.540532112121582,39.543785,2.37884166667,0.07874471694231033,-0.06902077794075012,0.7230737209320068
260,2021-11-30 12:01:04.567503,0.07766608737510411,45.336076448098225,-83.28994433145807,11.540532112121582,39.543785,2.37884166667,0.07838044315576553,-0.06884056329727173,0.7270914316177368
261,2021-11-30 12:01:04.608052,0.07875363429268648,45.33017129509794,-83.28323054498371,11.5383882522583,39.543785,2.37884166667,0.07856573909521103,-0.0687793418765068,0.7298265099525452
262,2021-11-30 12:01:04.648516,0.07935490646050856,45.327602712488016,-83.282922264504,11.5383882522583,39.543785,2.37884166667,0.07930591702461243,-0.06874565035104752,0.7311287522315979
263,2021-11-30 12:01:04.689705,0.08004158951339216,45.324965272599314,-83.28254965584911,11.5383882522583,39.543785,2.37884166667,0.08045355975627899,-0.06875075399875641,0.7310166358947754
264,2021-11-30 12:01:04.770729,0.0828385798588667,45.32127203909982,-83.27962658258265,11.536163330078125,39.543785,2.37884166667,0.08193742483854294,-0.06871772557497025,0.7302165627479553
265,2021-11-30 12:01:04.803262,0.08339947179366566,45.31941812589238,-83.27886897748378,11.534964561462402,39.543785,2.37884166667,0.08309964835643768,-0.06874813884496689,0.7273963093757629
266,2021-11-30 12:01:04.843969,0.09341905541178216,45.31708182389076,-83.27786061989198,11.534964561462402,39.543785,2.37884166667,0.08400967717170715,-0.0689285397529602,0.7238776683807373
267,2021-11-30 12:01:04.884383,0.1065111783101792,45.314741347302025,-83.27680053373814,11.524909973144531,39.543785,2.37884166667,0.08443354070186615,-0.06914741545915604,0.7197991609573364
268,2021-11-30 12:01:04.929286,0.11046803387321077,45.31211068900193,-83.27555203248498,11.524909973144531,39.543785,2.37884166667,0.08420625329017639,-0.06929554045200348,0.7152515053749084
269,2021-11-30 12:01:04.965638,0.11118141553562329,45.3096413480745,-83.2791382972003,11.527205467224121,39.543785,2.37884166667,0.08428429812192917,-0.06925266981124878,0.7142369747161865
270,2021-11-30 12:01:05.006772,0.1106534055789852,45.30714444808171,-83.27880708248371,11.527205467224121,39.543785,2.37884166667,0.08325070142745972,-0.0694127157330513,0.7095193266868591
271,2021-11-30 12:01:05.047467,0.10647211632717524,45.304641817739004,-83.2784478079683,11.527205467224121,39.543785,2.37884166667,0.08151709288358688,-0.06945306062698364,0.7052640318870544
272,2021-11-30 12:01:05.087733,0.10099986811084137,45.30213111733614,-83.27805854096471,11.509353637695312,39.543785,2.37884166667,0.0793474018573761,-0.0693616271018982,0.701641857624054
273,2021-11-30 12:01:05.128105,0.09895713382783107,45.30323045119802,-83.28385325099758,11.514967918395996,39.543785,2.37884166667,0.07698088884353638,-0.06907888501882553,0.6987383961677551
274,2021-11-30 12:01:05.169458,0.09791478465541517,45.30143681166859,-83.28466087296663,11.514967918395996,39.543785,2.37884166667,0.07633282989263535,-0.06902690976858139,0.6970635652542114
275,2021-11-30 12:01:05.210145,0.09647049547392073,45.29962196050248,-83.28548685014572,11.514967918395996,39.543785,2.37884166667,0.07378862053155899,-0.06843409687280655,0.6949889063835144
276,2021-11-30 12:01:05.282744,0.08804685489257094,45.296332122015635,-83.28689059119885,11.492878913879395,39.543785,2.37884166667,0.07000307738780975,-0.06631364673376083,0.6931742429733276
277,2021-11-30 12:01:05.323315,0.08640730034885653,45.29922293462727,-83.29390059722837,11.492878913879395,39.543785,2.37884166667,0.06900133937597275,-0.06485795229673386,0.6930652260780334
278,2021-11-30 12:01:05.368540,0.08682628622095566,45.28599783128367,-83.28397540028358,11.496858596801758,39.543785,2.37884166667,0.0686810165643692,-0.0631568431854248,0.693412184715271
279,2021-11-30 12:01:05.404756,0.08669638753685367,45.28522482950628,-83.28573714333085,11.496858596801758,39.543785,2.37884166667,0.06811770051717758,-0.06269221752882004,0.6927537322044373
280,2021-11-30 12:01:05.445554,0.08752480914510874,45.28434570562462,-83.28767132521702,11.48316764831543,39.543785,2.37884166667,0.0687568411231041,-0.06089525297284126,0.6938236951828003
281,2021-11-30 12:01:05.490006,0.0875399762421201,45.28767046794931,-83.29340891246366,11.48316764831543,39.543785,2.37884166667,0.07007760554552078,-0.0590084083378315,0.6951491832733154
282,2021-11-30 12:01:05.526622,0.08819556128163386,45.287742713960476,-83.29585308147733,11.48316764831543,39.543785,2.37884166667,0.071961909532547,-0.057289157062768936,0.6967316269874573
283,2021-11-30 12:01:05.567197,0.08926577017453363,45.28786057633896,-83.29858523300759,11.473773002624512,39.543785,2.37884166667,0.07434942573308945,-0.055582184344530106,0.698371171951294
284,2021-11-30 12:01:05.608250,0.09035970491125178,45.28801377556217,-83.30143658756687,11.465681076049805,39.543785,2.37884166667,0.07459680736064911,-0.05474301800131798,0.698443591594696
285,2021-11-30 12:01:05.648711,0.09197243359575762,45.28820488895081,-83.30419068546404,11.465681076049805,39.543785,2.37884166667,0.07774718850851059,-0.053063102066516876,0.7002525329589844
286,2021-11-30 12:01:05.689118,0.09188880283068185,45.28994224005867,-83.30744392291311,11.454940795898438,39.543785,2.37884166667,0.08146748691797256,-0.051394179463386536,0.7019941210746765
287,2021-11-30 12:01:05.721658,0.0931876038669924,45.29036165995062,-83.30979124666696,11.454940795898438,39.543785,2.37884166667,0.0853007435798645,-0.050110138952732086,0.7035671472549438
288,2021-11-30 12:01:05.769986,0.09512305225948471,45.2910263730802,-83.3133539101112,11.454940795898438,39.543785,2.37884166667,0.08975227922201157,-0.04876083880662918,0.7050238847732544
289,2021-11-30 12:01:05.843516,0.10816829483107164,45.29214388082337,-83.3188862205716,11.457079887390137,39.543785,2.37884166667,0.0953797847032547,-0.04716283828020096,0.7064270973205566
290,2021-11-30 12:01:05.884127,0.11530500201891121,45.2860784401354,-83.31924967079051,11.43999195098877,39.543785,2.37884166667,0.09979138523340225,-0.046749427914619446,0.7070502638816833
291,2021-11-30 12:01:05.924180,0.1178215895001871,45.28551783068737,-83.32183968344903,11.43999195098877,39.543785,2.37884166667,0.10374950617551804,-0.046968333423137665,0.7071760892868042
292,2021-11-30 12:01:05.964863,0.11901119762823774,45.28495999233542,-83.32449584206846,11.43999195098877,39.543785,2.37884166667,0.10718362778425217,-0.047621212899684906,0.7068090438842773
293,2021-11-30 12:01:06.005898,0.11817766796837632,45.28440967753931,-83.32719790812037,11.444473266601562,39.543785,2.37884166667,0.10998425632715225,-0.048711325973272324,0.706004798412323
294,2021-11-30 12:01:06.048914,0.1145497173240846,45.27677521372475,-83.3296048692614,11.444473266601562,39.543785,2.37884166667,0.11197037249803543,-0.050207216292619705,0.7047812342643738
295,2021-11-30 12:01:06.087029,0.11243530923714917,45.274967021967804,-83.33206137302052,11.4391508102417,39.543785,2.37884166667,0.11341344565153122,-0.05010649561882019,0.704571545124054
296,2021-11-30 12:01:06.127555,0.11158615189521699,45.273046853952174,-83.3346795494027,11.437626838684082,39.543785,2.37884166667,0.11424422264099121,-0.05192837864160538,0.7029179930686951
297,2021-11-30 12:01:06.168182,0.11064159225978487,45.27110980515846,-83.33732335637926,11.437626838684082,39.543785,2.37884166667,0.11393272876739502,-0.05401301756501198,0.7010629177093506
298,2021-11-30 12:01:06.208773,0.10788715512190739,45.26916099895226,-83.33998388992335,11.437626838684082,39.543785,2.37884166667,0.11238981783390045,-0.056316155940294266,0.6991168856620789
299,2021-11-30 12:01:06.249564,0.10228245193909448,45.2646878254717,-83.34857285209748,11.437626838684082,39.543785,2.37884166667,0.10962305963039398,-0.05874156579375267,0.6972174644470215
300,2021-11-30 12:01:06.282728,0.09895348575780988,45.262696446848366,-83.3516807881838,11.436239242553711,39.543785,2.37884166667,0.1098785251379013,-0.0591709204018116,0.6965639591217041
301,2021-11-30 12:01:06.323709,0.0960612470424721,45.26023266844876,-83.3555623044446,11.436239242553711,39.543785,2.37884166667,0.10596214234828949,-0.0617140457034111,0.6947643160820007
302,2021-11-30 12:01:06.363811,0.09375490521379869,45.257793188279074,-83.35941006836379,11.432598114013672,39.543785,2.37884166667,0.1015312448143959,-0.06411674618721008,0.6933560371398926
303,2021-11-30 12:01:06.403771,0.09260899331387899,45.24950606394573,-83.35496617240496,11.44092082977295,39.543785,2.37884166667,0.09687429666519165,-0.06632165610790253,0.6924596428871155
304,2021-11-30 12:01:06.445061,0.09545578069007388,45.247615146078374,-83.36095182130802,11.44092082977295,39.543785,2.37884166667,0.09230255335569382,-0.0683135986328125,0.6920788288116455
305,2021-11-30 12:01:06.488774,0.09619899717683078,45.24559282818659,-83.36737734757696,11.44092082977295,39.543785,2.37884166667,0.08791843801736832,-0.07010125368833542,0.6921922564506531
306,2021-11-30 12:01:06.526674,0.09511678317150096,45.2438357334254,-83.37302719989013,11.444581031799316,39.543785,2.37884166667,0.08687759190797806,-0.07087001204490662,0.6916954517364502
307,2021-11-30 12:01:06.566490,0.09417614333402677,45.24195457779177,-83.37903052383048,11.444581031799316,39.543785,2.37884166667,0.08311829715967178,-0.07234253734350204,0.6925406455993652
308,2021-11-30 12:01:06.607360,0.09069906467980883,45.24259042407123,-83.39072556456011,11.447184562683105,39.543785,2.37884166667,0.08036428689956665,-0.07358895242214203,0.6938154101371765
309,2021-11-30 12:01:06.647970,0.08603292621812349,45.24110610310022,-83.39805792870516,11.447184562683105,39.543785,2.37884166667,0.07862859219312668,-0.0746411681175232,0.6954225301742554
310,2021-11-30 12:01:06.688871,0.08479747837305869,45.23958895493645,-83.40554745630668,11.447184562683105,39.543785,2.37884166667,0.07823731005191803,-0.07548310607671738,0.6972764134407043
311,2021-11-30 12:01:06.769501,0.08673691227336629,45.236637122203284,-83.41416703150114,11.459244728088379,39.543785,2.37884166667,0.07863657921552658,-0.07679350674152374,0.6996402740478516
312,2021-11-30 12:01:06.802410,0.09056068008019452,45.235373417750615,-83.41935212820235,11.448382377624512,39.543785,2.37884166667,0.08096468448638916,-0.07735937833786011,0.7016050219535828
313,2021-11-30 12:01:06.842684,0.09702897572468833,45.233826633529425,-83.42576592525096,11.448382377624512,39.543785,2.37884166667,0.08424130082130432,-0.07823461294174194,0.7035025954246521
314,2021-11-30 12:01:06.883717,0.10054289212824223,45.2322338388605,-83.43237695483406,11.454598426818848,39.543785,2.37884166667,0.08815735578536987,-0.07951534539461136,0.7052577137947083
