,a_nav_status_t,nav_status_D,nav_status_E,nav_status_N,nav_status_alt,nav_status_origin_lat,nav_status_origin_lon,nav_status_pitch,nav_status_roll,nav_status_yaw
0,2021-11-30 12:26:05.406270,2.819553015283143,50.25289208331783,-35.54271175438048,7.416701793670654,39.543785,2.37884166667,-0.03592941537499428,-0.0037244425620883703,0.07182279229164124
1,2021-11-30 12:26:05.485060,2.821225907301857,50.25480114682372,-35.54542802788895,7.39315938949585,39.543785,2.37884166667,-0.03432891517877579,-0.005745057016611099,0.07001255452632904
2,2021-11-30 12:26:05.525639,2.837536750359369,50.25586555883,-35.54685281670671,7.39315938949585,39.543785,2.37884166667,-0.033825136721134186,-0.007554254494607449,0.06924699246883392
3,2021-11-30 12:26:05.566238,2.859355714285001,50.25865007966497,-35.54927039619672,7.37895393371582,39.543785,2.37884166667,-0.03330489620566368,-0.00942720752209425,0.06854572147130966
4,2021-11-30 12:26:05.607351,2.8654356071961176,50.26016450842684,-35.55094313584121,7.37895393371582,39.543785,2.37884166667,-0.032989177852869034,-0.011572815477848053,0.06788324564695358
5,2021-11-30 12:26:05.649513,2.8674147617720744,50.26176915691646,-35.55267583899281,7.37895393371582,39.543785,2.37884166667,-0.03269876912236214,-0.013738797977566719,0.06724884361028671
6,2021-11-30 12:26:05.688156,2.8686284951267336,50.26322597026751,-35.55424216352173,7.348422050476074,39.543785,2.37884166667,-0.03178457170724869,-0.01454868633300066,0.06635761260986328
7,2021-11-30 12:26:05.728833,2.8842765151190353,50.26508125123595,-35.55634406088059,7.348422050476074,39.543785,2.37884166667,-0.031467001885175705,-0.01676720567047596,0.06580300629138947
8,2021-11-30 12:26:05.769953,2.8995799320556253,50.2668364547071,-35.55816011003099,7.339521884918213,39.543785,2.37884166667,-0.031244609504938126,-0.019136643037199974,0.06528900563716888
9,2021-11-30 12:26:05.810076,2.9031319496178747,50.26860838071899,-35.55995926701154,7.316890239715576,39.543785,2.37884166667,-0.031168609857559204,-0.02151840180158615,0.06480594724416733
10,2021-11-30 12:26:05.851266,2.903934993888207,52.60298713080861,-32.835140890821094,7.316890239715576,39.543785,2.37884166667,-0.026769662275910378,-0.025698615238070488,0.06287023425102234
11,2021-11-30 12:26:05.883231,2.904700393782087,52.60236584087231,-32.83558710610676,7.304834365844727,39.543785,2.37884166667,-0.02744624763727188,-0.027549870312213898,0.06286618113517761
12,2021-11-30 12:26:05.924084,2.9126391332834687,52.603895936786195,-32.83709100869964,7.304834365844727,39.543785,2.37884166667,-0.027753617614507675,-0.029582826420664787,0.06263795495033264
13,2021-11-30 12:26:05.964472,2.9202990741374912,52.60544590892415,-32.83859024675984,7.304834365844727,39.543785,2.37884166667,-0.028005920350551605,-0.03155999258160591,0.062469061464071274
14,2021-11-30 12:26:06.045709,2.922705142970742,52.607018462486344,-32.84185329914784,7.27536678314209,39.543785,2.37884166667,-0.028414718806743622,-0.03548765555024147,0.06231497600674629
15,2021-11-30 12:26:06.089017,2.924897961785956,52.608390112911785,-32.84355015910055,7.271371841430664,39.543785,2.37884166667,-0.028492210432887077,-0.03742743283510208,0.062251899391412735
16,2021-11-30 12:26:06.127078,2.943948847262217,52.60959073700086,-32.845008254780595,7.271371841430664,39.543785,2.37884166667,-0.027757901698350906,-0.03857996687293053,0.061693720519542694
17,2021-11-30 12:26:06.167846,2.9629953518201426,52.61092432945863,-32.84662849249269,7.248681545257568,39.543785,2.37884166667,-0.02774575911462307,-0.04018398001790047,0.061749208718538284
18,2021-11-30 12:26:06.209199,2.967670354920258,52.61097837808964,-32.84772343157204,7.236445903778076,39.543785,2.37884166667,-0.027804449200630188,-0.04179330915212631,0.061897192150354385
19,2021-11-30 12:26:06.249170,2.968546887841216,52.61204208532278,-32.84922022668895,7.236445903778076,39.543785,2.37884166667,-0.02785634994506836,-0.04332391545176506,0.06206200644373894
20,2021-11-30 12:26:06.289568,2.9721318986327625,52.613124527553396,-32.85073828893454,7.236445903778076,39.543785,2.37884166667,-0.02777732163667679,-0.044536661356687546,0.062242284417152405
21,2021-11-30 12:26:06.330219,2.989754956684849,52.61421935368332,-32.85223801476776,7.207028865814209,39.543785,2.37884166667,-0.027095932513475418,-0.04573850333690643,0.06183885782957077
22,2021-11-30 12:26:06.371136,3.002320103881,52.6153370670672,-32.85379081007746,7.207028865814209,39.543785,2.37884166667,-0.02688066102564335,-0.04674045369029045,0.06214273348450661
23,2021-11-30 12:26:06.403842,3.0048348149235085,52.61518598420953,-32.85422187779995,7.198652744293213,39.543785,2.37884166667,-0.026847992092370987,-0.04750289395451546,0.062493618577718735
24,2021-11-30 12:26:06.444527,3.0058262241975373,52.616110055509765,-32.85562190374682,7.198652744293213,39.543785,2.37884166667,-0.026580218225717545,-0.048276420682668686,0.06282257288694382
25,2021-11-30 12:26:06.485299,3.011265979515501,52.61703473155913,-32.85702571297258,7.175805568695068,39.543785,2.37884166667,-0.02624538540840149,-0.04879682883620262,0.0631587877869606
26,2021-11-30 12:26:06.526220,3.0376497892366907,52.61798381242394,-32.858413674310256,7.168107509613037,39.543785,2.37884166667,-0.02550823800265789,-0.04976167529821396,0.06293832510709763
27,2021-11-30 12:26:06.606506,3.0603135200676475,52.61956574135818,-32.861587427043474,7.168107509613037,39.543785,2.37884166667,-0.02471855655312538,-0.050614237785339355,0.06391380727291107
28,2021-11-30 12:26:06.647360,3.0613981458718182,52.62046509005107,-32.86308181872935,7.168107509613037,39.543785,2.37884166667,-0.02432907745242119,-0.05098343640565872,0.06445254385471344
29,2021-11-30 12:26:06.687775,3.0632805070474083,52.621353136107004,-32.86456469780553,7.1377153396606445,39.543785,2.37884166667,-0.02391841821372509,-0.05120236799120903,0.06501217186450958
30,2021-11-30 12:26:06.728639,3.06830984473388,52.622306791276074,-32.86506501521415,7.1377153396606445,39.543785,2.37884166667,-0.02345200441777706,-0.05144593492150307,0.06563600152730942
31,2021-11-30 12:26:06.769521,3.070781239363693,52.62325773495811,-32.866366890992495,7.135509014129639,39.543785,2.37884166667,-0.02290046028792858,-0.05227748677134514,0.06566298007965088
32,2021-11-30 12:26:06.809717,3.071460234772139,52.62416102335006,-32.8676561720571,7.111961841583252,39.543785,2.37884166667,-0.022444065660238266,-0.052499521523714066,0.06637400388717651
33,2021-11-30 12:26:06.842376,3.0717741914807792,52.62488650616644,-32.868703844110286,7.111961841583252,39.543785,2.37884166667,-0.022026553750038147,-0.05242087319493294,0.06709861755371094
34,2021-11-30 12:26:06.890937,3.0860662609557763,52.625955880237605,-32.87007849142771,7.099011421203613,39.543785,2.37884166667,-0.021279750391840935,-0.05251353979110718,0.06790019571781158
35,2021-11-30 12:26:06.931531,3.114305039256706,52.62685548458949,-32.871331919514084,7.099011421203613,39.543785,2.37884166667,-0.020520424470305443,-0.05241822823882103,0.06873808056116104
36,2021-11-30 12:26:06.966311,3.1238780836068534,52.62762803580981,-32.87241293228557,7.099011421203613,39.543785,2.37884166667,-0.019957806915044785,-0.05228336155414581,0.06953549385070801
37,2021-11-30 12:26:07.005027,3.1264983231203285,52.62853183605519,-32.873618685060165,7.067455768585205,39.543785,2.37884166667,-0.019403526559472084,-0.052863772958517075,0.06979428976774216
38,2021-11-30 12:26:07.045458,3.1274713438174992,52.62905959419622,-32.874823719904306,7.0654616355896,39.543785,2.37884166667,-0.01883082650601864,-0.052877310663461685,0.07070761919021606
39,2021-11-30 12:26:07.087004,3.1373410860243185,52.629906202115045,-32.8761019444983,7.0654616355896,39.543785,2.37884166667,-0.01811802387237549,-0.052726928144693375,0.07166436314582825
40,2021-11-30 12:26:07.167257,3.16299015679727,52.6315237787147,-32.87856626212865,7.041014194488525,39.543785,2.37884166667,-0.016731124371290207,-0.05211789160966873,0.07378042489290237
41,2021-11-30 12:26:07.209951,3.1650513686390394,52.632908521964644,-32.87968565857447,7.028541564941406,39.543785,2.37884166667,-0.016044137999415398,-0.051795363426208496,0.07497188448905945
42,2021-11-30 12:26:07.248544,3.165204148595242,52.63382994048871,-32.88083746976163,7.028541564941406,39.543785,2.37884166667,-0.01548085268586874,-0.05216890946030617,0.07547787576913834
43,2021-11-30 12:26:07.289184,3.174807966159916,52.63475560584151,-32.882043435034475,7.028541564941406,39.543785,2.37884166667,-0.014803201891481876,-0.05189153179526329,0.07669083774089813
44,2021-11-30 12:26:07.329847,3.193767423324664,52.635677048080254,-32.883242861156184,7.028541564941406,39.543785,2.37884166667,-0.013979492709040642,-0.051443103700876236,0.07795839756727219
45,2021-11-30 12:26:07.369112,3.2013595994241233,52.63713111795954,-32.883991209932496,6.996016025543213,39.543785,2.37884166667,-0.013285824097692966,-0.05103042349219322,0.07926248759031296
46,2021-11-30 12:26:07.411358,3.2023100388649492,52.63822460943691,-32.88514622558956,6.992964744567871,39.543785,2.37884166667,-0.012537706643342972,-0.050600700080394745,0.08063516765832901
47,2021-11-30 12:26:07.443792,3.2027607817319663,52.63909595631836,-32.88603332856765,6.992964744567871,39.543785,2.37884166667,-0.01203635148704052,-0.05079294368624687,0.08122596144676208
48,2021-11-30 12:26:07.484414,3.212477283055928,52.640139166924364,-32.88713200508019,6.967935562133789,39.543785,2.37884166667,-0.011221873573958874,-0.05014475807547569,0.08263563364744186
49,2021-11-30 12:26:07.524841,3.2314020731932436,52.641176674737565,-32.888218805979896,6.9553327560424805,39.543785,2.37884166667,-0.01039183884859085,-0.049537502229213715,0.08406712859869003
50,2021-11-30 12:26:07.565708,3.2381032076409384,52.64299331793664,-32.88782218990301,6.9553327560424805,39.543785,2.37884166667,-0.00956401415169239,-0.048859912902116776,0.08560667186975479
51,2021-11-30 12:26:07.606137,3.23987578468344,52.6441825289711,-32.88861694405482,6.9553327560424805,39.543785,2.37884166667,-0.00875113345682621,-0.0481436625123024,0.08715483546257019
52,2021-11-30 12:26:07.649539,3.2409102244824166,52.645461131570265,-32.889457308049366,6.9235639572143555,39.543785,2.37884166667,-0.007822138257324696,-0.04727410525083542,0.08878729492425919
53,2021-11-30 12:26:07.687383,3.2537493121895866,52.646611032245076,-32.890183211627395,6.9235639572143555,39.543785,2.37884166667,-0.007118689827620983,-0.04717906937003136,0.0897156149148941
54,2021-11-30 12:26:07.727968,3.2714618704500373,52.6494590468148,-32.890873723575496,6.9235639572143555,39.543785,2.37884166667,-0.0061468519270420074,-0.04612739384174347,0.0913652703166008
55,2021-11-30 12:26:07.768868,3.276719175680537,52.650989974196584,-32.89161848600689,6.919195175170898,39.543785,2.37884166667,-0.005175141617655754,-0.04506971314549446,0.0930408239364624
56,2021-11-30 12:26:07.809470,3.2781143865989346,52.652516684557476,-32.89234588554891,6.919195175170898,39.543785,2.37884166667,-0.004154739901423454,-0.04395594075322151,0.09472114592790604
57,2021-11-30 12:26:07.844872,3.279082842609777,52.65384471178008,-32.89296798038411,6.894082069396973,39.543785,2.37884166667,-0.0031941754277795553,-0.04275358095765114,0.09628363698720932
58,2021-11-30 12:26:07.890516,3.299834999979286,52.65693009238849,-32.893543271158286,6.8789472579956055,39.543785,2.37884166667,-0.002244653645902872,-0.042284682393074036,0.09760714322328568
59,2021-11-30 12:26:07.931730,3.3193857409904166,52.658747532055365,-32.894194025510394,6.8789472579956055,39.543785,2.37884166667,-0.001027424936182797,-0.040780048817396164,0.09933746606111526
60,2021-11-30 12:26:07.963677,3.323762724257402,52.66015878997464,-32.89468747176699,6.8789472579956055,39.543785,2.37884166667,7.766052476654295e-06,-0.03939902409911156,0.10087509453296661
61,2021-11-30 12:26:08.004532,3.325568435826997,52.66198974671185,-32.89530944756947,6.846662998199463,39.543785,2.37884166667,0.0012847217731177807,-0.037985093891620636,0.10260257869958878
62,2021-11-30 12:26:08.045871,3.32772553518308,52.6650530464143,-32.89480730297003,6.846662998199463,39.543785,2.37884166667,0.002566081006079912,-0.03664183244109154,0.10439679771661758
63,2021-11-30 12:26:08.087500,3.3477692475224847,52.667191196432825,-32.8951737935133,6.842988014221191,39.543785,2.37884166667,0.003946410957723856,-0.03516387566924095,0.10623051971197128
64,2021-11-30 12:26:08.126196,3.3669041375134205,52.66923492947152,-32.89551271340155,6.8181867599487305,39.543785,2.37884166667,0.004859814886003733,-0.034466519951820374,0.10752279311418533
65,2021-11-30 12:26:08.167110,3.3719298774660293,52.67138693220039,-32.89583730850399,6.8181867599487305,39.543785,2.37884166667,0.006245349533855915,-0.03330950811505318,0.10929474234580994
66,2021-11-30 12:26:08.208163,3.3733703297744837,52.673423686783046,-32.896388920988976,6.807038307189941,39.543785,2.37884166667,0.0076514496468007565,-0.03224197402596474,0.1110973209142685
67,2021-11-30 12:26:08.288960,3.4004345589390472,52.67771437320738,-32.89704244134965,6.807038307189941,39.543785,2.37884166667,0.01045103557407856,-0.030193151906132698,0.11452971398830414
68,2021-11-30 12:26:08.321514,3.4146621251357128,52.67948407941584,-32.897299519337544,6.807038307189941,39.543785,2.37884166667,0.01128646545112133,-0.029602164402604103,0.11568082123994827
69,2021-11-30 12:26:08.370235,3.4198728909034197,52.68201371282969,-32.894641441064564,6.77517557144165,39.543785,2.37884166667,0.012936382554471493,-0.028832603245973587,0.11771468073129654
70,2021-11-30 12:26:08.410995,3.4210989701898074,52.68425286985562,-32.894270984589966,6.76865816116333,39.543785,2.37884166667,0.014388005249202251,-0.02842702902853489,0.11947459727525711
71,2021-11-30 12:26:08.443322,3.4224894752785877,52.686050543230415,-32.89395474326943,6.76865816116333,39.543785,2.37884166667,0.015557341277599335,-0.028315896168351173,0.1208602711558342
72,2021-11-30 12:26:08.484330,3.4346354695858374,52.68835420611026,-32.89353260850409,6.744325637817383,39.543785,2.37884166667,0.016910770907998085,-0.028219379484653473,0.12253565341234207
73,2021-11-30 12:26:08.527241,3.446741840820453,52.69135319268861,-32.89245324400395,6.7366509437561035,39.543785,2.37884166667,0.01830238662660122,-0.02835465967655182,0.12423121184110641
74,2021-11-30 12:26:08.565257,3.449437954022454,52.6936600052179,-32.891887981097945,6.7366509437561035,39.543785,2.37884166667,0.019361257553100586,-0.028047315776348114,0.1256171464920044
75,2021-11-30 12:26:08.605713,3.450443104407856,52.69616754484937,-32.89125014817573,6.7366509437561035,39.543785,2.37884166667,0.02069678343832493,-0.028597161173820496,0.12720823287963867
76,2021-11-30 12:26:08.646788,3.453463796977429,52.69875257354515,-32.89057412794488,6.705034255981445,39.543785,2.37884166667,0.021988030523061752,-0.029358671978116035,0.1287921816110611
77,2021-11-30 12:26:08.687548,3.467055956551128,52.70186666600228,-32.890830467630295,6.705034255981445,39.543785,2.37884166667,0.023173917084932327,-0.030162425711750984,0.13026675581932068
78,2021-11-30 12:26:08.728299,3.4767612479062278,52.704626007497666,-32.890318393694656,6.70087194442749,39.543785,2.37884166667,0.024375207722187042,-0.031182387843728065,0.13178059458732605
79,2021-11-30 12:26:08.809167,3.47982469861541,52.71021013679502,-32.88922594736495,6.70087194442749,39.543785,2.37884166667,0.026689477264881134,-0.032736338675022125,0.13467590510845184
80,2021-11-30 12:26:08.850142,3.4879462111960327,52.71312129490406,-32.88864095644551,6.674495220184326,39.543785,2.37884166667,0.0277995727956295,-0.03414887934923172,0.1361161172389984
81,2021-11-30 12:26:08.890214,3.5117830419683207,52.71608506541064,-32.888029868827445,6.667895793914795,39.543785,2.37884166667,0.028761092573404312,-0.035639118403196335,0.13743801414966583
82,2021-11-30 12:26:08.930993,3.5234635343806056,52.71909140341889,-32.88739974340817,6.667895793914795,39.543785,2.37884166667,0.02979004755616188,-0.03728938847780228,0.13876532018184662
83,2021-11-30 12:26:08.965447,3.5261520961686417,52.72168455924333,-32.88685034323309,6.667895793914795,39.543785,2.37884166667,0.03062622621655464,-0.03907618671655655,0.13979309797286987
84,2021-11-30 12:26:09.003944,3.52679308864435,52.72456006137771,-32.886206113415355,6.635510444641113,39.543785,2.37884166667,0.03169036656618118,-0.03963027521967888,0.14109404385089874
85,2021-11-30 12:26:09.044565,3.5319040977993716,52.726622107470746,-32.886129270553134,6.635510444641113,39.543785,2.37884166667,0.03263282775878906,-0.04146872088313103,0.14228929579257965
86,2021-11-30 12:26:09.085467,3.546401358682581,52.72959812718752,-32.885534818528775,6.635510444641113,39.543785,2.37884166667,0.03348398953676224,-0.0431906022131443,0.14343710243701935
87,2021-11-30 12:26:09.125818,3.553367275084164,52.73258237633068,-32.88492808788595,6.607437610626221,39.543785,2.37884166667,0.034306157380342484,-0.044980499893426895,0.14447258412837982
88,2021-11-30 12:26:09.167269,3.5551464496386647,52.73569149889874,-32.884285024524374,6.607437610626221,39.543785,2.37884166667,0.03513219952583313,-0.04684032127261162,0.14553609490394592
89,2021-11-30 12:26:09.248242,3.569986675178224,52.74012627831428,-32.88461383085235,6.597431659698486,39.543785,2.37884166667,0.0368577241897583,-0.04929191991686821,0.1477152407169342
90,2021-11-30 12:26:09.288637,3.5981725636265356,52.742962899122624,-32.8842107560553,6.5753092765808105,39.543785,2.37884166667,0.037379760295152664,-0.05076691880822182,0.1486261636018753
91,2021-11-30 12:26:09.328991,3.608221446873397,52.74584945718979,-32.8837945316886,6.5753092765808105,39.543785,2.37884166667,0.03794168680906296,-0.05250081792473793,0.14949552714824677
92,2021-11-30 12:26:09.369989,3.610588073111639,52.74889158241993,-32.88534833561901,6.566438674926758,39.543785,2.37884166667,0.03848772495985031,-0.054318711161613464,0.15030653774738312
93,2021-11-30 12:26:09.410288,3.611124203927606,52.75186160782411,-32.88529909006981,6.566438674926758,39.543785,2.37884166667,0.038962651044130325,-0.05612935125827789,0.1510601043701172
94,2021-11-30 12:26:09.450883,3.62098506115989,52.754835908378965,-32.88522720003222,6.566438674926758,39.543785,2.37884166667,0.03983542323112488,-0.05703194811940193,0.15213915705680847
95,2021-11-30 12:26:09.483811,3.632509138219998,52.75730834459321,-32.88518840494671,6.553548336029053,39.543785,2.37884166667,0.03997650742530823,-0.05844692885875702,0.15260829031467438
96,2021-11-30 12:26:09.524299,3.637455199044542,52.75958829097811,-32.883897695571235,6.546239852905273,39.543785,2.37884166667,0.040253397077322006,-0.06007751449942589,0.1531885862350464
97,2021-11-30 12:26:09.564687,3.6385379070096966,52.7625195753807,-32.88359145701479,6.546239852905273,39.543785,2.37884166667,0.04047198221087456,-0.061619408428668976,0.1537601351737976
98,2021-11-30 12:26:09.648530,3.6510088686876134,52.76866065805333,-32.88293005741451,6.522792816162109,39.543785,2.37884166667,0.04083210974931717,-0.0640684962272644,0.15479831397533417
99,2021-11-30 12:26:09.686817,3.6739874469392633,52.77037647821036,-32.88524881901663,6.5121941566467285,39.543785,2.37884166667,0.04142434522509575,-0.06475206464529037,0.15561991930007935
100,2021-11-30 12:26:09.727374,3.682314683404724,52.773179600307,-32.885447807639714,6.5121941566467285,39.543785,2.37884166667,0.0415586493909359,-0.06562117487192154,0.15601493418216705
101,2021-11-30 12:26:09.767844,3.6841262951830425,52.775995007362106,-32.88565007509393,6.5121941566467285,39.543785,2.37884166667,0.041664209216833115,-0.06637969613075256,0.15636682510375977
102,2021-11-30 12:26:09.808454,3.684533148765509,52.77883162755503,-32.88585600842541,6.480649948120117,39.543785,2.37884166667,0.04176359623670578,-0.06699339300394058,0.15663594007492065
103,2021-11-30 12:26:09.849557,3.6879603860908903,52.78225645832993,-32.886727391553976,6.480649948120117,39.543785,2.37884166667,0.0418231375515461,-0.06740410625934601,0.15690435469150543
104,2021-11-30 12:26:09.889720,3.69226288380783,52.78520457841851,-32.88705365107457,6.477258682250977,39.543785,2.37884166667,0.04238993674516678,-0.06819052249193192,0.15759660303592682
105,2021-11-30 12:26:09.930650,3.6936089914833015,52.78821229162009,-32.887407086910954,6.451091766357422,39.543785,2.37884166667,0.042438849806785583,-0.0684073269367218,0.15777038037776947
106,2021-11-30 12:26:09.962879,3.6938805724961203,52.79058010529823,-32.887690206666846,6.451091766357422,39.543785,2.37884166667,0.042386915534734726,-0.06817737221717834,0.1577199101448059
107,2021-11-30 12:26:10.003717,3.6941545969328677,52.79287597936883,-32.889564260504436,6.441235542297363,39.543785,2.37884166667,0.04245999455451965,-0.06802397966384888,0.1577879935503006
108,2021-11-30 12:26:10.044228,3.7135408477953527,52.79570935143455,-32.890232474578184,6.441235542297363,39.543785,2.37884166667,0.042548514902591705,-0.0674382895231247,0.15783989429473877
109,2021-11-30 12:26:10.086400,3.7398808613098375,52.79866174852746,-32.89093530596753,6.441235542297363,39.543785,2.37884166667,0.04270419478416443,-0.06665018200874329,0.1578335464000702
110,2021-11-30 12:26:10.125827,3.746990515000035,52.80148120084442,-32.89160459213238,6.404204368591309,39.543785,2.37884166667,0.043157439678907394,-0.06700523942708969,0.15828914940357208
111,2021-11-30 12:26:10.206743,3.7512228456159407,52.8070410396933,-32.89224342658934,6.404204368591309,39.543785,2.37884166667,0.04345855116844177,-0.06543602049350739,0.15796425938606262
112,2021-11-30 12:26:10.247578,3.7785811698065315,52.80988439536346,-32.8928248382742,6.404204368591309,39.543785,2.37884166667,0.04367169737815857,-0.06420481950044632,0.157734677195549
113,2021-11-30 12:26:10.288141,3.8051780198435754,52.81271659486778,-32.89340680423287,6.374410629272461,39.543785,2.37884166667,0.04387505725026131,-0.06297393888235092,0.15745389461517334
114,2021-11-30 12:26:10.330107,3.8117462923175074,52.81587411457765,-32.89480215034529,6.374410629272461,39.543785,2.37884166667,0.04408342018723488,-0.06208596006035805,0.15712714195251465
115,2021-11-30 12:26:10.369759,3.812938171147214,52.81876097668421,-32.89554840887506,6.365712642669678,39.543785,2.37884166667,0.04448515549302101,-0.06215245649218559,0.15733399987220764
116,2021-11-30 12:26:10.409865,3.814902992463166,52.82163864531432,-32.89630764220358,6.365712642669678,39.543785,2.37884166667,0.044672880321741104,-0.06124702841043472,0.15689101815223694
117,2021-11-30 12:26:10.450565,3.8237976526819875,52.82456124844234,-32.89708615833458,6.365712642669678,39.543785,2.37884166667,0.04485407844185829,-0.06035206839442253,0.15644106268882751
118,2021-11-30 12:26:10.483009,3.8294189090423796,52.828658869950715,-32.898833352005546,6.339201927185059,39.543785,2.37884166667,0.044947948306798935,-0.05960565060377121,0.15587283670902252
119,2021-11-30 12:26:10.525264,3.8315879361837837,52.83210511390373,-32.899903257558435,6.339201927185059,39.543785,2.37884166667,0.04508395865559578,-0.05903073027729988,0.1553051471710205
120,2021-11-30 12:26:10.604877,3.835935921261917,52.83868301245578,-32.901969876921,6.339201927185059,39.543785,2.37884166667,0.04552921652793884,-0.05852983891963959,0.15460103750228882
121,2021-11-30 12:26:10.645757,3.857844737722809,52.84139793395393,-32.903055861761395,6.3056769371032715,39.543785,2.37884166667,0.04569477215409279,-0.05790011212229729,0.15385520458221436
122,2021-11-30 12:26:10.686360,3.873248857974653,52.844644873470784,-32.9041444025949,6.303907871246338,39.543785,2.37884166667,0.045790959149599075,-0.05753879249095917,0.15306976437568665
123,2021-11-30 12:26:10.726936,3.8765315103990026,52.84792674235797,-32.905254784119286,6.303907871246338,39.543785,2.37884166667,0.045834656804800034,-0.0575149841606617,0.15224896371364594
124,2021-11-30 12:26:10.769047,3.8775457943009375,52.85136057621993,-32.9064277726231,6.276394367218018,39.543785,2.37884166667,0.04580630734562874,-0.05774906650185585,0.15131425857543945
125,2021-11-30 12:26:10.808100,3.880622866404661,52.85503665944093,-32.906610554336524,6.26986837387085,39.543785,2.37884166667,0.046064332127571106,-0.05779822915792465,0.15103161334991455
126,2021-11-30 12:26:10.849507,3.898197117774796,52.85853133367834,-32.90760113043935,6.26986837387085,39.543785,2.37884166667,0.046069689095020294,-0.05784862861037254,0.15001164376735687
127,2021-11-30 12:26:10.889955,3.9103288845175643,52.861983421005085,-32.90858487378541,6.248315811157227,39.543785,2.37884166667,0.04599906504154205,-0.05827381834387779,0.148918017745018
128,2021-11-30 12:26:10.930615,3.912843774317001,52.86549197467241,-32.90959073533039,6.236796855926514,39.543785,2.37884166667,0.04593478515744209,-0.05881070718169212,0.14777910709381104
129,2021-11-30 12:26:10.965634,3.9138828661171243,52.86927851278984,-32.91003598850889,6.236796855926514,39.543785,2.37884166667,0.04577517881989479,-0.059579987078905106,0.14668123424053192
130,2021-11-30 12:26:11.003375,3.916720250224852,52.87270818019471,-32.910904244721294,6.236796855926514,39.543785,2.37884166667,0.04595138877630234,-0.059831079095602036,0.14618512988090515
131,2021-11-30 12:26:11.048990,3.9351477693863814,52.876883770778164,-32.911964349587954,6.206557750701904,39.543785,2.37884166667,0.04584728181362152,-0.0604805052280426,0.14482653141021729
132,2021-11-30 12:26:11.084465,3.9463463865170354,52.88017055261061,-32.9127998471463,6.206557750701904,39.543785,2.37884166667,0.04570164531469345,-0.061258018016815186,0.14356757700443268
133,2021-11-30 12:26:11.166401,3.9494839109750353,52.886205864506806,-32.91468950320601,6.204384803771973,39.543785,2.37884166667,0.0454888753592968,-0.06313595920801163,0.14071805775165558
134,2021-11-30 12:26:11.208746,3.9575535424118575,52.88992148080678,-32.91570301199408,6.180854797363281,39.543785,2.37884166667,0.04544688016176224,-0.06391208618879318,0.13916879892349243
135,2021-11-30 12:26:11.247534,3.9808043175307,52.89330697883394,-32.916628752430015,6.180854797363281,39.543785,2.37884166667,0.045615993440151215,-0.06401155143976212,0.13836325705051422
136,2021-11-30 12:26:11.287577,3.991986069634093,52.89572314924687,-32.917163139077566,6.177255153656006,39.543785,2.37884166667,0.0455750897526741,-0.06468603760004044,0.1367580145597458
137,2021-11-30 12:26:11.328398,3.994410389654453,52.8991479533668,-32.91807697912301,6.177255153656006,39.543785,2.37884166667,0.0455380454659462,-0.06539247184991837,0.13512414693832397
138,2021-11-30 12:26:11.369024,3.9949577371307043,52.90257324145912,-32.918991396767,6.177255153656006,39.543785,2.37884166667,0.0455516055226326,-0.0661044716835022,0.13344116508960724
139,2021-11-30 12:26:11.409542,3.99972724254859,52.90599637448497,-32.91990469374282,6.144929885864258,39.543785,2.37884166667,0.04561944678425789,-0.06658267229795456,0.13168160617351532
140,2021-11-30 12:26:11.450132,4.009060277677597,52.908584219347965,-32.919300429936044,6.144929885864258,39.543785,2.37884166667,0.045748356729745865,-0.06694024801254272,0.13059855997562408
141,2021-11-30 12:26:11.490781,4.012456491698181,52.91188149616913,-32.9199228779755,6.147467136383057,39.543785,2.37884166667,0.045796651393175125,-0.06741674244403839,0.12876661121845245
142,2021-11-30 12:26:11.531333,4.01321213006773,52.915179983030384,-32.92054063835749,6.120879650115967,39.543785,2.37884166667,0.04591294005513191,-0.06777171790599823,0.12687934935092926
143,2021-11-30 12:26:11.563897,4.013394917552297,52.917833363209674,-32.921032132668216,6.120879650115967,39.543785,2.37884166667,0.046020008623600006,-0.06795470416545868,0.1252124011516571
144,2021-11-30 12:26:11.647419,4.041863422120259,52.92557906364532,-32.920571707999954,6.116132736206055,39.543785,2.37884166667,0.04646073281764984,-0.06773149967193604,0.12118478864431381
145,2021-11-30 12:26:11.685760,4.048149873156974,52.928871366077516,-32.92087201905308,6.095530033111572,39.543785,2.37884166667,0.04660704731941223,-0.06798561662435532,0.11989136785268784
146,2021-11-30 12:26:11.726624,4.0497081479517645,52.93238712927678,-32.9211675503403,6.095530033111572,39.543785,2.37884166667,0.046886831521987915,-0.06784232705831528,0.117780901491642
147,2021-11-30 12:26:11.767217,4.050134563970823,52.935634479497985,-32.92079289133321,6.085440158843994,39.543785,2.37884166667,0.04719802737236023,-0.06765590608119965,0.11565440148115158
148,2021-11-30 12:26:11.807711,4.072795508530614,52.93905402447761,-32.92092535731661,6.085440158843994,39.543785,2.37884166667,0.04752960428595543,-0.06701875478029251,0.11350667476654053
149,2021-11-30 12:26:11.848804,4.1033768018834715,52.94252411018494,-32.92104110149636,6.085440158843994,39.543785,2.37884166667,0.04789135605096817,-0.06623708456754684,0.11130747199058533
150,2021-11-30 12:26:11.889137,4.111907414503671,52.945979451354894,-32.92115904075488,6.056788444519043,39.543785,2.37884166667,0.04809895530343056,-0.06629317998886108,0.1097334623336792
151,2021-11-30 12:26:11.929599,4.113724679471508,52.947903120132004,-32.921798513444315,6.060927867889404,39.543785,2.37884166667,0.048527393490076065,-0.06605883687734604,0.10749533027410507
152,2021-11-30 12:26:11.970305,4.114298758862759,52.95109376769304,-32.92198089951914,6.060927867889404,39.543785,2.37884166667,0.048952456563711166,-0.06582621484994888,0.10521916300058365
153,2021-11-30 12:26:12.002744,4.123765671464783,52.953624491521246,-32.92211246655819,6.037999629974365,39.543785,2.37884166667,0.049313995987176895,-0.06546872854232788,0.1032852903008461
154,2021-11-30 12:26:12.043615,4.142617033502146,52.956815692166934,-32.922270089480705,6.033813953399658,39.543785,2.37884166667,0.04969777911901474,-0.06511138379573822,0.1009509414434433
155,2021-11-30 12:26:12.087843,4.149848053632203,52.95869729302765,-32.922611839998574,6.033813953399658,39.543785,2.37884166667,0.05010461434721947,-0.06505103409290314,0.09842567890882492
156,2021-11-30 12:26:12.124617,4.150719462498294,52.96131476433314,-32.922782546475965,6.037822246551514,39.543785,2.37884166667,0.05033833160996437,-0.06515239179134369,0.09677577018737793
157,2021-11-30 12:26:12.206158,4.164157354579288,52.96708611984684,-32.923099792269184,6.037822246551514,39.543785,2.37884166667,0.051008470356464386,-0.06531599909067154,0.09191132336854935
158,2021-11-30 12:26:12.246583,4.181499275080962,52.96874558949726,-32.92219068886089,6.01278018951416,39.543785,2.37884166667,0.05134691298007965,-0.06532421708106995,0.08946668356657028
159,2021-11-30 12:26:12.287421,4.186468412320318,52.971395042561774,-32.922114412472745,6.010080337524414,39.543785,2.37884166667,0.05169009789824486,-0.06554064154624939,0.0870063453912735
160,2021-11-30 12:26:12.329605,4.187859482397916,52.974127147008346,-32.92202069802147,6.010080337524414,39.543785,2.37884166667,0.052038274705410004,-0.0658290833234787,0.08441319316625595
161,2021-11-30 12:26:12.368432,4.1890769262661625,52.97663292822003,-32.9219292960788,5.984962463378906,39.543785,2.37884166667,0.05229400098323822,-0.06600847840309143,0.08246919512748718
162,2021-11-30 12:26:12.409092,4.204765827902862,52.978600907284104,-32.9217501360346,5.979489326477051,39.543785,2.37884166667,0.05261381343007088,-0.066159687936306,0.07993794232606888
163,2021-11-30 12:26:12.449932,4.22000514620986,52.98108627098449,-32.92160316767896,5.979489326477051,39.543785,2.37884166667,0.05294418707489967,-0.06638415902853012,0.07737111300230026
164,2021-11-30 12:26:12.482274,4.223229732067572,52.983056247165926,-32.921474458347895,5.959488868713379,39.543785,2.37884166667,0.053232286125421524,-0.06667882204055786,0.07521064579486847
165,2021-11-30 12:26:12.531043,4.2245125713416325,52.98601387538409,-32.92126657885056,5.9529924392700195,39.543785,2.37884166667,0.05365936830639839,-0.06711132824420929,0.0721692219376564
166,2021-11-30 12:26:12.571587,4.228797584833781,52.98800464310914,-32.920571952521506,5.9529924392700195,39.543785,2.37884166667,0.053934257477521896,-0.06732375919818878,0.06999025493860245
167,2021-11-30 12:26:12.604324,4.245767582385996,52.98989071110212,-32.92032604406674,5.9529924392700195,39.543785,2.37884166667,0.05419367551803589,-0.0675031766295433,0.06782466918230057
168,2021-11-30 12:26:12.645042,4.264801983306121,52.99222696591183,-32.92000546332638,5.925297260284424,39.543785,2.37884166667,0.054513029754161835,-0.06768622249364853,0.06517952680587769
169,2021-11-30 12:26:12.685873,4.269349399729317,52.99456677336704,-32.91966593529074,5.925297260284424,39.543785,2.37884166667,0.05487259477376938,-0.06798042356967926,0.06246011331677437
170,2021-11-30 12:26:12.768125,4.273477780535871,52.99889568756018,-32.918797089214046,5.921682357788086,39.543785,2.37884166667,0.05570757016539574,-0.0682675763964653,0.0569973886013031
171,2021-11-30 12:26:12.807440,4.286479685225077,53.00104139762877,-32.918404409503346,5.898721218109131,39.543785,2.37884166667,0.055972278118133545,-0.06836332380771637,0.05472959578037262
172,2021-11-30 12:26:12.848238,4.2959402229570465,53.00325037646467,-32.91796818585931,5.898721218109131,39.543785,2.37884166667,0.056485071778297424,-0.06819678097963333,0.051981061697006226
173,2021-11-30 12:26:12.888605,4.298067304017526,53.0048739335343,-32.91582978837964,5.8902668952941895,39.543785,2.37884166667,0.057015445083379745,-0.06805410236120224,0.04924535006284714
174,2021-11-30 12:26:12.929247,4.2986841140516585,53.00692651319401,-32.91501984277786,5.8902668952941895,39.543785,2.37884166667,0.05756741389632225,-0.06777756661176682,0.046476345509290695
175,2021-11-30 12:26:12.970173,4.303539501038898,53.0089625205185,-32.91417794779464,5.8902668952941895,39.543785,2.37884166667,0.05816800519824028,-0.06729523092508316,0.04366462305188179
176,2021-11-30 12:26:13.011005,4.317884874198908,53.01098063191004,-32.913324015222315,5.8597092628479,39.543785,2.37884166667,0.058492518961429596,-0.06722857803106308,0.041194796562194824
177,2021-11-30 12:26:13.043146,4.324171876125348,53.01264458216345,-32.91275844478399,5.8597092628479,39.543785,2.37884166667,0.05904361605644226,-0.06666571646928787,0.03888874500989914
178,2021-11-30 12:26:13.084084,4.326440457544977,53.014631735579535,-32.911865697540975,5.863409996032715,39.543785,2.37884166667,0.05973665788769722,-0.06599249690771103,0.03602878004312515
179,2021-11-30 12:26:13.124295,4.327050391718563,53.01655721817698,-32.910962186729,5.83778715133667,39.543785,2.37884166667,0.06045783311128616,-0.06534124165773392,0.03324563801288605
180,2021-11-30 12:26:13.164855,4.332315271426493,53.018469297527616,-32.91002575633785,5.83778715133667,39.543785,2.37884166667,0.06118713319301605,-0.06455590575933456,0.030387185513973236
181,2021-11-30 12:26:13.246124,4.377554315739844,53.021250044259666,-32.90682594531124,5.833448886871338,39.543785,2.37884166667,0.06228338181972504,-0.06304140388965607,0.024975797161459923
182,2021-11-30 12:26:13.287255,4.3818313741406785,53.022930762381364,-32.905570860083145,5.8125834465026855,39.543785,2.37884166667,0.06320223212242126,-0.06197437644004822,0.02204301208257675
183,2021-11-30 12:26:13.327553,4.3828667315263825,53.02454156261229,-32.90430895334478,5.8125834465026855,39.543785,2.37884166667,0.06415174901485443,-0.06080605834722519,0.019203955307602882
184,2021-11-30 12:26:13.368271,4.393900560321746,53.027477878173926,-32.903531031069114,5.800858974456787,39.543785,2.37884166667,0.0650891363620758,-0.05944579839706421,0.016350260004401207
185,2021-11-30 12:26:13.408724,4.42735416737633,53.029271967038405,-32.902312307841974,5.800858974456787,39.543785,2.37884166667,0.06590911746025085,-0.05777706205844879,0.013534537516534328
186,2021-11-30 12:26:13.441204,4.441963478535793,53.030730415674014,-32.901321123573716,5.800858974456787,39.543785,2.37884166667,0.06632689386606216,-0.05729180946946144,0.011415960267186165
187,2021-11-30 12:26:13.490820,4.447340916252815,53.03288838578297,-32.89974397597315,5.771259307861328,39.543785,2.37884166667,0.06751071661710739,-0.05563957244157791,0.008018886670470238
188,2021-11-30 12:26:13.530577,4.44830743461896,53.03377685022341,-32.901696303844346,5.766620635986328,39.543785,2.37884166667,0.06859304755926132,-0.054182715713977814,0.005323557183146477
189,2021-11-30 12:26:13.563228,4.4563400345205695,55.4188361170925,-29.88308687967777,5.766620635986328,39.543785,2.37884166667,0.07176146656274796,-0.0545993410050869,0.0028162410017102957
190,2021-11-30 12:26:13.603917,4.480211927262151,55.42041851899092,-29.882287457627815,5.7425537109375,39.543785,2.37884166667,0.07231137156486511,-0.05269768089056015,0.000151298547280021
191,2021-11-30 12:26:13.646312,4.492091257397176,55.42204086428719,-29.881436715187988,5.732949256896973,39.543785,2.37884166667,0.07295940071344376,-0.05095500499010086,-0.0025712717324495316
192,2021-11-30 12:26:13.685044,4.494429280226359,55.42233319561279,-29.881407985389735,5.732949256896973,39.543785,2.37884166667,0.07364017516374588,-0.05025646090507507,-0.005103741306811571
193,2021-11-30 12:26:13.725964,4.495231244423842,55.423572363769516,-29.880732366924562,5.732949256896973,39.543785,2.37884166667,0.07423874735832214,-0.04867079481482506,-0.007675109896808863
194,2021-11-30 12:26:13.806894,4.502747991154508,55.42591280197588,-29.87937865967181,5.732949256896973,39.543785,2.37884166667,0.07538378238677979,-0.045695144683122635,-0.012668668292462826
195,2021-11-30 12:26:13.847977,4.504556385076684,55.42845528516444,-29.880161777226345,5.700048446655273,39.543785,2.37884166667,0.07589221000671387,-0.04441101849079132,-0.015144831500947475
196,2021-11-30 12:26:13.890114,4.505443507104592,55.429892024471116,-29.879755216682245,5.703692436218262,39.543785,2.37884166667,0.07636316120624542,-0.043257709592580795,-0.017673322930932045
197,2021-11-30 12:26:13.928759,4.505293139135652,55.431207969780914,-29.879375378570707,5.703692436218262,39.543785,2.37884166667,0.07699962705373764,-0.042533498257398605,-0.02013237215578556
198,2021-11-30 12:26:13.961343,4.517042632113046,55.43227156846262,-29.879067070767473,5.676596164703369,39.543785,2.37884166667,0.07720934599637985,-0.04163571819663048,-0.022036561742424965
199,2021-11-30 12:26:14.010068,4.543336313512045,55.43263158193117,-29.876454816267508,5.6725544929504395,39.543785,2.37884166667,0.07761355489492416,-0.04059259966015816,-0.02490703947842121
200,2021-11-30 12:26:14.042825,4.548906513493873,55.43347820723419,-29.87580649253978,5.6725544929504395,39.543785,2.37884166667,0.07779647409915924,-0.04000401869416237,-0.026715949177742004
201,2021-11-30 12:26:14.091401,4.550867374104597,55.43470769915877,-29.874830882993475,5.6725544929504395,39.543785,2.37884166667,0.07822024822235107,-0.03932994604110718,-0.029515117406845093
202,2021-11-30 12:26:14.123865,4.551170044853223,55.43550650872687,-29.87416535569992,5.63900089263916,39.543785,2.37884166667,0.07870589941740036,-0.03880784660577774,-0.03151976689696312
203,2021-11-30 12:26:14.164461,4.567533126209726,55.437233637204386,-29.873631955104024,5.63900089263916,39.543785,2.37884166667,0.0788678452372551,-0.03828522562980652,-0.03374100849032402
204,2021-11-30 12:26:14.205736,4.5894036902443185,55.438345551214105,-29.87284866497844,5.63900089263916,39.543785,2.37884166667,0.07902637869119644,-0.0378289669752121,-0.035971496254205704
205,2021-11-30 12:26:14.245731,4.595415659943529,55.439408062104874,-29.872081191661117,5.607742786407471,39.543785,2.37884166667,0.07922238111495972,-0.037586405873298645,-0.03810718283057213
206,2021-11-30 12:26:14.287054,4.596741277119471,55.44048358110375,-29.871284013951023,5.607742786407471,39.543785,2.37884166667,0.07942888885736465,-0.0373808927834034,-0.040290530771017075
207,2021-11-30 12:26:14.367810,4.610193120296355,55.44199542476993,-29.871117727452116,5.6034770011901855,39.543785,2.37884166667,0.08005697280168533,-0.036751508712768555,-0.04476376622915268
208,2021-11-30 12:26:14.408283,4.627581240630652,55.4428961712066,-29.870565702219192,5.577426433563232,39.543785,2.37884166667,0.08013470470905304,-0.0366959385573864,-0.04680374264717102
209,2021-11-30 12:26:14.448934,4.632494429145721,55.44378059894584,-29.870011366748255,5.577426433563232,39.543785,2.37884166667,0.08025674521923065,-0.036676522344350815,-0.04881378263235092
210,2021-11-30 12:26:14.489804,4.6335921693628075,55.445790192031936,-29.869764223151495,5.564914703369141,39.543785,2.37884166667,0.08032747358083725,-0.036867205053567886,-0.050818558782339096
211,2021-11-30 12:26:14.530427,4.63445189575132,55.446856539419,-29.86927260445999,5.564914703369141,39.543785,2.37884166667,0.0804036557674408,-0.037057165056467056,-0.052801817655563354
212,2021-11-30 12:26:14.562714,4.640307733273311,55.44766825254399,-29.86887228689293,5.564914703369141,39.543785,2.37884166667,0.08071769773960114,-0.03678927570581436,-0.05461321026086807
213,2021-11-30 12:26:14.603454,4.649024011718873,55.44870679163218,-29.868388127531897,5.52933931350708,39.543785,2.37884166667,0.08072708547115326,-0.03708970174193382,-0.05648591369390488
214,2021-11-30 12:26:14.644020,4.651550171741109,55.45032283407922,-29.867238929020683,5.52933931350708,39.543785,2.37884166667,0.08075083047151566,-0.037485167384147644,-0.05834284797310829
215,2021-11-30 12:26:14.684798,4.6520698569726715,55.45145747546358,-29.86662532008266,5.525384426116943,39.543785,2.37884166667,0.08073801547288895,-0.03800361603498459,-0.06012682616710663
216,2021-11-30 12:26:14.725285,4.654553918395517,55.45256980379762,-29.86601916930028,5.4954304695129395,39.543785,2.37884166667,0.08069046586751938,-0.03846265748143196,-0.061836905777454376
217,2021-11-30 12:26:14.767818,4.686030541737493,55.45371598965321,-29.865383401573506,5.4954304695129395,39.543785,2.37884166667,0.08057232201099396,-0.03892909362912178,-0.06362678110599518
218,2021-11-30 12:26:14.806592,4.715797111836301,55.455690250453074,-29.86531651753313,5.49138069152832,39.543785,2.37884166667,0.08078214526176453,-0.03871462494134903,-0.06562737375497818
219,2021-11-30 12:26:14.839518,4.722292887989405,55.4567358945822,-29.864912703225706,5.467035293579102,39.543785,2.37884166667,0.08060691505670547,-0.0394345261156559,-0.06677088141441345
220,2021-11-30 12:26:14.928495,4.728777257159733,55.459517678700635,-29.86382570683875,5.467035293579102,39.543785,2.37884166667,0.08034560829401016,-0.040962934494018555,-0.07009407877922058
221,2021-11-30 12:26:14.969576,4.750700955953538,57.13365607987737,-27.668959816212404,5.4558868408203125,39.543785,2.37884166667,0.08222018927335739,-0.04352826252579689,-0.07168842107057571
222,2021-11-30 12:26:15.009642,4.765907140599147,57.13499061887762,-27.668299645852958,5.4558868408203125,39.543785,2.37884166667,0.08238264918327332,-0.04356200993061066,-0.07357049733400345
223,2021-11-30 12:26:15.042341,4.7688134921808985,57.136103341744615,-27.66779929906435,5.4558868408203125,39.543785,2.37884166667,0.08184296637773514,-0.044084563851356506,-0.07448665052652359
224,2021-11-30 12:26:15.090943,4.769726779000199,57.13773840665607,-27.667043223170545,5.422389984130859,39.543785,2.37884166667,0.08145354688167572,-0.04456998035311699,-0.07611603289842606
225,2021-11-30 12:26:15.123832,4.772290491031497,57.13749194481943,-27.66722661287894,5.422389984130859,39.543785,2.37884166667,0.08102696388959885,-0.04498343914747238,-0.07693939656019211
226,2021-11-30 12:26:15.164547,4.785364751133093,57.13855854386928,-27.666753375023962,5.423683166503906,39.543785,2.37884166667,0.0806470736861229,-0.04535829275846481,-0.07807384431362152
227,2021-11-30 12:26:15.206311,4.794861354434385,57.13964089481228,-27.666273306803795,5.396730899810791,39.543785,2.37884166667,0.08031822741031647,-0.04576462507247925,-0.07915252447128296
228,2021-11-30 12:26:15.245723,4.79642411698955,57.14063525284787,-27.665804639008886,5.396730899810791,39.543785,2.37884166667,0.08043579757213593,-0.04594719037413597,-0.08075777441263199
229,2021-11-30 12:26:15.286135,4.796655648770942,57.14115898397796,-27.663950847212735,5.3944783210754395,39.543785,2.37884166667,0.08016028255224228,-0.04634587839245796,-0.08167076855897903
230,2021-11-30 12:26:15.327155,4.80283216338012,57.142080120687076,-27.663218245267537,5.3944783210754395,39.543785,2.37884166667,0.07988470792770386,-0.046709977090358734,-0.08256453275680542
231,2021-11-30 12:26:15.367281,4.821613296834177,57.14296039872657,-27.662504096336523,5.3944783210754395,39.543785,2.37884166667,0.0795997679233551,-0.04695833474397659,-0.08337070047855377
232,2021-11-30 12:26:15.402054,4.83024619332829,57.14371678611733,-27.661886408217477,5.3593902587890625,39.543785,2.37884166667,0.07933938503265381,-0.047295425087213516,-0.08393142372369766
233,2021-11-30 12:26:15.490583,4.8327406437800935,57.145535406720505,-27.660564027700655,5.3618483543396,39.543785,2.37884166667,0.0792633518576622,-0.047929104417562485,-0.08623577654361725
234,2021-11-30 12:26:15.521702,4.8368636622229255,57.14617338419943,-27.66005189837891,5.3618483543396,39.543785,2.37884166667,0.07907485961914062,-0.04822894558310509,-0.08650947362184525
235,2021-11-30 12:26:15.570627,4.863925339305542,57.14714316458646,-27.659239103217118,5.333804607391357,39.543785,2.37884166667,0.07888755202293396,-0.04846701771020889,-0.0873107761144638
236,2021-11-30 12:26:15.602969,4.873929605555751,57.14975475008957,-27.65971507930791,5.333804607391357,39.543785,2.37884166667,0.07866013050079346,-0.048907674849033356,-0.08758460730314255
237,2021-11-30 12:26:15.646540,4.877647921453925,57.151031467957836,-27.659216273743297,5.330289363861084,39.543785,2.37884166667,0.07838394492864609,-0.04970928281545639,-0.08818461745977402
238,2021-11-30 12:26:15.684754,4.877711155382803,57.15212987159494,-27.658773602997503,5.308495044708252,39.543785,2.37884166667,0.07841523736715317,-0.049996551126241684,-0.08926064521074295
239,2021-11-30 12:26:15.724851,4.885118392620149,57.153322158551596,-27.65833622969764,5.29883337020874,39.543785,2.37884166667,0.07790199667215347,-0.05157345160841942,-0.08979767560958862
240,2021-11-30 12:26:15.766017,4.908196789743457,57.154218618458096,-27.657109762045064,5.29883337020874,39.543785,2.37884166667,0.07716293632984161,-0.05364241823554039,-0.09056650102138519
241,2021-11-30 12:26:15.806371,4.919076478269841,57.15538496590485,-27.656542529274553,5.29883337020874,39.543785,2.37884166667,0.07635752856731415,-0.05594936013221741,-0.09140335768461227
242,2021-11-30 12:26:15.847274,4.921114275918191,57.15658505837689,-27.655975533695653,5.270175933837891,39.543785,2.37884166667,0.07542995363473892,-0.05853007361292839,-0.0923689603805542
243,2021-11-30 12:26:15.928009,4.92497725782371,57.15732575960019,-27.653340977305813,5.270175933837891,39.543785,2.37884166667,0.07418868690729141,-0.06193869560956955,-0.0945403128862381
244,2021-11-30 12:26:15.969102,4.934077438897746,57.15822463217036,-27.65250463476198,5.271170616149902,39.543785,2.37884166667,0.073151595890522,-0.06427101045846939,-0.09564255177974701
245,2021-11-30 12:26:16.009289,4.936972167852658,57.15909451758439,-27.6516858197322,5.271170616149902,39.543785,2.37884166667,0.07220602035522461,-0.06625102460384369,-0.09666872769594193
246,2021-11-30 12:26:16.049902,4.937360007142213,57.1599565869553,-27.650857982038044,5.250360488891602,39.543785,2.37884166667,0.07134880870580673,-0.0679086372256279,-0.09768818318843842
247,2021-11-30 12:26:16.090589,4.936860172548744,57.16104976448564,-27.647575575230363,5.246155261993408,39.543785,2.37884166667,0.07052626460790634,-0.06923766434192657,-0.09866377711296082
248,2021-11-30 12:26:16.123299,4.943656387449266,57.161716939151084,-27.646519349440965,5.246155261993408,39.543785,2.37884166667,0.07019346952438354,-0.070048987865448,-0.09958340227603912
249,2021-11-30 12:26:16.163677,4.9573331679604005,57.162558860381615,-27.64522587272197,5.246155261993408,39.543785,2.37884166667,0.06934499740600586,-0.07097557932138443,-0.10049177706241608
250,2021-11-30 12:26:16.204322,4.961999461454452,57.163386510381876,-27.643908250436496,5.222315311431885,39.543785,2.37884166667,0.0686393678188324,-0.07163102924823761,-0.10130081325769424
251,2021-11-30 12:26:16.245116,4.962578205454494,57.164124192009844,-27.642001920172856,5.222315311431885,39.543785,2.37884166667,0.0680122897028923,-0.07194541394710541,-0.10203025490045547
252,2021-11-30 12:26:16.285861,4.9626481881949145,57.16488453796956,-27.640547447953892,5.226541519165039,39.543785,2.37884166667,0.06742731481790543,-0.07198271155357361,-0.10273471474647522
253,2021-11-30 12:26:16.327690,4.972351872399864,57.16563678666347,-27.63904256584624,5.209360599517822,39.543785,2.37884166667,0.06683071702718735,-0.07170001417398453,-0.10334602743387222
254,2021-11-30 12:26:16.367038,4.9850018155249325,57.16633307627004,-27.637603893373416,5.209360599517822,39.543785,2.37884166667,0.06638223677873611,-0.0722152516245842,-0.10429029166698456
255,2021-11-30 12:26:16.407753,4.988117607719949,57.16567487387153,-27.635953503347874,5.21174430847168,39.543785,2.37884166667,0.0658939778804779,-0.07147138565778732,-0.10472400486469269
256,2021-11-30 12:26:16.488754,4.988706619917986,57.166419976998625,-27.632884237728078,5.200276851654053,39.543785,2.37884166667,0.06510602682828903,-0.06911143660545349,-0.10533840954303741
257,2021-11-30 12:26:16.529476,4.998278443729899,57.166746803557515,-27.63132137439518,5.200276851654053,39.543785,2.37884166667,0.06465180963277817,-0.06758887320756912,-0.10553864389657974
258,2021-11-30 12:26:16.562194,5.009067937531786,57.16461789879595,-27.628915615841265,5.197260856628418,39.543785,2.37884166667,0.06425799429416656,-0.06757717579603195,-0.10614524781703949
259,2021-11-30 12:26:16.602734,5.013791491095909,57.16440604884212,-27.62711134373369,5.166717052459717,39.543785,2.37884166667,0.06389428675174713,-0.06564677506685257,-0.10617087036371231
260,2021-11-30 12:26:16.643355,5.014661396230336,57.164153338358915,-27.62528183718291,5.166717052459717,39.543785,2.37884166667,0.06358056515455246,-0.06350978463888168,-0.1060972586274147
261,2021-11-30 12:26:16.683946,5.014726164366126,57.16386050865094,-27.62343391896555,5.158354759216309,39.543785,2.37884166667,0.06332177668809891,-0.061184804886579514,-0.10591365396976471
262,2021-11-30 12:26:16.724706,5.020451110051911,57.164377757258876,-27.623533669032685,5.162076950073242,39.543785,2.37884166667,0.06295277178287506,-0.05870029702782631,-0.10559400171041489
263,2021-11-30 12:26:16.767045,5.029026818608087,57.16416921551539,-27.621982407507193,5.162076950073242,39.543785,2.37884166667,0.06263773888349533,-0.05619154870510101,-0.10517752170562744
264,2021-11-30 12:26:16.805898,5.031206120525724,57.163972114984134,-27.62054295430612,5.157726287841797,39.543785,2.37884166667,0.062326185405254364,-0.0555119588971138,-0.10554398596286774
265,2021-11-30 12:26:16.847129,5.031595735508472,57.16370354524246,-27.619005683622945,5.157726287841797,39.543785,2.37884166667,0.06213274970650673,-0.05304773524403572,-0.10498761385679245
266,2021-11-30 12:26:16.887191,5.031087338425522,57.162365711383984,-27.62050005658521,5.156500816345215,39.543785,2.37884166667,0.06189495325088501,-0.050822146236896515,-0.10432794690132141
267,2021-11-30 12:26:16.927873,5.030941542929374,57.161837298656955,-27.61955303934349,5.156500816345215,39.543785,2.37884166667,0.061713796108961105,-0.048870161175727844,-0.10356394946575165
268,2021-11-30 12:26:17.010985,5.0306239739515295,57.160659697166274,-27.6176164106035,5.156500816345215,39.543785,2.37884166667,0.0612056627869606,-0.046093232929706573,-0.1018514335155487
269,2021-11-30 12:26:17.049538,5.0302219508038295,57.1600092042387,-27.61809934217851,5.1560378074646,39.543785,2.37884166667,0.06093157082796097,-0.045315805822610855,-0.1018391102552414
270,2021-11-30 12:26:17.090446,5.030004576863642,57.159336555947036,-27.617417752232857,5.153165340423584,39.543785,2.37884166667,0.06065436080098152,-0.044510986655950546,-0.10082358866930008
271,2021-11-30 12:26:17.131043,5.029795576381369,57.15863713619928,-27.61674607872743,5.153165340423584,39.543785,2.37884166667,0.0603589303791523,-0.044084664434194565,-0.09976494312286377
272,2021-11-30 12:26:17.163322,5.029657201712136,57.15805515799071,-27.616216135525974,5.155269622802734,39.543785,2.37884166667,0.06016326695680618,-0.04412074387073517,-0.09872026741504669
273,2021-11-30 12:26:17.206472,5.029438329783527,57.15864395085297,-27.61536360625098,5.1545586585998535,39.543785,2.37884166667,0.05989108607172966,-0.04429560899734497,-0.09758640080690384
274,2021-11-30 12:26:17.244783,5.029295384514007,57.15817458645528,-27.614717425310644,5.1545586585998535,39.543785,2.37884166667,0.05962661653757095,-0.043866146355867386,-0.09731175005435944
275,2021-11-30 12:26:17.285389,5.031647082396782,57.15763742371019,-27.61403775483054,5.1573991775512695,39.543785,2.37884166667,0.05946021527051926,-0.04436061158776283,-0.09617411345243454
276,2021-11-30 12:26:17.325857,5.044646476848701,57.15708018532189,-27.613362240879628,5.152756214141846,39.543785,2.37884166667,0.05931996554136276,-0.04497683793306351,-0.09497494250535965
277,2021-11-30 12:26:17.366477,5.053955804117568,57.15637646343114,-27.615599059620074,5.152756214141846,39.543785,2.37884166667,0.05933484435081482,-0.04564536735415459,-0.09376745671033859
278,2021-11-30 12:26:17.449384,5.056305915487063,57.15506044192286,-27.615423611469613,5.152756214141846,39.543785,2.37884166667,0.05980534106492996,-0.04665970429778099,-0.09139088541269302
279,2021-11-30 12:26:17.488347,5.055057556762544,57.15440662137183,-27.615361864995787,5.15751838684082,39.543785,2.37884166667,0.05968597158789635,-0.046566370874643326,-0.09086135029792786
280,2021-11-30 12:26:17.529031,5.050779055422344,57.15356538682141,-27.616319479447654,5.15751838684082,39.543785,2.37884166667,0.06022161245346069,-0.046817369759082794,-0.08967386931180954
281,2021-11-30 12:26:17.569979,5.048790469623817,57.15280356515088,-27.616489579111494,5.153802394866943,39.543785,2.37884166667,0.060905151069164276,-0.0468432679772377,-0.08846243470907211
282,2021-11-30 12:26:17.602505,5.048569730857733,57.15218043865251,-27.616643885300803,5.15769100189209,39.543785,2.37884166667,0.06177547201514244,-0.046758510172367096,-0.08740788698196411
283,2021-11-30 12:26:17.650923,5.04885410172505,57.15121882307829,-27.616895723134153,5.15769100189209,39.543785,2.37884166667,0.062789686024189,-0.046445928514003754,-0.08614514768123627
284,2021-11-30 12:26:17.683629,5.048413917616622,57.14961637181457,-27.61799293927662,5.1588335037231445,39.543785,2.37884166667,0.06291093677282333,-0.046296387910842896,-0.08559098094701767
285,2021-11-30 12:26:17.724243,5.044537536721301,57.148575994701254,-27.61842902688952,5.1588335037231445,39.543785,2.37884166667,0.06413481384515762,-0.045779284089803696,-0.08448823541402817
286,2021-11-30 12:26:17.764826,5.041957191287037,57.14750709369411,-27.618892037407047,5.1588335037231445,39.543785,2.37884166667,0.06547840684652328,-0.0450606495141983,-0.08339782059192657
287,2021-11-30 12:26:17.805601,5.041803078229299,57.14640210639129,-27.61938477889486,5.16489315032959,39.543785,2.37884166667,0.06692826747894287,-0.04423351585865021,-0.08230973035097122
288,2021-11-30 12:26:17.846447,5.0424585584743715,57.146289944484764,-27.621050263630764,5.16489315032959,39.543785,2.37884166667,0.06847487390041351,-0.0431763119995594,-0.08128909021615982
289,2021-11-30 12:26:17.888901,5.042693652400872,57.145285448364994,-27.621854238930663,5.165261745452881,39.543785,2.37884166667,0.07012790441513062,-0.0421149805188179,-0.08026933670043945
290,2021-11-30 12:26:17.927574,5.043353751628809,57.14433515364394,-27.622606947468718,5.169961929321289,39.543785,2.37884166667,0.07065342366695404,-0.04165925830602646,-0.07954589277505875
291,2021-11-30 12:26:18.008957,5.044713666268638,57.14071549575408,-27.623790801854597,5.169961929321289,39.543785,2.37884166667,0.0741601511836052,-0.0390915721654892,-0.07775761187076569
292,2021-11-30 12:26:18.049404,5.045263116256971,57.13935415011467,-27.62458097970507,5.170099258422852,39.543785,2.37884166667,0.0759672001004219,-0.03776118531823158,-0.07697266340255737
293,2021-11-30 12:26:18.091662,5.041035484816383,57.137896067263284,-27.62543873584289,5.173614978790283,39.543785,2.37884166667,0.07780370861291885,-0.036399777978658676,-0.07619866728782654
294,2021-11-30 12:26:18.122525,5.033762537831066,57.13680111352966,-27.626079007284392,5.173614978790283,39.543785,2.37884166667,0.07838596403598785,-0.03582029417157173,-0.07564457505941391
295,2021-11-30 12:26:18.171001,5.029726243764539,57.135700729584634,-27.627341623458413,5.1718926429748535,39.543785,2.37884166667,0.08035429567098618,-0.03443131968379021,-0.0748300775885582
296,2021-11-30 12:26:18.203579,5.029582654464321,57.134603136983834,-27.628108174636292,5.1718926429748535,39.543785,2.37884166667,0.08199566602706909,-0.03343955799937248,-0.07440304756164551
297,2021-11-30 12:26:18.244193,5.029889802531528,57.133205610278445,-27.62909040062916,5.1718926429748535,39.543785,2.37884166667,0.08377419412136078,-0.032418038696050644,-0.07394888997077942
298,2021-11-30 12:26:18.284844,5.027993068832023,57.13177606140602,-27.630106153157225,5.176875591278076,39.543785,2.37884166667,0.08548685908317566,-0.031522978097200394,-0.07353952527046204
299,2021-11-30 12:26:18.326983,5.023826827050557,57.13124076195574,-27.63020637540929,5.147541522979736,39.543785,2.37884166667,0.08717392385005951,-0.03076973184943199,-0.07321687042713165
300,2021-11-30 12:26:18.366064,5.022725170321199,57.129993209805434,-27.631047595140572,5.147541522979736,39.543785,2.37884166667,0.08812696486711502,-0.03009745664894581,-0.07266096025705338
301,2021-11-30 12:26:18.406746,5.022862879321502,57.12866954601919,-27.631961963863667,5.147541522979736,39.543785,2.37884166667,0.08977437764406204,-0.029641158878803253,-0.07248606532812119
302,2021-11-30 12:26:18.447503,5.0232412369604535,57.12731677630378,-27.63290698628903,5.1550397872924805,39.543785,2.37884166667,0.09134731441736221,-0.02937721647322178,-0.07241296023130417
303,2021-11-30 12:26:18.528685,5.016674429616819,57.1235366823265,-27.63681600149255,5.1550397872924805,39.543785,2.37884166667,0.09422556310892105,-0.029420258477330208,-0.07255271077156067
304,2021-11-30 12:26:18.569767,5.015764745846301,57.12192876438659,-27.638173721410727,5.1550397872924805,39.543785,2.37884166667,0.09528417885303497,-0.02895970270037651,-0.072175532579422
305,2021-11-30 12:26:18.601950,5.015921584197043,57.12064108881433,-27.6392720403792,5.1550397872924805,39.543785,2.37884166667,0.09642472118139267,-0.029469409957528114,-0.0725814625620842
306,2021-11-30 12:26:18.650842,5.015896954797535,57.12077402631914,-27.64003206827611,5.160125255584717,39.543785,2.37884166667,0.09794531762599945,-0.029979007318615913,-0.07285778969526291
307,2021-11-30 12:26:18.691335,5.008506151998918,57.11950521790712,-27.641296879536302,5.159522533416748,39.543785,2.37884166667,0.09912979602813721,-0.03069184720516205,-0.07332261651754379
308,2021-11-30 12:26:18.723759,5.001998150721167,57.118472420110095,-27.64233468633186,5.159522533416748,39.543785,2.37884166667,0.10003884881734848,-0.031568493694067,-0.0738973319530487
309,2021-11-30 12:26:18.765926,4.999771880423612,57.1171112039534,-27.6437147947763,5.162995338439941,39.543785,2.37884166667,0.10122093558311462,-0.032588277012109756,-0.07453442364931107
310,2021-11-30 12:26:18.804896,4.999944836823725,57.117469636916624,-27.644651832462785,5.164361000061035,39.543785,2.37884166667,0.10220877826213837,-0.032566506415605545,-0.07449864596128464
311,2021-11-30 12:26:18.846016,5.000195633190887,57.116431590301296,-27.645982324333065,5.164361000061035,39.543785,2.37884166667,0.10332327336072922,-0.0337466299533844,-0.07531724870204926
312,2021-11-30 12:26:18.886221,4.994109445859736,57.11540316273198,-27.64731395988706,5.16659688949585,39.543785,2.37884166667,0.1043616458773613,-0.03505418077111244,-0.07614519447088242
313,2021-11-30 12:26:18.927170,4.985718670876816,57.11434189918907,-27.648703036607465,5.169861316680908,39.543785,2.37884166667,0.10533301532268524,-0.03646550700068474,-0.07702741771936417
